     3.03           OBSERVATION DATA    M: Mixed            RINEX VERSION / TYPE
RTKCONV demo5 b34d                      20250508 054257 UTC PGM / RUN BY / DATE 
format: u-blox UBX                                          COMMENT             
log: C:\Users\youna\Downloads\115 RTAP ÁÖÇà\RTAP1_250425_065COMMENT             
                                                            MARKER NAME         
                                                            MARKER NUMBER       
                                                            MARKER TYPE         
                                                            OBSERVER / AGENCY   
                                                            REC # / TYPE / VERS 
                                                            ANT # / TYPE        
 -3026874.4365  4072435.3781  3851531.3680                  APPROX POSITION XYZ 
        0.0000        0.0000        0.0000                  ANTENNA: DELTA H/E/N
G    8 C1C L1C D1C S1C C2X L2X D2X S2X                      SYS / # / OBS TYPES 
R    8 C1C L1C D1C S1C C2C L2C D2C S2C                      SYS / # / OBS TYPES 
E    8 C1X L1X D1X S1X C7X L7X D7X S7X                      SYS / # / OBS TYPES 
J    8 C1C L1C D1C S1C C2X L2X D2X S2X                      SYS / # / OBS TYPES 
S    4 C1C L1C D1C S1C                                      SYS / # / OBS TYPES 
C    8 C2I L2I D2I S2I C7I L7I D7I S7I                      SYS / # / OBS TYPES 
  2025    04    25    06    59   47.9960000     GPS         TIME OF FIRST OBS   
  2025    04    25    07    06   39.9960000     GPS         TIME OF LAST OBS    
G L1C                                                       SYS / PHASE SHIFT   
G L2X  0.00000                                              SYS / PHASE SHIFT   
R L1C                                                       SYS / PHASE SHIFT   
R L2C                                                       SYS / PHASE SHIFT   
E L1X  0.00000                                              SYS / PHASE SHIFT   
E L7X  0.00000                                              SYS / PHASE SHIFT   
J L1C                                                       SYS / PHASE SHIFT   
J L2X  0.00000                                              SYS / PHASE SHIFT   
S L1C                                                       SYS / PHASE SHIFT   
C L2I                                                       SYS / PHASE SHIFT   
C L7I                                                       SYS / PHASE SHIFT   
  9 R01  1 R02 -4 R03  5 R08  6 R15  0 R16 -1 R17  4 R18 -3 GLONASS SLOT / FRQ #
    R24  2                                                  GLONASS SLOT / FRQ #
 C1C    0.000 C1P    0.000 C2C    0.000 C2P    0.000        GLONASS COD/PHS/BIS 
                                                            END OF HEADER       
> 2025 04 25 06 59 47.9960000  0 43                     
S29  37240453.804 1 195699908.51613      -721.745          40.000  
S37  36167671.420 1 190062394.31613      -729.929          40.000  
G04  21941831.453 1 115305101.25014     -2030.693          35.000    21941836.398 1  89848169.47913     -1582.913          40.000  
G06  19684176.595 1 103441037.34011      -695.258          47.000    19684180.508 1  80603431.16611      -542.377          46.000  
G09  20421837.830 1 107317483.65514      -186.063          44.000    20421842.495 1  83624031.84712      -144.533          45.000  
G11  20629515.530 1 108408837.95712       923.581          44.000    20629518.226 1  84474443.96111       719.623          46.000  
C07  34773124.684 1 181072784.99711     -1191.614          46.000    34773120.533 1 140016943.97411      -921.539          48.000  
C08  35928222.340 1 187087682.44212      -382.838          42.000    35928219.438 1 144668052.43011      -296.250          49.000  
C10  35180714.659 1 183195212.01911      -834.166          45.000    35180713.318 1 141658153.79311      -644.674          48.000  
C27  21509595.671 1 112006100.42212     -2328.338          47.000                                                                  
C30  20660065.790 1 107582389.20611       289.280          50.000                                                                  
C13  37001639.733 1 192677247.96812      -228.231          42.000    37001647.300 1 148990304.39311      -176.748          47.000  
R02  18823575.830 1 100446233.08611      1652.589          53.000    18823581.953 1  78124862.38311      1285.131          48.000  
R16  22257449.851 2 118895278.20614      -911.558          45.000    22257459.701 2  92474162.35113      -709.770          45.000  
R15  22136364.045 9               9     -3567.713          24.000    22136352.703 9               9     -2785.465          19.000  
R01  18990115.830 1 101513049.66312     -2514.528          49.000                                                                  
R24  19213309.525 1 102742202.10912     -1813.865          52.000    19213312.309 1  79910613.93611     -1411.272          46.000  
R17  19254362.354 1 103033985.55512      1264.624          51.000    19254364.216 1  80137562.27512       983.756          47.000  
G12  22075920.828 1 116009746.28712      -606.442          42.000    22075925.709 1  90397227.03112      -472.623          42.000  
G17  21103273.480 1 110898435.80912     -3367.661          44.000    21103278.396 1  86414387.68712     -2624.702          43.000  
G19  19034008.086 1 100024370.67012     -2269.150          47.000                                                                  
G20  20978676.770 1 110243688.80012      1555.968          44.000                                                                  
J02  36045919.446 1 189422584.60313      -954.574          43.000    36045929.790 1 147602052.56411      -742.871          46.000  
J04  36360365.546 1 191075010.34312     -1071.497          43.000    36360368.660 1 148889649.84912      -835.760          46.000  
C29  24025023.469 1 125104613.91513      2056.914          41.000                                                                  
C32  20982551.913 1 109261656.94211       264.273          50.000                                                                  
R18  22524146.988 2 120235429.05213      2409.045          45.000    22524158.693 2  93516495.78414      1873.108          44.000  
R03  22436958.966 4 120106777.40518      3766.834          39.000    22436992.517 2  93416533.57515      2930.975          41.000  
J07  36167675.293 1 190062416.67914      -729.738          37.000    36167680.139 1 148100606.69211      -568.663          46.000  
J03  37833201.272 1 198814815.23311      -419.363          47.000    37833203.200 1 154920647.10611      -326.721          47.000  
E11  24538914.602 1 128952873.06113       651.664          40.000    24538919.864 1  98808076.48912       499.599          47.000  
E16  24293385.920 1 127662585.59012     -2015.941          41.000    24293395.450 1  97819425.89711     -1544.904          51.000  
E19  23559235.694 1 123804619.36415       155.939          38.000    23559243.259 1  94863307.92112       120.124          46.000  
E24  24965451.769 1 131194315.57512     -3055.940          42.000    24965463.097 1 100525575.32211     -2341.271          49.000  
S28  37716208.736 1 198200008.39613      -723.096          39.000  
E10  22945067.931 1 120577151.39711      -214.175          47.000    22945073.995 1  92390315.29211      -164.086          51.000  
E04  25301363.540 1 132959562.72613      2155.323          41.000    25301381.877 1 101878230.29611      1651.670          48.000  
E12  23109031.237 1 121438771.98012     -1124.194          44.000    23109034.747 1  93050511.65212      -861.536          48.000  
E33  25782005.731 1 135485355.38213     -2522.370          40.000    25782015.867 1 103813493.28912     -1933.186          43.000  
G22  23582534.718 4               9     -3906.495          28.000                                                                  
E25  24789875.843 1 130271669.59512      -813.618          42.000    24789886.706 1  99818598.73311      -623.544          49.000  
E29                                                                  26030124.794 1 104812524.67015     -1576.370          38.000  
G25                                                                  23557584.094 9               9       590.452          23.000  
> 2025 04 25 06 59 48.9960000  0 42                     
S29  37240591.232 1 195700630.226 3      -720.943          40.000  
S37  36167810.605 1 190063125.366 2      -732.165          40.000  
G04  21942218.055 1 115307133.162 4     -2032.851          41.000    21942223.017 1  89849752.709 3     -1584.478          43.000  
G06  19684308.815 1 103441732.678 1      -695.026          48.000    19684312.798 1  80603972.988 1      -541.895          46.000  
G09  20421873.652 1 107317671.631 3      -189.774          44.000    20421878.261 1  83624178.346 2      -148.090          43.000  
G11  20629339.665 1 108407913.446 2       925.586          44.000    20629342.366 1  84473723.590 1       721.067          45.000  
C07  34773353.671 1 181073977.085 1     -1192.316          46.000    34773349.431 1 140017865.754 1      -921.643          48.000  
C08  35928295.770 1 187088065.138 2      -382.103          42.000    35928292.992 1 144668348.356 1      -295.635          48.000  
C10  35180874.805 1 183196045.854 1      -833.397          45.000    35180873.424 1 141658798.574 1      -644.442          47.000  
C27  21510043.033 1 112008430.259 1     -2331.749          47.000                                                                  
C30  20660010.230 1 107582099.623 1       289.976          50.000                                                                  
C13  37001683.526 1 192677476.457 2      -227.446          43.000    37001691.206 1 148990481.114 2      -176.656          47.000  
R02  18823266.605 1 100444582.196 1      1649.495          52.000    18823272.543 1  78123578.324 1      1283.330          48.000  
R16  22257620.140 2 118896188.247 3      -908.840          45.000    22257630.059 2  92474870.166 4      -707.609          43.000  
R15  22137032.557 9               9     -3557.727          26.000    22137022.014 9               9     -2765.961          22.000  
R01  18990586.412 1 101515565.160 2     -2516.482          48.000                                                                  
R24  19213649.003 1 102744017.376 3     -1816.313          51.000    19213651.807 2  79912025.846 3     -1413.029          47.000  
R17  19254125.734 1 103032719.906 2      1266.830          51.000    19254127.674 1  80136577.887 2       985.046          47.000  
G12  22076036.104 1 116010351.661 3      -604.004          41.000    22076040.953 1  90397698.730 3      -470.844          40.000  
G17  21103914.651 1 110901805.351 2     -3371.506          44.000    21103919.501 1  86417013.315 2     -2626.968          43.000  
G19  19034440.163 1 100026641.348 1     -2271.930          47.000                                                                  
G20  20978380.537 1 110242132.351 2      1556.707          44.000                                                                  
J02  36046101.288 1 189423539.460 2      -956.481          43.000    36046111.553 1 147602796.601 1      -744.584          45.000  
J04  36360569.671 1 191076083.406 2     -1074.096          43.000    36360572.972 1 148890485.981 1      -837.079          46.000  
C29  24024628.310 1 125102556.260 3      2059.033          42.000                                                                  
C32  20982501.391 1 109261393.554 1       262.613          49.000                                                                  
R18  22523695.288 2 120233018.262 4      2412.848          44.000    22523707.082 2  93514620.783 4      1875.970          46.000  
R03  22436255.443 2 120103012.152 6      3765.100          39.000    22436289.062 2  93413605.105 7      2926.048          38.000  
J07  36167814.407 1 190063147.735 4      -732.404          37.000    36167819.261 1 148101176.329 2      -570.189          45.000  
J03  37833281.179 1 198815234.982 1      -419.930          47.000    37833283.129 1 154920974.196 1      -327.339          46.000  
E11  24538790.269 1 128952219.763 2       654.561          40.000    24538795.721 1  98807575.913 2       501.660          47.000  
E16  24293769.304 1 127664601.039 2     -2014.555          42.000    24293779.063 1  97820970.176 1     -1543.603          51.000  
E19  23559206.425 1 123804464.700 4       153.965          34.000    23559213.983 1  94863189.486 2       116.990          43.000  
E24  24966033.435 1 131197371.500 3     -3055.461          42.000    24966044.703 1 100527916.877 2     -2341.333          49.000  
S28  37716346.411 1 198200731.587 4      -721.490          37.000  
E10  22945108.550 1 120577365.014 1      -212.805          47.000    22945114.943 1  92390478.964 1      -163.094          51.000  
E04  25300953.544 1 132957409.044 3      2152.513          39.000    25300972.268 1 101876580.108 1      1648.932          48.000  
E12  23109245.188 1 121439896.599 2     -1124.755          43.000    23109248.668 1  93051373.352 1      -861.816          48.000  
E33  25782486.198 1 135487879.513 3     -2526.738          42.000    25782496.144 1 103815427.239 3     -1935.409          44.000  
E25  24790030.313 1 130272482.297 2      -811.159          42.000    24790041.540 1  99819221.453 1      -621.872          49.000  
E29                                                                  26030516.214 1 104814100.779 4     -1577.249          44.000  
G25                                                                  23557439.677 9               9       597.081          22.000  
> 2025 04 25 06 59 49.9960000  0 44                     
S29  37240728.288 1 195701350.343 3      -718.519          41.000  
S37  36167949.945 1 190063857.222 2      -732.117          40.000  
G04  21942605.164 1 115309167.794 4     -2036.383          40.000    21942610.141 1  89851338.077 2     -1586.133          42.000  
G06  19684441.108 1 103442428.119 2      -695.966          48.000    19684445.147 1  80604514.880 2      -541.925          46.000  
G09  20421910.069 1 107317862.938 3      -193.312          44.000    20421914.639 1  83624327.422 2      -150.017          44.000  
G11  20629163.376 1 108406986.904 2       927.643          44.000    20629166.133 1  84473001.602 1       722.840          46.000  
C07  34773582.491 1 181075168.882 1     -1191.504          46.000    34773578.285 1 140018787.318 1      -921.466          48.000  
C08  35928368.948 1 187088446.527 2      -380.662          42.000    35928366.157 1 144668643.277 1      -294.514          48.000  
C10  35181034.618 1 183196878.802 1      -832.410          45.000    35181033.478 1 141659442.647 1      -643.558          47.000  
C27  21510491.063 1 112010762.814 1     -2334.092          48.000                                                                  
C30  20659954.621 1 107581809.587 1       290.168          50.000                                                                  
C13  37001727.033 1 192677703.296 2      -225.847          43.000    37001734.777 1 148990656.480 2      -174.542          47.000  
R02  18822957.648 1 100442933.376 1      1647.805          52.000    18822963.578 1  78122295.944 1      1281.744          46.000  
R16  22257790.088 2 118897096.075 3      -907.100          47.000    22257799.970 2  92475576.195 3      -705.510          42.000  
R15  22137698.310 9 118297147.64837     -3557.046          26.000    22137690.091 9               9     -2762.860          24.000  
R01  18991057.421 1 101518082.829 2     -2519.341          49.000                                                                  
R24  19213988.930 1 102745835.205 2     -1819.410          51.000    19213991.833 1  79913439.666 2     -1414.758          44.000  
R17  19253888.986 1 103031453.112 2      1267.126          51.000    19253890.948 1  80135592.599 2       985.349          45.000  
G12  22076150.790 1 116010954.570 2      -601.645          43.000    22076155.704 1  90398168.536 2      -468.606          40.000  
G17  21104556.371 1 110905177.636 2     -3372.835          43.000    21104561.378 1  86419641.090 2     -2628.825          44.000  
G19  19034872.656 1 100028913.892 1     -2273.443          47.000                                                                  
G20  20978083.937 1 110240574.116 2      1559.453          44.000                                                                  
J02  36046283.187 1 189424495.288 3      -955.888          42.000    36046293.318 1 147603541.423 2      -744.199          45.000  
J04  36360774.279 1 191077158.164 2     -1075.574          44.000    36360777.526 1 148891323.444 1      -837.935          45.000  
C29  24024232.512 1 125100495.422 2      2061.941          42.000                                                                  
C32  20982451.019 1 109261131.701 1       261.167          50.000                                                                  
R18  22523242.960 2 120230604.240 3      2415.045          46.000    22523254.854 2  93512743.126 3      1878.778          40.000  
R03  22435552.292 4               9      3762.074          31.000    22435585.962 4               9      2927.337          33.000  
R08  23307353.315 9               9     -4922.517          19.000                                                                  
J07  36167953.783 1 190063879.572 3      -731.485          37.000    36167958.606 1 148101746.628 2      -570.129          46.000  
J03  37833361.265 1 198815655.564 1      -421.124          47.000    37833363.176 1 154921301.908 1      -328.239          46.000  
E11  24538665.430 1 128951563.992 3       656.526          40.000    24538670.961 1  98807073.428 2       503.420          47.000  
E16  24294152.245 1 127666614.376 2     -2011.723          42.000    24294162.486 1  97822512.871 1     -1541.739          51.000  
E19  23559177.600 1 123804313.391 4       149.420          37.000    23559185.203 1  94863073.479 2       114.455          45.000  
E24  24966614.703 1 131200426.219 3     -3053.525          43.000    24966626.130 1 100530257.451 2     -2339.821          50.000  
S28  37716483.685 1 198201452.823 4      -719.659          37.000  
E10  22945148.703 1 120577577.597 1      -212.091          47.000    22945155.465 1  92390641.852 1      -162.661          51.000  
E04  25300544.183 1 132955257.585 4      2149.598          40.000    25300562.830 1 101874931.612 2      1647.895          48.000  
E12  23109459.358 1 121441021.775 2     -1125.827          43.000    23109463.064 1  93052235.499 1      -862.657          48.000  
E33  25782967.018 1 135490406.723 3     -2529.238          41.000    25782977.049 1 103817363.647 3     -1936.995          43.000  
G22  23584026.005 8               9     -3906.020          30.000                                                                  
E25  24790184.607 1 130273292.456 2      -808.603          42.000    24790195.562 1  99819842.248 1      -619.921          48.000  
E29                                                                  26030907.906 1 104815678.179 5     -1578.697          45.000  
G25                                                                  23557296.437 9               9       596.233          19.000  
> 2025 04 25 06 59 50.9960000  0 44                     
S29  37240864.834 1 195702067.592 3      -715.709          42.000  
S37  36168089.233 1 190064588.806 3      -731.538          40.000  
G04  21942993.147 1 115311206.287 3     -2040.826          40.000    21942997.989 1  89852926.506 3     -1589.224          42.000  
G06  19684573.753 1 103443124.292 1      -697.302          47.000    19684577.614 1  80605057.326 1      -542.999          45.000  
G09  20421947.230 1 107318057.840 3      -196.898          44.000    20421951.578 1  83624479.276 2      -153.563          45.000  
G11  20628986.693 1 108406058.575 2       928.534          44.000    20628989.458 1  84472278.226 2       723.539          45.000  
C07  34773811.198 1 181076359.832 1     -1190.454          46.000    34773807.020 1 140019708.243 1      -920.740          48.000  
C08  35928441.653 1 187088825.755 2      -378.426          42.000    35928439.012 1 144668936.491 1      -292.613          48.000  
C10  35181194.283 1 183197710.411 1      -831.316          45.000    35181193.257 1 141660085.697 1      -642.640          47.000  
C27  21510939.507 1 112013098.119 1     -2336.534          48.000                                                                  
C30  20659898.790 1 107581519.470 1       289.571          50.000                                                                  
C13  37001769.970 1 192677927.265 2      -222.853          43.000    37001777.714 1 148990829.671 1      -172.215          46.000  
R02  18822648.917 1 100441285.887 1      1646.972          52.000    18822654.801 1  78121014.560 2      1281.242          46.000  
R16  22257959.758 1 118898002.058 2      -905.933          49.000    22257969.483 2  92476280.852 4      -705.209          42.000  
R15  22138363.035 9               9     -3548.633          26.000    22138356.451 9               9     -2769.287          25.000  
R01  18991528.990 1 101520603.471 1     -2522.654          48.000                                                                  
R24  19214329.474 1 102747656.129 2     -1822.568          51.000    19214332.329 1  79914855.914 2     -1417.561          45.000  
R17  19253652.220 1 103030185.853 2      1266.674          51.000    19253654.115 1  80134606.956 2       984.913          46.000  
G12  22076265.109 1 116011554.971 2      -600.323          42.000    22076269.999 1  90398636.346 2      -467.171          41.000  
G17  21105198.515 1 110908551.960 2     -3375.044          44.000    21105203.583 1  86422270.382 2     -2629.689          43.000  
G19  19035305.416 1 100031187.859 1     -2274.470          47.000                                                                  
G20  20977786.776 1 110239013.176 2      1562.068          44.000                                                                  
J02  36046465.013 1 189425450.700 2      -953.751          42.000    36046475.104 1 147604285.923 2      -744.528          45.000  
J04  36360979.010 1 191078233.898 2     -1075.850          44.000    36360982.154 1 148892161.703 1      -838.881          45.000  
C29  24023836.239 1 125098431.914 2      2063.983          43.000                                                                  
C32  20982400.908 1 109260870.944 1       260.350          50.000                                                                  
R18  22522790.173 2 120228187.131 3      2417.846          46.000    22522802.069 2  93510863.254 5      1879.974          41.000  
R03  22434846.314 9 120095487.90138      3765.104          35.000    22434885.473 8               9      2922.330          33.000  
R08  23308274.829 9               9     -4921.363          21.000                                                                  
J07  36168092.905 1 190064611.159 3      -731.008          37.000    36168097.762 1 148102316.681 2      -569.852          46.000  
J03  37833441.479 1 198816077.097 1      -422.260          47.000    37833443.331 1 154921630.380 1      -329.291          46.000  
E11  24538540.307 1 128950905.772 3       658.489          40.000    24538545.788 1  98806569.082 1       504.609          47.000  
E16  24294535.114 1 127668624.854 2     -2009.306          42.000    24294544.889 1  97824053.347 1     -1539.739          50.000  
E19  23559149.515 1 123804165.668 3       145.351          38.000    23559157.127 1  94862960.244 2       112.299          45.000  
E24  24967195.420 1 131203478.269 3     -3050.795          43.000    24967206.888 1 100532596.046 2     -2337.565          49.000  
S28  37716620.327 1 198202170.681 5      -716.077          39.000  
E10  22945189.187 1 120577789.657 1      -212.710          47.000    22945195.505 1  92390804.309 1      -162.915          50.000  
E04  25300134.912 1 132953107.024 4      2150.937          40.000    25300153.244 1 101873283.865 2      1647.799          47.000  
E12  23109673.792 1 121442148.235 1     -1127.937          43.000    23109677.341 1  93053098.613 1      -864.108          48.000  
E33  25783448.753 1 135492937.824 3     -2532.521          39.000    25783458.714 1 103819303.146 3     -1940.849          46.000  
G22  23584768.460 8               9     -3903.355          28.000                                                                  
E25  24790338.247 1 130274099.979 2      -806.500          43.000    24790349.255 1  99820460.998 1      -618.409          49.000  
E29                                                                  26031300.357 1 104817258.492 3     -1582.005          45.000  
G25                                                                  23557151.418 9               9       589.664          19.000  
> 2025 04 25 06 59 51.9960000  0 44                     
S29  37241000.397 1 195702780.332 3      -710.696          41.000  
S37  36168228.006 1 190065317.826 3      -727.104          40.000  
G04  21943382.152 1 115313250.405 3     -2047.196          38.000    21943386.856 1  89854519.301 3     -1594.896          42.000  
G06  19684706.636 1 103443822.573 1      -699.976          48.000    19684710.585 1  80605601.450 1      -545.209          45.000  
G09  20421984.921 1 107318256.123 2      -200.846          44.000    20421989.279 1  83624633.786 2      -156.349          44.000  
G11  20628810.050 1 108405129.842 2       928.428          45.000    20628812.700 1  84471554.526 1       723.427          45.000  
C07  34774039.495 1 181077549.190 1     -1188.605          46.000    34774035.369 1 140020627.911 1      -918.951          48.000  
C08  35928513.959 1 187089202.114 2      -375.243          42.000    35928511.249 1 144669227.520 1      -290.181          48.000  
C10  35181353.711 1 183198540.523 1      -829.672          45.000    35181352.666 1 141660727.574 1      -641.265          47.000  
C27  21511388.455 1 112015435.622 1     -2338.732          47.000                                                                  
C30  20659843.259 1 107581230.291 1       288.135          50.000                                                                  
C13  37001812.241 1 192678147.268 2      -217.845          43.000    37001819.968 1 148990999.771 2      -168.285          47.000  
R02  18822340.107 1 100439638.106 1      1647.770          52.000    18822346.048 1  78119732.946 1      1281.621          46.000  
R16  22258129.434 1 118898908.800 3      -907.658          48.000    22258139.224 2  92476986.073 4      -705.690          42.000  
R15  22139029.067 9               9     -3555.829          25.000    22139024.812 9               9     -2760.665          23.000  
R01  18992001.382 2 101523128.402 2     -2527.684          48.000                                                                  
R24  19214670.634 1 102749480.767 2     -1826.669          51.000    19214673.560 1  79916275.018 2     -1420.201          45.000  
R17  19253415.627 1 103028920.312 2      1264.288          50.000    19253417.680 1  80133622.640 1       983.139          46.000  
G12  22076379.097 1 116012154.158 2      -599.035          43.000    22076384.011 1  90399103.266 2      -467.102          40.000  
G17  21105840.590 1 110911926.134 2     -3374.007          43.000    21105845.623 1  86424899.597 2     -2629.376          43.000  
G19  19035738.224 1 100033462.153 1     -2274.435          47.000                                                                  
G20  20977488.918 1 110237448.638 2      1566.043          44.000                                                                  
J02  36046646.228 1 189426403.085 2      -950.144          41.000    36046656.328 1 147605027.972 2      -740.666          44.000  
J04  36361183.628 1 191079309.035 2     -1074.563          43.000    36361186.712 1 148892999.455 1      -837.345          45.000  
C29  24023439.784 1 125096367.806 2      2063.465          40.000                                                                  
C32  20982350.818 1 109260610.387 1       260.401          49.000                                                                  
R18  22522337.192 2 120225769.327 3      2417.309          49.000    22522349.055 2  93508982.698 7      1881.317          40.000  
R03  22434139.267 9               9      3773.476          31.000    22434178.250 8               9      2935.709          34.000  
R08  23309196.823 9               9     -4924.604          22.000                                                                  
J07  36168231.710 1 190065340.164 4      -726.227          37.000    36168236.529 1 148102884.757 2      -566.763          47.000  
J03  37833521.918 1 198816499.714 1      -423.465          47.000    37833523.753 1 154921959.690 1      -330.104          46.000  
E11  24538414.918 1 128950246.358 3       659.085          40.000    24538420.147 1  98806063.819 1       505.279          47.000  
E16  24294917.100 1 127670632.222 2     -2006.062          43.000    24294926.740 1  97825591.441 1     -1537.088          50.000  
E19  23559122.108 1 123804021.374 3       142.598          38.000    23559129.536 1  94862849.710 2       109.348          45.000  
E24  24967775.542 1 131206526.109 3     -3045.415          42.000    24967786.695 1 100534931.438 2     -2333.788          49.000  
S28  37716756.063 1 198202883.830 5      -710.199          39.000  
E10  22945229.798 1 120578002.571 1      -213.834          47.000    22945236.137 1  92390967.465 1      -163.833          50.000  
E04  25299725.395 1 132950954.773 3      2153.677          40.000    25299743.627 1 101871634.660 2      1650.544          47.000  
E12  23109888.536 1 121443277.303 1     -1130.846          43.000    23109892.338 1  93053963.757 1      -866.613          48.000  
E33  25783931.093 1 135495473.428 4     -2537.738          38.000    25783941.190 1 103821245.993 2     -1944.471          46.000  
G22  23585508.863 8               9     -3896.625          33.000                                                                  
E25  24790491.713 1 130274905.989 2      -805.112          42.000    24790502.509 1  99821078.567 1      -617.374          48.000  
E29                                                                  26031693.968 1 104818843.249 3     -1587.130          45.000  
G25                                                                  23557008.368 9               9       561.949          20.000  
> 2025 04 25 06 59 52.9960000  0 44                     
S29  37241135.069 1 195703487.892 3      -704.613          41.000  
S37  36168366.012 1 190066042.816 3      -722.157          40.000  
G04  21943772.279 1 115315300.659 3     -2052.929          40.000    21943776.983 1  89856117.000 2     -1599.807          42.000  
G06  19684840.135 1 103444524.029 1      -703.192          48.000    19684844.008 1  80606148.036 1      -547.943          45.000  
G09  20422023.262 1 107318457.402 2      -202.686          44.000    20422027.484 1  83624790.576 2      -157.048          43.000  
G11  20628633.531 1 108404202.076 1       926.242          45.000    20628636.131 1  84470831.592 2       721.675          45.000  
C07  34774267.520 1 181078736.622 1     -1186.072          46.000    34774263.406 1 140021546.120 1      -917.554          48.000  
C08  35928585.681 1 187089575.531 2      -371.936          42.000    35928582.944 1 144669516.279 1      -287.787          47.000  
C10  35181512.885 1 183199369.334 1      -828.467          45.000    35181511.824 1 141661368.490 1      -640.665          47.000  
C27  21511837.541 1 112017774.428 1     -2338.762          47.000                                                                  
C30  20659788.151 1 107580942.951 1       285.887          50.000                                                                  
C13  37001853.676 1 192678362.915 2      -213.416          43.000    37001861.398 1 148991166.540 2      -165.057          46.000  
R02  18822031.027 1 100437988.734 1      1651.050          52.000    18822036.941 1  78118450.108 1      1284.059          47.000  
R16  22258299.707 1 118899818.452 2      -912.559          50.000    22258309.470 2  92477693.649 4      -709.829          42.000  
R15  22139694.138 9               9     -3548.905          26.000    22139691.075 9               9     -2774.286          21.000  
R01  18992474.635 1 101525658.240 2     -2532.626          49.000                                                                  
R24  19215012.516 1 102751309.002 2     -1829.401          51.000    19215015.471 1  79917697.002 2     -1422.771          45.000  
R17  19253179.794 1 103027658.350 2      1259.691          51.000    19253181.820 1  80132641.111 1       979.180          46.000  
G12  22076493.171 1 116012753.612 2      -600.581          40.000    22076497.965 1  90399570.371 2      -468.014          40.000  
G17  21106482.296 1 110915298.439 2     -3370.156          44.000    21106487.340 1  86427527.351 2     -2626.290          44.000  
G19  19036170.924 1 100035735.856 1     -2272.675          47.000                                                                  
G20  20977190.514 1 110235880.388 2      1569.626          43.000                                                                  
J02  36046826.572 1 189427350.340 2      -943.974          40.000    36046836.610 1 147605766.145 2      -735.174          44.000  
J04  36361387.749 1 191080382.281 2     -1071.541          44.000    36361390.990 1 148893835.753 1      -834.931          45.000  
C29  24023043.582 1 125094305.086 3      2060.881          41.000                                                                  
C32  20982300.762 1 109260349.304 1       261.801          50.000                                                                  
R18  22521884.502 2 120223352.908 3      2413.342          47.000    22521896.450 2  93507103.427 6      1877.539          42.000  
R03  22433435.013 9               7      3783.832          33.000    22433473.948 9               8      2927.875          32.000  
R08  23310117.848 9               9     -4936.221          23.000                                                                  
J07  36168369.716 1 190066065.205 4      -722.674          37.000    36168374.513 1 148103449.678 2      -562.520          47.000  
J03  37833602.415 1 198816923.435 1      -424.022          47.000    37833604.402 1 154922289.836 2      -330.125          45.000  
E11  24538289.426 1 128949587.234 3       658.141          41.000    24538294.781 1  98805558.753 2       504.415          46.000  
E16  24295298.392 1 127672636.822 2     -2003.742          43.000    24295308.358 1  97827127.446 1     -1535.526          49.000  
E19  23559094.976 1 123803879.971 3       141.133          38.000    23559102.788 1  94862741.400 2       108.009          44.000  
E24  24968354.423 1 131209568.919 2     -3039.531          42.000    24968366.013 1 100537262.893 1     -2329.475          50.000  
S28  37716890.853 1 198203591.912 4      -705.841          39.000  
E10  22945270.474 1 120578217.700 1      -217.112          47.000    22945277.197 1  92391132.292 1      -166.352          51.000  
E04  25299315.150 1 132948798.492 4      2159.645          38.000    25299333.109 1 101869982.470 2      1655.654          46.000  
E12  23110104.067 1 121444409.925 1     -1134.780          43.000    23110107.670 1  93054831.593 1      -869.332          48.000  
E33  25784414.538 1 135498013.251 3     -2541.419          38.000    25784424.669 1 103823192.085 2     -1946.965          47.000  
G22  23586250.571 8               7     -3890.826          28.000                                                                  
E25  24790644.850 1 130275711.926 2      -807.080          42.000    24790656.082 1  99821696.078 1      -618.326          48.000  
E29                                                                  26032088.738 1 104820433.287 2     -1592.342          43.000  
G25                                                                  23556865.751 9               9       600.236          20.000  
> 2025 04 25 06 59 53.9960000  0 44                     
S29  37241268.903 1 195704190.807 2      -701.198          42.000  
S37  36168502.989 1 190066762.445 3      -716.784          40.000  
G04  21944163.437 1 115317356.041 3     -2057.316          40.000    21944168.126 1  89857718.559 2     -1602.767          42.000  
G06  19684974.324 1 103445228.936 1      -706.934          48.000    19684978.031 1  80606697.304 2      -550.531          45.000  
G09  20422061.762 1 107318659.553 2      -202.104          44.000    20422065.885 1  83624948.136 2      -157.478          45.000  
G11  20628457.508 1 108403277.063 2       922.657          44.000    20628460.049 1  84470110.791 2       719.078          46.000  
C07  34774495.250 1 181079922.092 1     -1184.802          46.000    34774491.143 1 140022462.767 1      -916.193          48.000  
C08  35928656.933 1 187089946.749 2      -370.546          43.000    35928654.234 1 144669803.296 1      -286.549          48.000  
C10  35181671.839 1 183200197.449 1      -828.252          45.000    35181670.857 1 141662008.839 1      -640.591          47.000  
C27  21512286.489 1 112020112.530 1     -2337.341          47.000                                                                  
C30  20659733.429 1 107580658.128 1       283.247          50.000                                                                  
C13  37001894.296 1 192678575.123 2      -211.098          41.000    37001902.124 1 148991330.622 1      -163.281          46.000  
R02  18821721.385 1 100436336.326 1      1654.451          52.000    18821727.319 1  78117164.907 2      1286.362          50.000  
R16  22258471.082 2 118900733.605 3      -918.332          49.000    22258480.815 2  92478405.395 3      -713.630          48.000  
R15  22140358.936 9 118311365.10037     -3546.551          26.000    22140357.258 9               9     -2760.496          28.000  
R01  18992948.721 1 101528192.231 2     -2535.864          49.000                                                                  
R24  19215354.855 1 102753139.369 2     -1830.983          51.000    19215357.760 1  79919120.585 2     -1424.036          49.000  
R17  19252944.907 1 103026401.360 2      1254.063          51.000    19252946.915 1  80131663.414 1       975.395          49.000  
G12  22076607.826 1 116013355.723 3      -604.704          41.000    22076612.576 1  90400039.545 3      -470.663          40.000  
G17  21107123.248 1 110918666.484 2     -3365.734          44.000    21107128.237 1  86430151.791 2     -2622.907          44.000  
G19  19036603.182 1 100038007.736 1     -2270.940          47.000                                                                  
G20  20976891.516 1 110234309.525 2      1570.964          44.000                                                                  
J02  36047005.622 1 189428291.183 3      -937.039          42.000    36047015.687 1 147606499.246 2      -730.945          46.000  
J04  36361591.335 1 191081451.917 2     -1067.516          44.000    36361594.400 1 148894669.218 2      -831.368          46.000  
C29  24022648.149 1 125092246.179 3      2056.310          41.000                                                                  
C32  20982250.423 1 109260086.602 1       263.695          49.000                                                                  
R18  22521432.625 2 120220940.501 3      2409.881          48.000    22521444.535 2  93505227.113 5      1874.103          46.000  
R03  22432727.802 9               9      3787.695          29.000    22432766.056 9  93398940.91337      2944.833          32.000  
R08  23311044.899 9               7     -4938.941          26.000    23311155.460 9               9     -3821.555          19.000  
J07  36168506.714 1 190066784.844 5      -717.176          37.000    36168511.498 1 148104010.413 2      -558.371          47.000  
J03  37833683.132 1 198817347.528 1      -424.097          47.000    37833685.153 1 154922620.308 1      -330.736          45.000  
E11  24538164.382 1 128948930.336 2       655.246          41.000    24538169.816 1  98805055.395 2       502.299          45.000  
E16  24295679.646 1 127674640.253 2     -2003.477          44.000    24295689.552 1  97828662.491 1     -1534.688          50.000  
E19  23559068.149 1 123803739.358 3       140.522          38.000    23559075.924 1  94862633.609 1       107.900          45.000  
E24  24968932.662 1 131212607.214 2     -3036.379          43.000    24968944.225 1 100539590.910 1     -2326.581          50.000  
S28  37717024.741 1 198204295.671 3      -701.770          39.000  
E10  22945312.024 1 120578435.964 1      -220.205          46.000    22945318.590 1  92391299.535 1      -168.802          50.000  
E04  25298903.513 1 132946635.900 4      2166.845          39.000    25298921.712 1 101868325.506 2      1659.058          46.000  
E12  23110320.146 1 121445545.892 2     -1137.729          43.000    23110323.959 1  93055701.999 1      -871.718          48.000  
E33  25784898.175 1 135500555.071 3     -2542.341          38.000    25784908.457 1 103825139.719 2     -1948.003          47.000  
G22  23586990.828 9               9     -3880.866          26.000                                                                  
E25  24790798.674 1 130276519.853 2      -809.685          42.000    24790809.866 1  99822315.159 1      -620.487          47.000  
E29                                                                  26032484.866 1 104822027.981 2     -1596.653          45.000  
G25                                                                  23556721.212 9               9       582.950          21.000  
> 2025 04 25 06 59 54.9960000  0 44                     
S29  37241402.149 1 195704890.806 2      -698.815          42.000  
S37  36168638.969 1 190067477.185 3      -712.322          40.000  
G04  21944555.157 1 115319414.633 2     -2059.601          40.000    21944559.811 1  89859322.654 2     -1604.890          42.000  
G06  19685109.018 1 103445937.030 1      -709.125          47.000    19685112.782 1  80607249.076 2      -552.698          44.000  
G09  20422100.065 1 107318861.161 2      -200.841          44.000    20422104.207 1  83625105.227 2      -156.409          43.000  
G11  20628282.164 1 108402355.795 2       919.822          44.000    20628284.701 1  84469392.903 2       716.983          45.000  
C07  34774722.633 1 181081106.211 1     -1183.502          46.000    34774718.613 1 140023378.414 1      -915.070          48.000  
C08  35928728.110 1 187090317.018 2      -369.514          42.000    35928725.389 1 144670089.600 1      -286.117          47.000  
C10  35181830.829 1 183201025.709 1      -828.325          44.000    35181829.942 1 141662649.279 1      -640.580          47.000  
C27  21512735.143 1 112022448.778 2     -2335.002          47.000                                                                  
C30  20659679.302 1 107580376.034 1       280.961          50.000                                                                  
C13  37001934.613 1 192678785.604 2      -210.017          43.000    37001942.535 1 148991493.394 1      -162.459          45.000  
R02  18821411.187 1 100434680.781 2      1657.275          52.000    18821417.019 1  78115877.233 2      1289.155          48.000  
R16  22258643.751 1 118901655.600 2      -925.700          50.000    22258653.461 2  92479122.469 3      -719.306          47.000  
R15  22141020.333 9               9     -3554.549          25.000    22141023.122 9               9     -2778.770          23.000  
R01  18993423.329 1 101530729.222 1     -2537.870          48.000                                                                  
R24  19215697.278 1 102754970.457 1     -1830.883          51.000    19215700.138 1  79920544.767 2     -1423.904          48.000  
R17  19252711.020 1 103025149.559 2      1249.410          51.000    19252712.953 1  80130689.789 2       971.868          48.000  
G12  22076723.299 1 116013962.179 3      -608.242          43.000    22076728.017 1  90400512.088 2      -474.534          41.000  
G17  21107763.186 1 110922029.614 2     -3360.177          44.000    21107768.205 1  86432772.391 2     -2618.671          43.000  
G19  19037035.072 1 100040277.430 2     -2268.606          47.000                                                                  
G20  20976592.359 1 110232737.817 2      1571.972          43.000                                                                  
J02  36047183.471 1 189429226.023 3      -931.549          42.000    36047193.501 1 147607227.664 2      -726.196          46.000  
J04  36361794.164 1 191082517.646 2     -1063.573          44.000    36361797.225 1 148895499.681 2      -829.063          45.000  
C29  24022253.831 1 125090192.620 5      2050.051          35.000                                                                  
C32  20982199.637 1 109259822.165 1       265.652          50.000                                                                  
R18  22520981.597 2 120218533.622 4      2404.828          47.000    22520993.654 2  93503355.149 6      1868.225          41.000  
R03  22432021.635 9               9      3792.741          30.000    22432055.492 9               9      2948.890          32.000  
R08  23311970.611 9               9     -4944.730          25.000    23312069.222 9               9     -3821.555          20.000  
J07  36168642.789 1 190067499.543 5      -712.145          37.000    36168647.669 1 148104567.349 2      -555.144          46.000  
J03  37833763.811 1 198817771.531 1      -423.560          47.000    37833765.808 1 154922950.671 2      -329.774          45.000  
E11  24538040.021 1 128948277.023 3       651.729          41.000    24538045.479 1  98804554.857 2       499.090          46.000  
E16  24296060.804 1 127676644.417 3     -2005.649          40.000    24296070.877 1  97830198.152 2     -1536.092          47.000  
E19  23559041.335 1 123803597.819 3       142.925          38.000    23559048.900 1  94862525.176 1       109.215          45.000  
E24  24969510.064 1 131215642.628 2     -3034.323          42.000    24969521.890 1 100541916.775 1     -2325.195          49.000  
S28  37717158.205 1 198204997.207 3      -701.160          40.000  
E10  22945354.151 1 120578657.800 1      -223.478          46.000    22945360.748 1  92391469.482 1      -171.247          50.000  
E04  25298490.815 2 132944466.860 6      2172.500          42.000    25298509.010 1 101866663.486 3      1664.778          49.000  
E12  23110536.899 1 121446684.627 2     -1139.704          43.000    23110540.502 1  93056574.520 1      -873.378          48.000  
E33  25785381.866 1 135503096.751 4     -2540.243          38.000    25785391.951 1 103827087.261 2     -1947.349          45.000  
G22  23587730.042 9               9     -3871.940          25.000                                                                  
E25  24790953.082 1 130277331.606 2      -813.975          40.000    24790964.436 1  99822937.206 2      -624.202          47.000  
E29                                                                  26032881.568 1 104823625.839 1     -1599.072          45.000  
G25                                                                  23556579.123 9               9       579.385          21.000  
> 2025 04 25 06 59 55.9960000  0 44                     
S29  37241535.046 1 195705588.989 2      -697.799          42.000  
S37  36168774.200 1 190068187.537 3      -709.061          38.000  
G04  21944947.283 1 115321475.145 3     -2061.276          40.000    21944951.873 1  89860928.219 2     -1606.156          42.000  
G06  19685244.267 1 103446647.759 2      -711.853          48.000    19685248.102 1  80607802.844 2      -554.333          43.000  
G09  20422138.143 1 107319061.451 2      -200.036          44.000    20422142.344 1  83625261.301 2      -156.111          43.000  
G11  20628107.625 1 108401438.432 3       915.571          42.000    20628110.154 1  84468678.048 4       714.388          42.000  
C07  34774949.852 1 181082289.361 1     -1182.922          46.000    34774945.843 1 140024293.300 1      -914.850          47.000  
C08  35928799.155 1 187090687.098 2      -370.084          41.000    35928796.405 1 144670375.765 2      -286.254          47.000  
C10  35181990.169 1 183201854.453 2      -829.625          45.000    35181989.089 1 141663290.113 1      -642.108          47.000  
C27  21513183.338 1 112024782.590 2     -2333.278          47.000                                                                  
C30  20659625.411 1 107580096.403 2       278.519          50.000                                                                  
C13  37001974.859 1 192678995.225 3      -209.303          42.000    37001982.846 1 148991655.469 2      -161.818          45.000  
R02  18821100.291 1 100433022.254 1      1659.341          53.000    18821106.179 1  78114587.285 2      1290.584          45.000  
R16  22258817.638 2 118902584.262 4      -932.276          49.000    22258827.271 2  92479844.742 4      -724.363          41.000  
R15  22141685.789 9               9     -3549.760          25.000    22141689.969 9               9     -2760.713          22.000  
R01  18993898.459 1 101533268.242 2     -2539.696          48.000                                                                  
R24  19216039.685 1 102756801.374 1     -1830.839          50.000    19216042.613 1  79921968.826 2     -1424.090          45.000  
R17  19252477.948 1 103023902.428 2      1245.329          49.000    19252479.900 1  80129719.777 2       968.737          44.000  
G12  22076839.661 1 116014573.384 3      -613.732          41.000    22076844.288 1  90400988.357 3      -477.807          38.000  
G17  21108402.221 1 110925387.982 2     -3357.212          41.000    21108407.317 1  86435389.297 3     -2615.675          41.000  
G19  19037466.520 1 100042544.989 1     -2267.157          46.000                                                                  
G20  20976293.269 1 110231166.191 3      1571.707          44.000                                                                  
J02  36047360.408 1 189430155.715 3      -927.850          42.000    36047370.362 1 147607952.091 2      -722.891          45.000  
J04  36361996.266 1 191083579.595 2     -1060.584          44.000    36361999.302 1 148896327.145 2      -826.768          44.000  
C29  24021860.349 1 125088144.148 6      2047.050          33.000                                                                  
C32  20982148.633 1 109259555.982 1       266.663          49.000                                                                  
R18  22520531.568 4               9      2398.019          30.000    22520543.832 4  93501482.56137      1863.617          34.000  
R03  22431313.884 9               9      3799.541          31.000    22431344.272 9               9      2955.728          25.000  
R08  23312896.539 9               9     -4946.137          25.000    23312989.027 9               9     -3821.555          18.000  
J07  36168777.907 2 190068209.885 5      -708.207          37.000    36168782.889 1 148105120.873 2      -552.195          45.000  
J03  37833844.327 1 198818195.032 1      -423.501          46.000    37833846.454 1 154923280.684 2      -330.221          44.000  
E11  24537916.485 1 128947627.550 4       647.805          41.000    24537921.722 1  98804057.140 3       497.020          44.000  
E16  24296442.483 1 127678649.931 4     -2006.204          42.000    24296452.638 1  97831734.851 2     -1537.349          48.000  
E19  23559014.116 1 123803454.594 3       143.720          38.000    23559021.585 1  94862415.427 2       110.038          44.000  
E24  24970087.383 1 131218676.321 2     -3033.164          43.000    24970099.143 1 100544241.239 1     -2323.865          49.000  
S28  37717291.513 1 198205697.542 4      -699.347          40.000  
E10  22945397.164 1 120578882.789 1      -226.337          46.000    22945403.598 1  92391641.901 1      -173.494          50.000  
E04  25298076.766 2 132942291.762 6      2177.279          41.000    25298095.133 1 101864996.825 3      1668.298          47.000  
E12  23110754.048 1 121447825.352 2     -1141.659          42.000    23110757.856 1  93057448.590 1      -874.977          48.000  
E33  25785865.049 1 135505637.350 4     -2540.130          37.000    25785875.438 1 103829033.890 2     -1946.583          47.000  
G22  23588464.075 9               9     -3881.586          24.000                                                                  
E25  24791108.392 1 130278147.560 4      -817.240          40.000    24791119.737 1  99823562.367 2      -626.346          47.000  
E29                                                                  26033278.918 1 104825225.930 2     -1601.039          44.000  
G25                                                                  23556438.497 9               9       573.787          21.000  
> 2025 04 25 06 59 56.9960000  0 43                     
S29  37241667.768 1 195706286.170 2      -696.948          41.000  
S37  36168908.835 1 190068895.115 3      -705.618          40.000  
G04  21945339.771 1 115323537.603 4     -2064.065          40.000    21945344.328 1  89862535.358 2     -1608.881          42.000  
G06  19685379.958 1 103447360.958 2      -714.191          48.000    19685383.839 1  80608358.595 2      -556.598          45.000  
G09  20422176.140 1 107319261.436 2      -200.225          43.000    20422180.316 1  83625417.085 2      -155.701          44.000  
G11  20627933.668 1 108400524.205 3       913.022          45.000    20627936.176 1  84467965.700 3       711.127          44.000  
C07  34775177.123 1 181083472.324 1     -1182.764          46.000    34775173.086 1 140025208.028 2      -914.520          47.000  
C08  35928870.141 1 187091057.410 2      -370.468          41.000    35928867.542 1 144670662.112 2      -286.083          46.000  
C10  35182149.505 1 183202684.014 2      -829.672          45.000    35182148.439 1 141663931.566 2      -641.674          46.000  
C27  21513631.363 1 112027115.244 2     -2333.016          47.000                                                                  
C30  20659572.130 1 107579819.160 2       276.309          50.000                                                                  
C13  37002015.061 1 192679204.617 2      -209.172          42.000    37002023.096 1 148991817.373 2      -161.411          45.000  
R02  18820789.222 1 100431362.344 2      1660.070          52.000    18820795.152 1  78113296.242 2      1291.094          46.000  
R16  22258992.377 2 118903518.155 5      -936.266          48.000    22259002.081 2  92480571.082 5      -728.131          43.000  
R15  22142347.679 9               9     -3549.889          26.000    22142354.426 9               9     -2759.655          25.000  
R01  18994373.744 1 101535809.528 2     -2542.625          48.000                                                                  
R24  19216382.245 1 102758632.866 2     -1832.121          51.000    19216385.082 1  79923393.287 2     -1425.372          47.000  
R17  19252245.604 1 103022659.187 3      1242.160          50.000    19252247.652 2  80128752.865 2       965.605          47.000  
G12  22076956.734 1 116015188.397 4      -616.434          41.000    22076961.332 1  90401467.544 3      -479.829          40.000  
G17  21109040.718 1 110928743.289 3     -3354.658          43.000    21109045.854 1  86438003.806 3     -2614.266          43.000  
G19  19037897.878 1 100044811.656 1     -2266.735          47.000                                                                  
G20  20975994.306 1 110229595.000 2      1571.740          44.000                                                                  
J02  36047536.639 1 189431081.905 2      -924.606          43.000    36047546.543 1 147608673.801 2      -720.297          46.000  
J04  36362197.874 1 191084639.286 2     -1059.040          44.000    36362200.980 1 148897152.867 2      -824.907          45.000  
C29  24021467.797 1 125086099.872 4      2043.403          43.000                                                                  
C32  20982097.206 1 109259289.218 1       266.565          50.000                                                                  
R18  22520081.018 4 120213721.17436      2395.709          43.000    22520094.731 2  93499617.91125      1863.037          43.000  
R03  22430602.859 9               9      3795.511          29.000    22430635.851 9               9      2953.089          32.000  
R08  23313825.535 9 124844476.52237     -4951.390          27.000                                                                  
J07  36168912.494 1 190068917.463 5      -705.766          36.000    36168917.492 1 148105672.242 2      -550.741          46.000  
J03  37833924.947 1 198818618.725 1      -424.094          47.000    37833927.012 1 154923610.809 2      -330.261          45.000  
E11  24537793.377 1 128946981.183 3       645.160          41.000    24537798.843 1  98803561.892 3       494.173          46.000  
E16  24296824.549 1 127680657.006 2     -2007.542          42.000    24296834.537 1  97833272.711 2     -1537.978          49.000  
E19  23558986.788 1 123803310.774 4       143.651          38.000    23558994.129 1  94862305.231 2       109.717          45.000  
E24  24970664.616 1 131221709.049 2     -3031.959          43.000    24970676.350 1 100546565.041 1     -2323.608          49.000  
S28  37717424.700 1 198206397.193 3      -699.390          41.000  
E10  22945440.470 1 120579110.657 2      -228.977          47.000    22945447.049 1  92391816.495 2      -175.545          51.000  
E04  25297662.271 2 132940112.653 5      2181.554          39.000    25297680.411 1 101863327.184 4      1670.872          47.000  
E12  23110971.491 1 121448968.124 2     -1143.935          43.000    23110975.293 1  93058324.225 1      -876.546          48.000  
E33  25786348.618 1 135508177.391 5     -2539.928          40.000    25786358.828 1 103830980.149 3     -1946.795          48.000  
E25  24791264.527 1 130278966.996 4      -820.204          41.000    24791275.397 1  99824190.210 2      -629.061          46.000  
E29                                                                  26033676.857 1 104826827.952 2     -1603.262          44.000  
G25                                                                  23556299.339 9               9       567.427          20.000  
> 2025 04 25 06 59 57.9960000  0 43                     
S29  37241800.072 1 195706981.410 3      -694.599          41.000  
S37  36169043.137 1 190069600.823 3      -704.752          39.000  
G04  21945732.742 1 115325602.722 3     -2066.175          40.000    21945737.307 1  89864144.512 3     -1610.275          41.000  
G06  19685516.002 1 103448075.866 2      -715.381          48.000    19685519.907 1  80608915.657 2      -557.281          45.000  
G09  20422214.384 1 107319462.557 2      -201.867          43.000    20422218.557 1  83625573.819 2      -157.311          44.000  
G11  20627759.857 1 108399611.176 2       913.354          45.000    20627762.486 1  84467254.247 2       711.707          45.000  
C07  34775404.175 1 181084654.713 1     -1181.812          46.000    34775400.110 1 140026122.331 1      -913.843          49.000  
C08  35928940.963 1 187091426.909 2      -368.511          41.000    35928938.447 1 144670947.835 2      -284.636          47.000  
C10  35182308.744 1 183203513.453 2      -828.666          45.000    35182307.770 1 141664572.931 2      -640.632          49.000  
C27  21514079.350 1 112029448.113 2     -2333.068          46.000                                                                  
C30  20659519.214 1 107579543.213 1       275.824          50.000                                                                  
C13  37002055.097 1 192679412.722 3      -207.107          43.000    37002063.038 1 148991978.290 2      -159.819          47.000  
R02  18820478.126 1 100429701.967 2      1660.283          52.000    18820483.951 1  78112004.857 2      1291.619          46.000  
R16  22259167.622 2 118904454.592 5      -938.866          50.000    22259177.333 2  92481299.334 4      -728.141          42.000  
R15  22143011.293 9               9     -3556.260          26.000    22143021.646 9               9     -2761.191          25.000  
R01  18994849.586 1 101538353.200 2     -2544.662          48.000                                                                  
R24  19216725.006 1 102760465.770 2     -1833.549          51.000    19216727.823 1  79924818.885 2     -1426.184          47.000  
R17  19252013.660 1 103021418.138 2      1240.773          51.000    19252015.701 1  80127787.600 2       964.720          48.000  
G12  22077073.951 1 116015804.732 3      -616.438          41.000    22077078.611 1  90401947.857 3      -480.392          39.000  
G17  21109678.994 1 110932097.483 3     -3355.321          44.000    21109684.121 1  86440617.420 2     -2614.017          44.000  
G19  19038329.143 1 100047078.169 2     -2266.040          47.000                                                                  
G20  20975695.214 1 110228022.962 3      1573.031          44.000                                                                  
J02  36047712.394 1 189432005.839 3      -922.943          42.000    36047722.266 1 147609393.717 2      -719.045          46.000  
J04  36362399.317 1 191085697.877 2     -1058.343          43.000    36362402.538 1 148897977.721 2      -824.471          45.000  
C29  24021075.481 1 125084057.044 3      2042.728          43.000                                                                  
C32  20982045.872 1 109259022.380 1       266.880          49.000                                                                  
R18  22519633.590 4 120211325.49127      2395.001          45.000    22519645.947 2  93497754.52925      1864.282          39.000  
R03  22429892.015 9               9      3805.107          29.000    22429924.213 9               9      2933.996          29.000  
R08  23314752.614 9               9     -4953.770          26.000                                                                  
J07  36169046.897 2 190069623.197 5      -704.953          36.000    36169051.753 1 148106222.124 2      -549.005          46.000  
J03  37834005.596 1 198819042.762 1      -423.988          47.000    37834007.707 1 154923941.240 2      -330.197          45.000  
E11  24537670.387 1 128946335.658 3       645.896          41.000    24537675.998 1  98803067.270 2       494.774          46.000  
E16  24297206.194 1 127682663.741 3     -2006.652          44.000    24297216.476 1  97834810.348 2     -1537.467          49.000  
E19  23558959.547 1 123803167.882 3       142.154          38.000    23558967.205 1  94862195.731 2       108.748          45.000  
E24  24971241.389 1 131224740.088 2     -3029.384          43.000    24971253.278 1 100548887.508 2     -2321.660          50.000  
S28  37717557.463 2 198207095.066 6      -697.443          39.000  
E10  22945484.172 1 120579339.946 2      -229.486          47.000    22945490.717 1  92391992.175 2      -175.777          51.000  
E04  25297247.158 2 132937931.269 6      2183.274          36.000    25297265.368 1 101861655.839 5      1672.516          43.000  
E12  23111189.071 1 121450112.487 2     -1144.722          43.000    23111192.957 1  93059201.083 1      -877.207          48.000  
E33  25786832.386 2 135510718.632 7     -2540.988          39.000    25786842.389 1 103832927.302 4     -1947.996          45.000  
E25  24791420.387 1 130279787.388 3      -820.165          41.000    24791431.408 1  99824818.807 2      -628.802          46.000  
E29                                                                  26034075.175 1 104828432.182 2     -1604.597          44.000  
G25                                                                  23556159.650 9               9       569.701          23.000  
> 2025 04 25 06 59 58.9960000  0 43                     
S29  37241931.879 1 195707674.509 3      -692.111          42.000  
S37  36169177.117 1 190070304.859 3      -703.217          39.000  
G04  21946126.317 1 115327670.520 3     -2069.714          40.000    21946130.819 1  89865755.790 3     -1612.482          41.000  
G06  19685652.241 1 103448791.789 2      -716.620          48.000    19685656.102 1  80609473.516 2      -558.276          45.000  
G09  20422253.028 1 107319665.146 2      -204.433          44.000    20422257.119 1  83625731.664 2      -158.919          44.000  
G11  20627586.076 1 108398698.260 2       912.946          45.000    20627588.771 1  84466542.871 3       711.947          44.000  
C07  34775631.035 1 181085836.180 2     -1180.884          46.000    34775627.045 1 140027035.936 1      -913.403          48.000  
C08  35929011.600 1 187091795.129 2      -367.160          42.000    35929009.236 1 144671232.577 2      -284.263          47.000  
C10  35182467.837 1 183204342.150 2      -827.883          45.000    35182466.840 1 141665213.753 2      -640.610          48.000  
C27  21514527.473 1 112031781.621 2     -2333.956          47.000                                                                  
C30  20659466.346 1 107579267.799 2       275.183          50.000                                                                  
C13  37002094.779 1 192679618.995 3      -205.157          42.000    37002102.609 1 148992137.819 2      -159.092          47.000  
R02  18820166.929 1 100428041.396 2      1660.788          51.000    18820172.771 1  78110713.310 2      1291.734          47.000  
R16  22259343.205 2 118905392.165 6      -939.799          49.000    22259352.973 2  92482028.637 7      -730.109          43.000  
R15  22143674.904 9 118329084.20237     -3546.370          31.000    22143685.988 9               9     -2764.973          24.000  
R01  18995325.816 1 101540899.024 2     -2547.055          48.000                                                                  
R24  19217068.019 1 102762300.199 2     -1835.548          52.000    19217070.759 1  79926245.649 2     -1427.465          46.000  
R17  19251782.041 1 103020178.214 3      1239.131          49.000    19251784.001 1  80126823.199 2       963.696          47.000  
G12  22077191.325 1 116016421.246 5      -617.356          41.000    22077195.942 1  90402428.225 4      -480.727          39.000  
G17  21110317.210 1 110935451.089 3     -3353.429          45.000    21110322.340 1  86443230.645 3     -2613.156          43.000  
G19  19038760.447 1 100049344.705 1     -2266.683          47.000                                                                  
G20  20975395.882 1 110226449.457 2      1573.993          44.000                                                                  
J02  36047887.870 1 189432927.813 3      -921.124          41.000    36047897.799 1 147610112.125 2      -717.948          45.000  
J04  36362600.601 1 191086755.641 2     -1057.175          43.000    36362603.892 1 148898801.977 2      -823.808          45.000  
C29  24020683.113 1 125082014.364 5      2042.581          42.000                                                                  
C32  20981994.668 1 109258755.496 1       267.015          50.000                                                                  
R18  22519185.476 8               9      2394.586          41.000    22519197.284 2  93495891.380 7      1863.336          39.000  
R03  22429183.471 9               7      3808.777          33.000    22429214.270 9               9      2961.018          33.000  
R08  23315678.985 9               9     -4957.462          26.000                                                                  
J07  36169181.023 2 190070327.219 5      -703.054          36.000    36169185.698 1 148106770.710 2      -547.981          46.000  
J03  37834086.350 1 198819466.934 1      -424.040          47.000    37834088.410 1 154924271.771 2      -330.501          46.000  
E11  24537547.675 1 128945689.906 4       645.830          41.000    24537553.164 1  98802572.466 2       495.027          46.000  
E16  24297587.691 1 127684669.346 3     -2004.659          43.000    24297598.183 1  97836347.129 2     -1536.355          50.000  
E19  23558932.672 1 123803026.326 4       140.909          39.000    23558940.007 1  94862087.263 2       107.939          44.000  
E24  24971817.943 1 131227769.194 2     -3027.801          43.000    24971829.624 1 100551208.510 2     -2320.553          49.000  
S28  37717689.851 1 198207790.895 4      -695.581          40.000  
E10  22945527.892 1 120579569.748 2      -230.440          47.000    22945534.405 1  92392168.262 2      -176.878          51.000  
E04  25296831.679 2 132935748.727 6      2183.165          37.000    25296849.787 1 101859983.443 5      1672.965          44.000  
E12  23111407.058 1 121451257.978 2     -1146.200          43.000    23111411.071 1  93060078.793 1      -878.404          48.000  
E33  25787316.361 1 135513261.536 5     -2544.529          38.000    25787326.163 1 103834875.717 3     -1949.688          45.000  
E25  24791576.707 1 130280607.666 3      -820.476          41.000    24791587.728 1  99825447.313 3      -628.307          47.000  
E29                                                                  26034473.955 1 104830038.560 3     -1607.596          45.000  
G25                                                                  23556020.420 9  96457965.19017       566.283          31.000  
> 2025 04 25 06 59 59.9960000  0 44                     
S29  37242063.317 1 195708365.522 3      -689.464          42.000  
S37  36169310.867 1 190071007.562 3      -701.054          40.000  
G04  21946520.337 1 115329740.997 3     -2070.768          40.000    21946524.799 1  89867369.199 3     -1614.614          41.000  
G06  19685788.642 1 103449508.779 1      -717.242          48.000    19685792.623 1  80610032.215 2      -558.838          45.000  
G09  20422291.889 1 107319869.418 3      -204.694          44.000    20422295.987 1  83625890.880 2      -159.768          44.000  
G11  20627412.347 1 108397785.348 2       913.314          45.000    20627414.974 1  84465831.510 2       711.992          45.000  
C07  34775857.823 1 181087016.921 2     -1179.956          46.000    34775853.773 1 140027948.941 1      -912.360          48.000  
C08  35929082.101 1 187092162.092 2      -366.197          41.000    35929079.669 1 144671516.323 2      -282.919          48.000  
C10  35182626.910 1 183205170.246 2      -827.480          45.000    35182625.893 1 141665854.079 2      -639.930          48.000  
C27  21514975.704 1 112034116.027 3     -2334.314          46.000                                                                  
C30  20659413.675 1 107578992.974 1       274.852          50.000                                                                  
C13  37002134.077 1 192679823.515 2      -203.068          42.000    37002141.944 1 148992295.939 2      -156.856          47.000  
R02  18819855.836 1 100426380.938 2      1660.985          52.000    18819861.681 1  78109421.841 2      1292.071          47.000  
R16  22259518.829 4 118906353.68037      -938.002          46.000    22259528.763 2  92482758.616 6      -730.004          42.000  
R15  22144334.456 9 118332609.06838     -3543.418          28.000    22144349.154 9               9     -2757.037          27.000  
R01  18995802.484 1 101543447.149 2     -2549.101          48.000                                                                  
R24  19217411.483 1 102764136.285 2     -1836.291          51.000    19217414.160 1  79927673.722 2     -1428.316          46.000  
R17  19251550.458 1 103018939.235 2      1238.898          51.000    19251552.355 1  80125859.568 2       963.291          47.000  
G12  22077308.608 1 116017037.619 5      -615.763          41.000    22077313.255 1  90402908.534 5      -480.347          39.000  
G17  21110955.350 1 110938804.657 3     -3353.443          44.000    21110960.531 1  86445843.795 2     -2612.802          44.000  
G19  19039191.751 1 100051611.516 1     -2266.418          46.000                                                                  
G20  20975096.087 1 110224874.466 2      1576.021          44.000                                                                  
J02  36048063.030 1 189433848.207 3      -919.079          41.000    36048072.891 1 147610829.304 2      -715.924          46.000  
J04  36362801.880 1 191087813.018 2     -1056.864          43.000    36362805.161 1 148899625.874 2      -822.857          45.000  
C29  24020291.097 4 125079958.58637      2042.639          40.000                                                                  
C32  20981943.537 1 109258488.862 1       267.171          49.000                                                                  
R18  22518735.957 9               9      2396.179          43.000    22518748.459 4               9      1863.165          35.000  
R03  22428468.516 9               9      3806.970          38.000    22428502.645 8  93381190.91038      2963.240          36.000  
R08  23316606.358 9               9     -4962.786          25.000                                                                  
J07  36169314.756 2 190071029.915 5      -701.334          37.000    36169319.497 1 148107318.259 2      -546.351          47.000  
J03  37834167.194 1 198819891.463 1      -424.139          47.000    37834169.124 1 154924602.561 2      -330.408          45.000  
E11  24537424.712 1 128945043.776 3       646.884          41.000    24537430.113 1  98802077.379 2       495.530          46.000  
E16  24297969.432 1 127686673.858 3     -2003.600          43.000    24297979.447 1  97837883.018 2     -1535.132          49.000  
E19  23558906.078 1 123802886.393 3       139.371          39.000    23558913.521 1  94861980.035 2       107.052          45.000  
E24  24972393.779 1 131230796.465 2     -3026.031          43.000    24972405.589 1 100553528.061 1     -2318.202          49.000  
S28  37717821.882 1 198208484.502 4      -691.901          39.000  
E10  22945571.711 1 120579800.028 2      -230.338          47.000    22945578.156 1  92392344.712 2      -176.572          51.000  
E04  25296416.371 2 132933565.056 6      2182.226          36.000    25296434.300 1 101858310.226 5      1673.298          43.000  
E12  23111625.289 1 121452404.660 2     -1146.847          43.000    23111629.320 1  93060957.430 2      -878.992          48.000  
E33  25787800.768 1 135515806.149 5     -2545.294          37.000    25787810.431 1 103836825.531 3     -1949.950          45.000  
G22  23591409.505 9 123973693.17336     -3859.142          34.000                                                                  
E25  24791732.847 1 130281427.606 3      -819.468          42.000    24791743.520 1  99826075.594 3      -628.013          46.000  
E29                                                                  26034873.535 1 104831647.083 3     -1609.155          44.000  
G25                                                                  23555877.684 8  96457399.161 8       566.146          37.000  
> 2025 04 25 07 00 00.9960000  0 44                     
S29  37242194.325 1 195709054.280 3      -688.027          42.000  
S37  36169444.291 1 190071708.616 4      -700.040          40.000  
G04  21946914.876 1 115331813.827 3     -2073.698          40.000    21946919.242 1  89868984.333 3     -1615.485          40.000  
G06  19685925.185 1 103450226.449 1      -717.847          48.000    19685929.139 1  80610591.439 2      -559.155          45.000  
G09  20422331.110 1 107320074.976 2      -205.263          44.000    20422335.093 1  83626051.047 2      -160.249          44.000  
G11  20627238.599 1 108396872.144 2       913.695          45.000    20627241.181 1  84465119.942 2       711.718          44.000  
C07  34776084.383 1 181088196.584 2     -1178.817          46.000    34776080.310 1 140028861.140 1      -911.621          48.000  
C08  35929152.258 1 187092527.504 2      -364.208          41.000    35929149.862 1 144671798.898 2      -281.880          48.000  
C10  35182785.690 1 183205997.366 2      -825.995          45.000    35182784.794 1 141666493.669 2      -639.115          48.000  
C27  21515424.120 1 112036450.928 2     -2335.642          47.000                                                                  
C30  20659360.836 1 107578718.342 1       274.783          51.000                                                                  
C13  37002172.990 1 192680026.025 2      -201.156          43.000    37002180.920 1 148992452.550 2      -156.138          47.000  
R02  18819544.626 1 100424720.198 2      1660.813          52.000    18819550.464 1  78108130.148 2      1292.374          47.000  
R16  22259694.698 2 118907292.92424      -939.491          49.000    22259704.603 2  92483489.130 5      -730.617          42.000  
R15  22144989.990 8               9     -3543.448          42.000    22145009.454 8               9     -2767.627          34.000  
R01  18996279.459 1 101545997.085 1     -2550.239          48.000                                                                  
R24  19217755.059 1 102765973.627 2     -1837.986          51.000    19217757.690 1  79929102.752 2     -1429.360          46.000  
R17  19251319.029 1 103017700.921 2      1238.289          50.000    19251320.918 1  80124896.413 2       963.234          47.000  
G12  22077425.842 1 116017653.767 4      -615.420          41.000    22077430.463 1  90403388.630 4      -480.062          39.000  
G17  21111593.419 1 110942157.627 3     -3351.867          43.000    21111598.589 1  86448456.530 2     -2612.485          43.000  
G19  19039623.105 1 100053878.212 2     -2266.326          47.000                                                                  
G20  20974796.077 1 110223297.853 2      1577.302          44.000                                                                  
J02  36048237.866 1 189434766.713 3      -916.898          41.000    36048247.665 1 147611545.058 2      -715.018          44.000  
J04  36363002.991 1 191088869.501 2     -1056.193          43.000    36363006.070 1 148900449.131 2      -822.332          45.000  
C29  24019899.407 4 125077915.43626      2043.415          42.000                                                                  
C32  20981892.201 1 109258222.071 1       267.180          49.000                                                                  
R18  22518288.331 8 120204152.01436      2396.283          44.000    22518299.633 4               9      1863.751          40.000  
R03  22427754.025 9               9      3801.172          33.000    22427791.902 9               7      2961.762          33.000  
R08  23317535.422 9               9     -4957.528          22.000                                                                  
J07  36169448.315 1 190071731.006 4      -700.373          37.000    36169453.028 1 148107864.577 2      -545.840          46.000  
J03  37834247.968 1 198820315.905 1      -424.276          47.000    37834249.897 1 154924933.301 2      -330.527          45.000  
E11  24537301.648 1 128944397.032 3       647.169          41.000    24537307.320 1  98801581.820 2       495.976          46.000  
E16  24298350.635 1 127688676.967 2     -2002.040          43.000    24298360.734 1  97839417.876 1     -1534.133          48.000  
E19  23558879.533 1 123802747.575 3       138.614          39.000    23558887.026 1  94861873.673 2       106.059          45.000  
E24  24972969.883 1 131233821.665 2     -3023.819          43.000    24972981.461 1 100555846.085 1     -2317.028          49.000  
S28  37717953.394 1 198209175.833 4      -690.411          39.000  
E10  22945615.451 1 120580030.445 2      -230.051          47.000    22945622.103 1  92392521.280 1      -176.597          51.000  
E04  25295998.397 4 132931367.83217      2186.656          34.000    25296018.587 2 101856635.886 8      1676.208          45.000  
E12  23111843.524 1 121453552.137 2     -1147.656          43.000    23111847.576 1  93061836.651 1      -879.256          48.000  
E33  25788284.929 1 135518352.239 4     -2546.792          37.000    25788295.069 1 103838776.360 3     -1950.323          46.000  
G22  23592140.457 8 123977534.80937     -3858.215          30.000                                                                  
E25  24791888.677 1 130282247.031 2      -819.027          42.000    24791899.610 1  99826703.434 2      -627.313          47.000  
E29                                                                  26035273.419 1 104833257.341 2     -1610.833          46.000  
G25                                                                  23555736.403 8  96456802.70717       565.811          30.000  
> 2025 04 25 07 00 01.9960000  0 44                     
S29  37242325.067 1 195709741.096 3      -685.986          43.000  
S37  36169577.480 1 190072408.395 4      -699.590          40.000  
G04  21947309.715 1 115333888.749 3     -2076.114          40.000    21947314.102 1  89870601.181 3     -1617.844          42.000  
G06  19686061.903 1 103450944.859 1      -718.964          48.000    19686065.853 1  80611151.241 1      -560.144          45.000  
G09  20422370.489 1 107320281.910 2      -207.916          44.000    20422374.454 1  83626212.273 2      -161.551          44.000  
G11  20627064.866 1 108395958.802 2       913.058          45.000    20627067.340 1  84464408.249 2       711.488          44.000  
C07  34776310.818 1 181089375.494 2     -1178.878          46.000    34776306.754 1 140029772.746 1      -911.642          48.000  
C08  35929222.192 1 187092891.819 3      -364.308          41.000    35929219.808 1 144672080.605 2      -281.947          48.000  
C10  35182944.443 1 183206823.847 2      -826.608          45.000    35182943.432 1 141667132.745 2      -639.469          47.000  
C27  21515872.540 1 112038786.381 2     -2335.877          47.000                                                                  
C30  20659308.207 1 107578444.101 1       273.752          50.000                                                                  
C13  37002211.591 1 192680227.008 3      -200.537          42.000    37002219.555 1 148992607.952 2      -154.737          47.000  
R02  18819233.486 1 100423059.431 2      1660.529          52.000    18819239.297 1  78106838.448 2      1291.528          46.000  
R16  22259870.778 2 118908232.90724      -940.794          50.000    22259880.605 2  92484220.226 5      -731.547          43.000  
R15  22145648.089 8 118339697.56126     -3543.124          46.000    22145668.903 8  92042019.24336     -2755.599          43.000  
R01  18996756.855 1 101548548.886 2     -2552.846          48.000                                                                  
R24  19218098.843 1 102767812.152 2     -1839.549          51.000    19218101.530 1  79930532.715 2     -1430.249          47.000  
R17  19251087.696 1 103016463.281 2      1236.969          50.000    19251089.636 1  80123933.809 2       962.180          47.000  
G12  22077543.061 1 116018269.822 4      -615.907          41.000    22077547.726 1  90403868.660 4      -479.745          40.000  
G17  21112231.432 1 110945510.384 3     -3352.068          44.000    21112236.554 1  86451069.035 3     -2612.367          42.000  
G19  19040054.500 1 100056145.039 1     -2267.040          47.000                                                                  
G20  20974495.860 1 110221719.933 3      1577.902          44.000                                                                  
J02  36048412.420 1 189435683.731 3      -916.369          42.000    36048422.268 1 147612259.607 2      -714.242          45.000  
J04  36363203.923 1 191089925.409 2     -1055.696          42.000    36363207.049 1 148901271.949 2      -822.623          45.000  
C29  24019507.130 2 125075872.09224      2043.165          42.000                                                                  
C32  20981841.019 1 109257955.373 1       266.564          49.000                                                                  
R18  22517836.757 4 120201755.50325      2395.758          47.000    22517850.679 2  93490300.362 6      1864.044          43.000  
R03  22427045.003 9               9      3806.279          29.000    22427080.125 9               9      2956.615          27.000  
R08  23318461.200 9               9     -4957.031          20.000                                                                  
J07  36169581.460 1 190072430.743 4      -699.200          37.000    36169586.141 1 148108409.828 2      -544.653          46.000  
J03  37834328.789 1 198820740.425 1      -424.999          47.000    37834330.655 1 154925264.096 2      -331.220          45.000  
E11  24537178.277 1 128943749.811 3       647.019          41.000    24537184.166 1  98801085.915 2       495.589          46.000  
E16  24298731.800 1 127690679.050 2     -2001.660          44.000    24298741.687 1  97840951.918 2     -1533.558          48.000  
E19  23558853.370 1 123802609.961 3       136.848          38.000    23558860.949 1  94861768.220 2       105.143          45.000  
E24  24973545.309 1 131236845.168 2     -3022.751          44.000    24973556.609 1 100558162.782 2     -2316.242          49.000  
S28  37718084.573 1 198209865.266 5      -688.965          39.000  
E10  22945659.410 1 120580261.157 2      -231.049          47.000    22945665.974 1  92392698.046 1      -177.072          51.000  
E04  25295583.349 4 132929181.585 7      2185.634          39.000    25295602.552 1 101854960.739 6      1675.252          45.000  
E12  23112062.027 1 121454700.436 2     -1148.735          43.000    23112066.061 1  93062716.522 1      -880.385          48.000  
E33  25788769.605 1 135520899.506 5     -2546.662          34.000    25788779.703 1 103840728.250 4     -1951.382          41.000  
G22  23592874.761 9               7     -3855.646          25.000                                                                  
E25  24792044.608 1 130283066.091 3      -818.522          42.000    24792055.267 1  99827331.049 2      -627.144          47.000  
E29                                                                  26035673.876 1 104834869.275 2     -1613.023          45.000  
G25                                                                  23555602.647 8               9       565.042          23.000  
> 2025 04 25 07 00 02.9960000  0 44                     
S29  37242455.457 1 195710426.305 3      -684.328          42.000  
S37  36169710.342 1 190073107.093 3      -697.935          40.000  
G04  21947705.071 1 115335965.975 3     -2077.809          42.000    21947709.429 1  89872219.785 3     -1618.836          41.000  
G06  19686198.786 1 103451664.143 2      -719.305          48.000    19686202.829 1  80611711.725 2      -560.144          45.000  
G09  20422410.138 1 107320490.297 2      -208.789          44.000    20422414.161 1  83626374.700 2      -163.129          44.000  
G11  20626891.110 1 108395045.512 2       913.150          45.000    20626893.581 1  84463696.588 2       711.587          44.000  
C07  34776537.049 1 181090553.852 1     -1177.776          46.000    34776533.037 1 140030683.928 1      -910.831          48.000  
C08  35929292.089 1 187093255.090 2      -362.846          41.000    35929289.470 1 144672361.505 2      -280.324          48.000  
C10  35183103.097 1 183207649.808 2      -825.363          45.000    35183102.066 1 141667771.423 1      -638.142          48.000  
C27  21516321.260 1 112041122.581 3     -2335.875          47.000                                                                  
C30  20659255.675 1 107578170.358 1       273.581          50.000                                                                  
C13  37002250.010 1 192680426.607 2      -198.722          42.000    37002257.808 1 148992762.285 2      -153.564          47.000  
R02  18818922.301 1 100421398.842 2      1661.102          52.000    18818927.998 1  78105546.916 2      1291.832          49.000  
R16  22260047.029 2 118909173.796 4      -941.360          49.000    22260056.652 2  92484952.053 5      -732.645          45.000  
R15  22146309.623 4 118343239.64214     -3541.990          46.000    22146327.115 8  92044755.64625     -2755.647          43.000  
R01  18997234.591 1 101551102.585 2     -2554.014          48.000                                                                  
R24  19218442.915 1 102769652.046 2     -1840.079          52.000    19218445.589 1  79931963.739 2     -1431.134          50.000  
R17  19250856.430 1 103015226.476 3      1236.593          51.000    19250858.568 1  80122971.849 2       961.742          50.000  
G12  22077660.219 1 116018885.978 4      -616.469          41.000    22077665.002 1  90404348.813 4      -480.660          40.000  
G17  21112869.414 1 110948863.117 3     -3352.277          44.000    21112874.649 1  86453681.541 3     -2611.814          44.000  
G19  19040485.980 1 100058412.204 1     -2266.797          47.000                                                                  
G20  20974195.349 1 110220140.937 3      1579.408          44.000                                                                  
J02  36048586.681 1 189436599.529 3      -914.539          42.000    36048596.589 1 147612973.224 2      -713.097          45.000  
J04  36363404.778 1 191090980.969 2     -1054.905          43.000    36363407.897 1 148902094.471 2      -822.106          45.000  
C29  24019113.738 2 125073828.654 4      2043.661          42.000                                                                  
C32  20981789.904 1 109257688.961 1       266.533          49.000                                                                  
R18  22517390.850 4 120199358.760 5      2397.113          47.000    22517401.630 4               9      1864.288          41.000  
R03  22426328.343 8 120049891.42637      3815.509          41.000    22426367.376 8  93372299.65838      2967.807          39.000  
R08  23319390.024 9               9     -4966.983          19.000                                                                  
J07  36169714.348 1 190073129.450 4      -697.549          37.000    36169719.106 1 148108954.258 2      -543.508          46.000  
J03  37834409.696 1 198821165.146 1      -424.400          47.000    37834411.532 1 154925595.039 2      -330.388          45.000  
E11  24537055.394 1 128943102.312 3       647.630          41.000    24537060.804 1  98800589.781 2       496.079          46.000  
E16  24299112.636 1 127692680.303 2     -2000.995          44.000    24299122.455 1  97842485.345 2     -1532.921          49.000  
E19  23558827.356 1 123802473.630 3       136.576          39.000    23558835.061 1  94861663.826 3       104.483          44.000  
E24  24974120.180 1 131239867.280 2     -3021.018          43.000    24974131.808 1 100560478.422 2     -2314.825          49.000  
S28  37718215.495 1 198210553.001 4      -686.871          39.000  
E10  22945703.271 1 120580492.258 2      -231.095          47.000    22945709.980 1  92392875.114 2      -176.928          51.000  
E04  25295169.453 4 132926994.701 5      2187.370          37.000    25295186.325 1 101853285.152 4      1676.538          44.000  
E12  23112280.633 1 121455849.680 2     -1149.460          43.000    23112284.797 1  93063597.081 1      -880.272          48.000  
E33  25789255.096 2               9     -2549.336          31.000    25789264.796 2 103842681.283 8     -1951.573          42.000  
G22  23593608.399 8               9     -3850.108          28.000                                                                  
E25  24792200.240 1 130283885.017 3      -818.559          42.000    24792211.232 1  99827958.531 3      -627.029          47.000  
E29                                                                  26036074.783 1 104836482.921 2     -1614.005          46.000  
G25                                                                  23555465.409 9               9       565.775          22.000  
> 2025 04 25 07 00 03.9960000  0 44                     
S29  37242585.538 1 195711110.018 3      -683.164          41.000  
S37  36169843.138 1 190073805.054 3      -697.682          39.000  
G04  21948100.922 1 115338045.805 3     -2080.813          40.000    21948105.280 1  89873840.420 3     -1621.429          41.000  
G06  19686335.959 1 103452384.719 2      -721.320          48.000    19686339.984 1  80612273.224 2      -562.158          45.000  
G09  20422450.175 1 107320700.564 2      -211.281          43.000    20422454.087 1  83626538.530 2      -164.597          43.000  
G11  20626717.425 1 108394132.498 2       912.123          45.000    20626719.892 1  84462985.147 2       710.928          44.000  
C07  34776763.394 1 181091731.993 2     -1178.303          46.000    34776759.321 1 140031594.938 1      -911.123          48.000  
C08  35929361.796 1 187093617.711 2      -362.833          41.000    35929359.124 1 144672641.934 2      -280.825          47.000  
C10  35183261.786 1 183208475.672 2      -826.338          45.000    35183260.688 1 141668410.034 1      -638.940          48.000  
C27  21516770.041 1 112043459.999 2     -2337.846          46.000                                                                  
C30  20659203.231 1 107577897.493 1       272.198          50.000                                                                  
C13  37002288.170 1 192680625.042 3      -198.159          43.000    37002295.909 1 148992915.742 2      -153.168          47.000  
R02  18818611.160 1 100419738.913 2      1659.877          52.000    18818616.923 1  78104255.861 2      1290.625          48.000  
R16  22260223.308 2 118910115.618 4      -943.450          48.000    22260232.957 2  92485684.574 5      -734.045          44.000  
R15  22146971.613 4 118346781.240 3     -3541.906          44.000    22146986.977 4  92047510.22324     -2755.783          39.000  
R01  18997712.783 1 101553658.709 1     -2557.187          48.000                                                                  
R24  19218787.344 1 102771493.802 2     -1842.181          50.000    19218790.101 1  79933396.248 2     -1432.840          48.000  
R17  19250625.585 1 103013990.779 2      1234.700          51.000    19250627.550 1  80122010.761 2       960.484          49.000  
G12  22077777.537 1 116019502.311 4      -617.120          40.000    22077782.367 1  90404829.022 4      -480.204          37.000  
G17  21113507.472 1 110952216.157 3     -3353.143          44.000    21113512.758 1  86456294.295 3     -2612.486          43.000  
G19  19040917.577 1 100060680.137 2     -2268.401          46.000                                                                  
G20  20973894.745 1 110218561.080 3      1580.012          43.000                                                                  
J02  36048760.713 1 189437514.368 3      -914.209          42.000    36048770.611 1 147613686.047 2      -712.597          44.000  
J04  36363605.619 1 191092036.583 2     -1055.434          43.000    36363608.836 1 148902917.015 2      -822.291          45.000  
C29  24018721.664 2 125071785.246 4      2042.625          40.000                                                                  
C32  20981738.831 1 109257423.256 2       265.337          49.000                                                                  
R18  22516941.440 4 120196961.936 5      2396.655          46.000    22516952.620 2  93486572.045 6      1864.044          41.000  
R03  22425616.427 8 120046076.13727      3814.340          37.000    22425652.586 8  93369332.24528      2967.634          38.000  
R08  23320320.027 9               9     -4967.051          20.000                                                                  
J07  36169847.141 2 190073827.439 5      -697.711          37.000    36169851.976 1 148109498.176 2      -543.967          46.000  
J03  37834490.600 1 198821590.586 1      -425.900          46.000    37834492.522 1 154925926.550 2      -331.681          45.000  
E11  24536932.382 1 128942454.721 3       647.046          41.000    24536937.524 1  98800093.579 2       495.831          46.000  
E16  24299493.210 1 127694680.917 2     -2001.074          43.000    24299503.274 1  97844018.303 2     -1533.603          49.000  
E19  23558801.669 1 123802339.195 3       133.891          38.000    23558809.457 1  94861560.775 3       102.634          45.000  
E24  24974695.058 1 131242888.191 3     -3021.121          43.000    24974706.647 1 100562793.124 2     -2314.823          49.000  
S28  37718346.086 1 198211239.211 4      -686.029          39.000  
E10  22945747.503 1 120580724.122 2      -232.721          47.000    22945754.094 1  92393052.784 1      -178.298          51.000  
E04  25294750.862 4 132924807.255 5      2188.105          39.000    25294769.970 1 101851609.102 4      1675.493          45.000  
E12  23112499.808 1 121457000.276 2     -1151.549          43.000    23112503.745 1  93064478.721 1      -882.030          48.000  
E33  25789740.163 4               9     -2552.559          30.000    25789750.083 1 103844635.628 6     -1956.653          40.000  
G22  23594340.999 8               9     -3852.486          26.000                                                                  
E25  24792356.204 1 130284703.959 2      -819.876          42.000    24792367.198 1  99828586.036 2      -628.042          46.000  
E29                                                                  26036475.843 1 104838098.506 2     -1615.890          45.000  
G25                                                                  23555329.563 9               9       551.412          21.000  
> 2025 04 25 07 00 04.9960000  0 44                     
S29  37242715.390 1 195711792.334 3      -681.742          42.000  
S37  36169975.724 1 190074501.966 3      -696.473          39.000  
G04  21948497.021 1 115340127.502 3     -2081.167          39.000    21948501.375 1  89875462.596 2     -1623.056          42.000  
G06  19686473.114 1 103453105.946 1      -721.277          48.000    19686477.261 1  80612835.211 2      -562.079          45.000  
G09  20422490.348 1 107320912.049 3      -212.142          44.000    20422494.274 1  83626703.311 2      -165.028          43.000  
G11  20626543.594 1 108393219.481 2       913.203          45.000    20626546.095 1  84462273.730 2       711.633          44.000  
C07  34776989.521 1 181092909.519 2     -1177.690          46.000    34776985.394 1 140032505.480 2      -910.638          48.000  
C08  35929431.179 1 187093979.463 3      -362.048          41.000    35929428.523 1 144672921.635 2      -279.465          47.000  
C10  35183420.274 1 183209300.978 2      -824.981          45.000    35183419.227 1 141669048.220 1      -638.133          48.000  
C27  21517218.966 1 112045797.921 2     -2338.319          47.000                                                                  
C30  20659150.916 1 107577624.982 1       272.550          50.000                                                                  
C13  37002326.189 1 192680822.253 3      -196.555          43.000    37002333.807 1 148993068.241 2      -151.889          47.000  
R02  18818300.293 1 100418079.120 2      1659.552          53.000    18818305.955 1  78102964.885 2      1291.145          49.000  
R16  22260399.686 2 118911058.423 6      -943.319          41.000    22260409.503 2  92486417.851 7      -732.989          40.000  
R15  22147633.187 8               9     -3540.787          32.000    22147648.652 9               9     -2752.322          32.000  
R01  18998191.201 1 101556216.467 2     -2558.184          48.000                                                                  
R24  19219131.943 1 102773336.722 2     -1843.584          51.000    19219134.708 1  79934829.612 2     -1433.600          48.000  
R17  19250394.797 1 103012755.763 2      1235.211          50.000    19250396.748 1  80121050.185 2       960.901          49.000  
G12  22077894.893 2 116020118.879 7      -618.194          40.000    22077899.681 1  90405309.504 5      -481.738          38.000  
G17  21114145.545 1 110955569.028 3     -3352.769          44.000    21114150.675 1  86458906.932 3     -2612.889          42.000  
G19  19041349.231 1 100062948.219 1     -2268.220          47.000                                                                  
G20  20973593.951 1 110216980.334 3      1581.010          44.000                                                                  
J02  36048934.662 1 189438428.049 4      -914.330          42.000    36048944.489 1 147614397.966 2      -711.518          45.000  
J04  36363806.431 1 191093091.717 2     -1055.212          43.000    36363809.591 1 148903739.203 2      -822.257          45.000  
C29  24018329.434 2 125069741.998 5      2042.379          37.000                                                                  
C32  20981687.827 1 109257157.674 1       265.217          49.000                                                                  
R18  22516491.685 8               9      2397.754          35.000    22516504.081 9               9      1862.926          30.000  
R03  22424904.553 8 120042269.41937      3816.819          41.000    22424940.240 8  93366357.86037      2969.618          37.000  
R08  23321251.026 9               9     -4970.642          29.000                                                                  
J07  36169979.766 1 190074524.351 5      -696.931          36.000    36169984.600 1 148110041.199 2      -542.828          46.000  
J03  37834571.634 1 198822015.993 1      -425.482          46.000    37834573.466 1 154926258.044 2      -331.346          45.000  
E11  24536809.093 1 128941806.941 3       648.115          41.000    24536814.297 1  98799597.209 2       496.810          46.000  
E16  24299873.680 1 127696680.853 3     -1999.455          42.000    24299883.891 1  97845550.725 3     -1532.348          48.000  
E19  23558776.365 1 123802205.752 3       132.727          38.000    23558783.939 1  94861458.505 2       102.043          45.000  
E24  24975269.658 1 131245907.828 3     -3019.572          43.000    24975281.218 1 100565106.873 3     -2313.507          49.000  
S28  37718476.390 1 198211923.972 4      -684.662          39.000  
E10  22945791.731 1 120580956.239 2      -232.103          47.000    22945798.306 1  92393230.644 2      -177.805          51.000  
E04  25294334.149 4 132922619.054 5      2186.717          39.000    25294353.591 1 101849932.408 3      1676.488          46.000  
E12  23112718.986 1 121458151.554 2     -1151.489          43.000    23112722.883 1  93065360.879 1      -882.211          48.000  
E33  25790224.937 8               9     -2550.479          33.000    25790235.681 1 103846590.647 7     -1954.081          38.000  
G22  23595074.572 9               9     -3851.289          26.000                                                                  
E25  24792512.121 1 130285522.867 4      -819.792          42.000    24792522.983 1  99829213.492 3      -628.157          46.000  
E29                                                                  26036877.503 1 104839715.593 2     -1617.770          45.000  
G25                                                                  23555194.627 9               9       565.765          23.000  
> 2025 04 25 07 00 05.9960000  0 44                     
S29  37242845.107 1 195712473.980 2      -681.518          42.000  
S37  36170108.258 1 190075198.494 3      -696.382          39.000  
G04  21948893.640 1 115342211.095 3     -2084.570          40.000    21948897.913 1  89877086.156 3     -1625.008          43.000  
G06  19686610.586 1 103453828.030 1      -722.931          48.000    19686614.723 1  80613397.870 2      -563.391          47.000  
G09  20422530.836 1 107321124.849 3      -213.788          42.000    20422534.758 1  83626869.159 2      -166.735          44.000  
G11  20626369.969 1 108392306.885 2       911.830          45.000    20626372.410 1  84461562.608 3       710.647          46.000  
C07  34777215.643 1 181094086.998 2     -1178.007          46.000    34777211.486 1 140033415.970 2      -910.718          48.000  
C08  35929500.537 1 187094340.887 2      -361.570          41.000    35929497.881 1 144673201.121 2      -279.712          48.000  
C10  35183578.607 1 183210126.300 2      -825.682          45.000    35183577.790 1 141669686.389 2      -638.430          48.000  
C27  21517668.090 1 112048136.570 3     -2339.554          47.000                                                                  
C30  20659098.735 1 107577353.130 1       271.250          51.000                                                                  
C13  37002363.938 1 192681019.052 3      -196.415          43.000    37002371.686 1 148993220.433 2      -152.280          47.000  
R02  18817989.324 1 100416419.975 2      1658.397          52.000    18817995.042 1  78101674.450 2      1290.134          48.000  
R16  22260576.308 2 118912002.351 7      -943.532          45.000    22260586.217 2  92487152.043 8      -733.581          42.000  
R15  22148299.041 9               9     -3537.825          28.000    22148310.391 9               9     -2755.559          25.000  
R01  18998669.958 1 101558775.912 2     -2560.684          48.000                                                                  
R24  19219476.848 1 102775180.806 2     -1845.189          51.000    19219479.618 1  79936263.890 2     -1434.839          47.000  
R17  19250164.236 1 103011521.618 3      1233.877          50.000    19250166.184 2  80120090.312 3       959.431          48.000  
G12  22078012.441 1 116020736.051 5      -618.049          41.000    22078017.110 1  90405790.428 5      -482.058          41.000  
G17  21114783.694 1 110958922.259 4     -3353.954          44.000    21114788.751 1  86461519.826 3     -2613.404          44.000  
G19  19041780.884 1 100065216.932 1     -2269.440          47.000                                                                  
G20  20973293.191 1 110215399.368 2      1580.868          44.000                                                                  
J02  36049108.415 1 189439341.202 4      -912.621          42.000    36049118.273 1 147615109.576 2      -711.636          46.000  
J04  36364007.155 1 191094146.848 2     -1055.469          43.000    36364010.386 1 148904561.374 2      -822.501          46.000  
C29  24017937.189 2 125067698.735 6      2042.941          41.000                                                                  
C32  20981637.042 1 109256892.692 1       264.257          49.000                                                                  
R18  22516041.388 9               9      2388.720          31.000    22516056.115 9               9      1866.610          30.000  
R03  22424188.342 8               9      3817.139          28.000    22424224.691 8  93363378.52827      2968.654          39.000  
R08  23322178.686 9               9     -4973.560          20.000                                                                  
J07  36170112.217 1 190075220.867 5      -696.928          36.000    36170117.089 1 148110583.952 2      -542.809          47.000  
J03  37834652.694 1 198822441.707 1      -426.240          46.000    37834654.571 1 154926589.788 2      -332.344          46.000  
E11  24536685.742 1 128941159.291 4       647.270          40.000    24536691.158 1  98799100.970 3       495.821          46.000  
E16  24300254.163 1 127698680.772 3     -1999.779          43.000    24300264.498 1  97847083.107 2     -1532.499          49.000  
E19  23558751.298 1 123802073.419 3       131.418          39.000    23558758.804 1  94861357.110 2       101.091          45.000  
E24  24975844.231 1 131248927.040 2     -3018.959          43.000    24975855.768 1 100567420.320 2     -2313.775          49.000  
S28  37718606.571 1 198212608.056 3      -683.942          39.000  
E10  22945836.104 1 120581188.890 2      -233.423          47.000    22945842.587 1  92393408.891 2      -178.661          51.000  
E04  25293916.735 4 132920430.538 5      2188.563          40.000    25293937.072 1 101848255.539 4      1676.333          47.000  
E12  23112938.285 1 121459303.647 2     -1152.904          43.000    23112942.122 1  93066243.647 1      -883.419          48.000  
E33  25790710.911 8 135531099.15817     -2553.434          37.000    25790721.622 1 103848546.633 4     -1957.553          46.000  
G22  23595805.697 8               9     -3853.097          27.000                                                                  
E25  24792668.070 1 130286342.213 4      -819.973          42.000    24792678.982 1  99829841.287 3      -627.979          47.000  
E29                                                                  26037279.729 1 104841334.016 2     -1619.582          45.000  
G25                                                                  23555056.275 9               9       558.867          22.000  
> 2025 04 25 07 00 06.9960000  0 44                     
S29  37242974.749 1 195713154.771 3      -680.533          42.000  
S37  36170240.679 1 190075894.722 3      -696.814          40.000  
G04  21949290.617 1 115344296.912 3     -2087.480          41.000    21949294.755 1  89878711.467 3     -1626.987          42.000  
G06  19686748.204 1 103454551.207 1      -723.828          48.000    19686752.228 1  80613961.387 2      -563.867          45.000  
G09  20422571.647 1 107321339.441 3      -215.755          43.000    20422575.621 1  83627036.350 3      -167.892          44.000  
G11  20626196.385 1 108391394.647 2       912.032          45.000    20626198.804 1  84460851.781 2       710.564          45.000  
C07  34777441.750 1 181095264.490 2     -1177.321          46.000    34777437.657 1 140034326.495 1      -910.686          48.000  
C08  35929569.903 1 187094702.042 2      -361.047          41.000    35929567.206 1 144673480.394 1      -279.432          47.000  
C10  35183737.104 1 183210951.692 2      -825.617          45.000    35183736.278 1 141670324.641 1      -638.353          47.000  
C27  21518117.554 1 112050476.375 3     -2340.616          47.000                                                                  
C30  20659046.621 1 107577082.118 1       270.520          50.000                                                                  
C13  37002401.519 1 192681215.248 2      -196.318          42.000    37002409.373 1 148993372.102 2      -151.480          46.000  
R02  18817678.594 1 100414761.653 1      1657.754          52.000    18817684.328 1  78100384.671 2      1289.263          48.000  
R16  22260753.312 2 118912947.422 5      -946.136          49.000    22260763.142 2  92487887.034 6      -735.375          45.000  
R15  22148960.920 9               9     -3546.181          28.000    22148972.205 9               9     -2766.400          23.000  
R01  18999149.155 1 101561337.453 2     -2562.641          48.000                                                                  
R24  19219822.026 1 102777026.464 2     -1846.610          51.000    19219824.725 1  79937699.419 2     -1436.306          47.000  
R17  19249933.767 1 103010288.477 2      1232.572          51.000    19249935.823 1  80119131.207 2       958.740          48.000  
G12  22078129.867 1 116021353.766 5      -618.656          40.000    22078134.750 1  90406271.729 3      -481.333          41.000  
G17  21115421.921 1 110962276.019 3     -3354.369          43.000    21115426.894 1  86464133.115 2     -2613.441          45.000  
G19  19042212.814 1 100067486.533 2     -2270.396          47.000                                                                  
G20  20972992.382 1 110213818.062 2      1581.646          44.000                                                                  
J02  36049282.188 1 189440253.988 3      -912.772          42.000    36049292.043 1 147615820.780 2      -710.738          45.000  
J04  36364207.955 1 191095202.226 2     -1055.725          43.000    36364211.222 1 148905383.768 2      -822.700          46.000  
C29  24017544.798 2 125065655.773 5      2043.004          42.000                                                                  
C32  20981586.333 1 109256628.533 1       263.679          50.000                                                                  
R18  22515593.157 9               9      2395.312          26.000    22515608.368 9  93480991.61138      1863.092          29.000  
R03  22423476.003 9               9      3813.379          32.000    22423513.033 9               9      2948.421          30.000  
R08  23323107.813 9               9     -4975.173          21.000                                                                  
J07  36170244.675 2 190075917.105 5      -696.234          37.000    36170249.515 1 148111126.461 2      -542.309          47.000  
J03  37834733.845 1 198822868.042 1      -426.667          47.000    37834735.651 1 154926921.988 1      -332.717          46.000  
E11  24536562.293 1 128940511.748 3       647.222          40.000    24536568.089 1  98798604.796 2       496.088          46.000  
E16  24300634.977 1 127700680.551 2     -1999.870          43.000    24300645.051 1  97848615.387 1     -1532.239          49.000  
E19  23558726.353 1 123801942.755 3       129.613          39.000    23558733.978 1  94861257.044 2        98.961          45.000  
E24  24976418.522 1 131251945.633 2     -3017.974          44.000    24976430.289 1 100569733.252 2     -2312.941          49.000  
S28  37718736.517 1 198213291.224 3      -682.813          39.000  
E10  22945880.491 1 120581422.213 2      -233.612          47.000    22945887.084 1  92393587.693 2      -179.150          51.000  
E04  25293501.955 2 132918242.088 5      2187.256          40.000    25293520.691 1 101846578.648 3      1676.989          47.000  
E12  23113157.637 1 121460456.872 2     -1153.947          43.000    23113161.570 1  93067127.297 1      -884.252          48.000  
E33  25791196.776 4 135533653.438 6     -2555.785          35.000    25791207.706 1 103850503.796 3     -1958.621          43.000  
G22  23596542.535 9               9     -3853.829          26.000                                                                  
E25  24792824.290 1 130287161.811 3      -819.932          42.000    24792834.997 1  99830469.306 2      -628.295          47.000  
E29                                                                  26037681.933 1 104842954.096 2     -1621.444          45.000  
G25                                                                  23554916.749 9               9       558.973          31.000  
> 2025 04 25 07 00 07.9960000  0 44                     
S29  37243104.027 1 195713834.287 3      -678.738          42.000  
S37  36170373.107 1 190076590.364 3      -695.159          39.000  
G04  21949687.950 1 115346385.263 3     -2090.308          40.000    21949692.161 1  89880338.687 2     -1628.119          40.000  
G06  19686886.040 1 103455275.593 1      -725.073          48.000    19686890.052 1  80614525.851 2      -565.125          44.000  
G09  20422612.833 1 107321555.924 2      -217.469          43.000    20422616.796 1  83627205.015 2      -169.119          42.000  
G11  20626022.849 1 108390482.701 2       911.955          45.000    20626025.263 1  84460141.173 2       710.347          43.000  
C07  34777667.818 1 181096441.889 2     -1177.404          45.000    34777663.828 1 140035236.904 1      -910.095          47.000  
C08  35929639.214 1 187095062.645 2      -360.307          41.000    35929636.505 1 144673759.233 2      -278.645          46.000  
C10  35183895.583 1 183211776.971 1      -825.443          44.000    35183894.787 1 141670962.820 1      -638.339          46.000  
C27  21518567.055 1 112052817.373 2     -2341.694          47.000                                                                  
C30  20658994.697 1 107576811.946 1       269.500          50.000                                                                  
C13  37002438.996 1 192681410.431 2      -194.961          42.000    37002446.827 1 148993523.076 2      -150.772          45.000  
R02  18817367.993 1 100413104.083 1      1657.532          52.000    18817373.771 1  78099095.461 2      1288.790          44.000  
R16  22260930.344 2 118913893.392 4      -945.671          46.000    22260940.273 2  92488622.823 4      -735.182          37.000  
R15  22149626.386 9               9     -3541.291          26.000    22149635.317 9               9     -2750.178          22.000  
R01  18999628.825 1 101563901.296 2     -2565.038          48.000                                                                  
R24  19220167.570 1 102778873.884 2     -1848.366          51.000    19220170.189 1  79939136.275 2     -1437.588          43.000  
R17  19249703.568 1 103009056.369 2      1231.523          51.000    19249705.518 1  80118172.899 2       957.768          44.000  
G12  22078247.407 1 116021971.740 4      -617.615          40.000    22078252.444 1  90406753.274 3      -480.957          37.000  
G17  21116060.251 1 110965630.201 2     -3354.101          44.000    21116065.220 1  86466746.799 3     -2614.022          41.000  
G19  19042644.933 1 100069756.942 2     -2270.846          47.000                                                                  
G20  20972691.343 1 110212236.051 2      1582.291          44.000                                                                  
J02  36049455.800 1 189441165.975 3      -911.421          41.000    36049465.554 1 147616531.442 2      -709.826          44.000  
J04  36364408.896 1 191096257.755 2     -1055.632          43.000    36364412.077 1 148906206.236 2      -821.940          44.000  
C29  24017152.342 1 125063612.960 4      2042.364          39.000                                                                  
C32  20981535.681 1 109256365.134 1       263.175          49.000                                                                  
R18  22515143.058 9               9      2404.433          26.000    22515161.230 9               9      1860.792          20.000  
R03  22422763.570 9 120030808.10737      3820.960          36.000    22422798.206 9               9      2968.886          30.000  
R08  23324039.323 9               9     -4966.280          21.000                                                                  
J07  36170376.995 2 190076612.725 5      -694.667          36.000    36170381.875 1 148111668.544 2      -541.959          45.000  
J03  37834815.125 1 198823295.028 1      -427.155          46.000    37834816.931 1 154927254.687 1      -332.904          44.000  
E11  24536439.010 1 128939864.130 3       647.617          40.000    24536444.658 1  98798108.592 2       495.967          46.000  
E16  24301015.302 1 127702679.752 2     -1998.727          43.000    24301025.368 1  97850147.247 1     -1531.570          49.000  
E19  23558701.883 1 123801813.818 3       128.093          38.000    23558709.374 1  94861158.230 2        98.082          45.000  
E24  24976992.649 1 131254963.241 2     -3016.781          43.000    24977004.483 1 100572045.397 1     -2311.326          48.000  
S28  37718866.319 1 198213973.197 3      -681.720          39.000  
E10  22945924.906 1 120581656.259 1      -234.427          47.000    22945931.494 1  92393767.021 1      -179.623          50.000  
E04  25293085.320 2 132916053.333 6      2189.871          35.000    25293104.044 1 101844901.669 4      1678.448          40.000  
E12  23113377.457 1 121461611.386 2     -1155.156          42.000    23113381.275 1  93068011.925 1      -885.205          48.000  
E33  25791684.511 4 135536209.322 5     -2556.601          37.000    25791694.149 1 103852462.195 3     -1959.114          43.000  
G22  23597275.705 9               9     -3850.727          24.000                                                                  
E25  24792980.111 1 130287981.467 3      -819.722          41.000    24792990.800 1  99831097.343 2      -627.857          46.000  
E29                                                                  26038084.682 1 104844576.028 2     -1623.221          45.000  
G25                                                                  23554783.244 9               9       557.453          25.000  
> 2025 04 25 07 00 08.9960000  0 44                     
S29  37243232.904 1 195714512.352 3      -676.623          42.000  
S37  36170505.348 1 190077285.026 3      -694.203          39.000  
G04  21950085.741 1 115348475.870 3     -2091.672          40.000    21950089.950 1  89881967.760 3     -1629.635          41.000  
G06  19687024.092 1 103456001.039 1      -725.714          48.000    19687028.084 1  80615091.117 2      -565.234          44.000  
G09  20422654.262 1 107321773.880 2      -218.814          43.000    20422658.288 1  83627374.844 2      -169.975          43.000  
G11  20625849.345 1 108389571.050 2       911.760          44.000    20625851.777 1  84459430.778 2       710.611          43.000  
C07  34777893.919 1 181097618.813 2     -1176.487          46.000    34777889.898 1 140036146.987 1      -909.734          47.000  
C08  35929708.319 1 187095422.442 3      -359.540          41.000    35929705.648 1 144674037.454 2      -277.932          47.000  
C10  35184053.867 1 183212601.936 2      -824.623          45.000    35184053.213 1 141671600.716 2      -637.291          46.000  
C27  21519016.808 1 112055159.113 2     -2341.700          46.000                                                                  
C30  20658942.994 1 107576542.438 1       269.488          50.000                                                                  
C13  37002476.151 1 192681604.449 2      -193.537          42.000    37002484.137 1 148993673.078 2      -149.500          46.000  
R02  18817057.414 1 100411446.806 2      1657.219          52.000    18817063.038 1  78097806.441 2      1289.148          45.000  
R16  22261107.646 2 118914840.561 5      -948.091          47.000    22261117.566 2  92489359.471 6      -737.069          39.000  
R15  22150290.121 9               9     -3542.511          25.000    22150298.178 9               9     -2757.305          20.000  
R01  19000108.843 1 101566467.178 2     -2566.780          48.000                                                                  
R24  19220513.172 1 102780722.715 2     -1849.196          51.000    19220515.930 1  79940574.274 2     -1438.627          45.000  
R17  19249473.559 1 103007825.316 2      1230.515          50.000    19249475.424 1  80117215.399 2       957.255          45.000  
G12  22078365.005 1 116022590.020 5      -618.254          40.000    22078370.152 1  90407235.061 5      -482.438          38.000  
G17  21116698.562 1 110968984.355 3     -3353.639          43.000    21116703.570 1  86469360.397 3     -2612.868          42.000  
G19  19043076.979 1 100072027.725 2     -2270.897          47.000                                                                  
G20  20972390.035 1 110210653.184 3      1583.386          44.000                                                                  
J02  36049629.139 1 189442076.774 3      -910.018          42.000    36049638.908 1 147617241.129 2      -708.695          45.000  
J04  36364609.596 1 191097312.916 2     -1054.654          43.000    36364612.806 1 148907028.451 2      -821.716          45.000  
C29  24016759.986 1 125061570.199 5      2042.955          41.000                                                                  
C32  20981485.215 1 109256102.093 1       263.081          49.000                                                                  
R18  22514696.426 9               9      2381.218          25.000    22514710.301 9               9      1880.149          18.000  
R03  22422052.661 9               9      3813.352          31.000    22422085.331 8               9      2968.261          30.000  
R08  23324969.734 9               9     -4973.717          22.000                                                                  
J07  36170509.121 1 190077307.361 5      -693.390          36.000    36170514.053 1 148112209.836 2      -541.210          46.000  
J03  37834896.365 1 198823722.329 1      -427.113          47.000    37834898.276 1 154927587.657 2      -332.918          45.000  
E11  24536315.910 1 128939216.519 3       647.564          40.000    24536321.287 1  98797612.354 2       496.608          46.000  
E16  24301395.731 1 127704678.379 3     -1997.969          44.000    24301405.738 1  97851678.669 2     -1531.182          49.000  
E19  23558677.513 1 123801686.254 3       126.943          39.000    23558685.001 1  94861060.461 2        97.729          45.000  
E24  24977566.913 1 131257979.547 2     -3015.321          44.000    24977578.408 1 100574356.616 2     -2310.555          49.000  
S28  37718995.776 1 198214653.658 3      -679.968          40.000  
E10  22945969.521 1 120581890.907 2      -234.696          47.000    22945976.074 1  92393946.816 1      -179.625          51.000  
E04  25292668.828 2               9      2187.341          34.000    25292687.352 2 101843224.112 8      1676.322          43.000  
E12  23113597.286 1 121462767.000 2     -1156.002          43.000    23113601.102 1  93068897.387 1      -885.849          48.000  
E33  25792169.622 4 135538766.772 5     -2558.259          37.000    25792180.654 1 103854421.782 4     -1961.141          43.000  
G22  23598006.523 9               9     -3849.586          23.000                                                                  
E25  24793135.947 1 130288801.221 3      -820.100          42.000    24793146.771 1  99831725.487 3      -628.599          46.000  
E29                                                                  26038487.731 1 104846199.724 2     -1624.469          45.000  
G25                                                                  23554649.080 9               9       554.316          21.000  
> 2025 04 25 07 00 09.9960000  0 44                     
S29  37243361.617 1 195715189.130 3      -676.539          42.000  
S37  36170637.370 1 190077978.772 3      -692.964          39.000  
G04  21950484.054 1 115350568.800 3     -2093.876          40.000    21950488.167 1  89883598.641 3     -1632.286          41.000  
G06  19687162.282 1 103456727.483 2      -727.136          48.000    19687166.264 1  80615657.191 2      -566.650          45.000  
G09  20422696.154 1 107321993.370 3      -220.331          44.000    20422700.123 1  83627545.906 2      -171.808          43.000  
G11  20625675.921 1 108388659.676 2       911.243          45.000    20625678.310 1  84458720.638 2       709.948          44.000  
C07  34778119.889 1 181098795.390 2     -1176.538          46.000    34778115.935 1 140037056.817 1      -910.235          49.000  
C08  35929777.330 1 187095781.577 3      -359.178          41.000    35929774.617 1 144674315.154 1      -277.771          49.000  
C10  35184212.196 1 183213426.645 2      -825.303          45.000    35184211.532 1 141672238.447 2      -637.731          49.000  
C27  21519466.598 1 112057501.703 2     -2343.146          46.000                                                                  
C30  20658891.388 1 107576273.629 1       268.380          51.000                                                                  
C13  37002513.240 1 192681797.380 3      -192.406          42.000    37002521.231 1 148993822.291 2      -148.948          48.000  
R02  18816746.993 1 100409789.884 1      1656.431          53.000    18816752.523 1  78096517.751 2      1287.965          47.000  
R16  22261285.177 2 118915789.005 5      -949.278          49.000    22261295.278 2  92490097.191 5      -738.738          43.000  
R15  22150955.555 9               9     -3535.047          26.000    22150960.799 9               9     -2747.403          21.000  
R01  19000589.226 1 101569035.085 1     -2569.008          48.000                                                                  
R24  19220859.177 1 102782573.029 2     -1851.191          51.000    19220861.905 1  79942013.389 2     -1439.822          46.000  
R17  19249243.670 1 103006595.267 2      1229.450          51.000    19249245.549 1  80116258.706 2       956.261          47.000  
G12  22078482.681 1 116023208.719 4      -618.348          41.000    22078487.981 1  90407717.176 4      -481.998          39.000  
G17  21117336.883 1 110972338.593 3     -3354.390          44.000    21117341.890 1  86471974.063 3     -2613.661          43.000  
G19  19043509.083 1 100074298.955 2     -2271.643          47.000                                                                  
G20  20972088.694 1 110209069.573 2      1583.582          44.000                                                                  
J02  36049802.338 1 189442986.566 3      -909.473          42.000    36049811.984 1 147617950.060 2      -708.583          45.000  
J04  36364810.288 1 191098367.882 2     -1054.816          43.000    36364813.496 1 148907850.511 2      -822.280          45.000  
C29  24016367.657 1 125059527.854 4      2041.458          41.000                                                                  
C32  20981434.775 1 109255839.476 1       262.082          50.000                                                                  
R18  22514257.580 9               9      2416.187          25.000    22514266.853 9               9      1863.177          21.000  
R03  22421337.782 9 120023176.40538      3823.105          37.000    22421370.515 9               9      2967.090          34.000  
R08  23325901.661 9               9     -4967.651          20.000                                                                  
J07  36170641.057 1 190078001.156 5      -693.459          37.000    36170646.156 1 148112750.432 2      -540.558          46.000  
J03  37834977.741 1 198824149.986 1      -428.097          47.000    37834979.668 1 154927920.889 2      -333.449          45.000  
E11  24536192.789 1 128938568.908 3       647.676          41.000    24536198.052 1  98797116.145 2       496.271          47.000  
E16  24301775.891 1 127706676.544 2     -1998.433          43.000    24301785.905 1  97853209.710 1     -1531.083          50.000  
E19  23558653.507 1 123801560.073 3       125.020          38.000    23558661.110 1  94860963.794 2        95.980          46.000  
E24  24978140.673 1 131260994.821 2     -3014.937          44.000    24978152.283 1 100576667.010 1     -2310.296          50.000  
S28  37719125.036 1 198215332.836 3      -678.772          39.000  
E10  22946014.259 1 120582126.147 2      -235.744          47.000    22946020.990 1  92394127.079 1      -180.710          52.000  
E04  25292251.944 4               9      2189.183          34.000    25292270.544 2               9      1676.634          46.000  
E12  23113817.249 1 121463923.641 2     -1157.403          43.000    23113821.082 1  93069783.655 1      -886.895          49.000  
E33  25792657.605 4 135541325.579 7     -2560.258          37.000    25792667.363 1 103856382.416 4     -1962.629          45.000  
G22  23598734.083 9               9     -3848.435          22.000                                                                  
E25  24793291.868 1 130289621.191 3      -820.202          42.000    24793302.866 1  99832353.755 2      -628.425          48.000  
E29                                                                  26038891.332 1 104847825.240 3     -1626.094          47.000  
G25                                                                  23554513.099 9               9       557.181          17.000  
> 2025 04 25 07 00 10.9960000  0 44                     
S29  37243490.374 1 195715864.954 3      -675.527          42.000  
S37  36170769.220 1 190078671.901 3      -692.279          39.000  
G04  21950882.740 1 115352663.952 3     -2095.908          40.000    21950886.920 1  89885231.206 2     -1633.464          42.000  
G06  19687300.746 1 103457455.079 1      -728.125          48.000    19687304.781 1  80616224.158 2      -567.365          46.000  
G09  20422738.218 1 107322214.329 2      -221.778          44.000    20422742.166 1  83627718.083 2      -172.750          44.000  
G11  20625502.703 1 108387748.904 2       910.516          45.000    20625505.088 1  84458010.934 2       709.508          45.000  
C07  34778345.888 1 181099971.857 2     -1176.390          46.000    34778341.798 1 140037966.532 2      -909.965          49.000  
C08  35929846.227 1 187096140.319 3      -358.483          42.000    35929843.574 1 144674592.563 1      -277.309          48.000  
C10  35184370.682 1 183214251.367 2      -824.866          45.000    35184369.918 1 141672876.171 2      -637.723          49.000  
C27  21519916.534 1 112059845.050 2     -2343.604          46.000                                                                  
C30  20658839.921 1 107576005.714 1       267.461          50.000                                                                  
C13  37002550.149 1 192681989.632 2      -191.176          42.000    37002558.104 1 148993970.962 1      -148.146          48.000  
R02  18816436.503 1 100408133.471 1      1656.293          52.000    18816442.115 1  78095229.434 2      1288.015          49.000  
R16  22261463.042 2 118916738.901 4      -949.771          50.000    22261473.026 2  92490835.948 4      -738.046          45.000  
R15  22151619.579 9               7     -3535.516          32.000    22151625.276 9               9     -2750.103          30.000  
R01  19001069.994 1 101571605.025 2     -2570.684          48.000                                                                  
R24  19221205.420 1 102784424.724 2     -1852.136          51.000    19221208.154 1  79943453.608 2     -1440.928          49.000  
R17  19249013.950 1 103005366.509 2      1227.933          51.000    19249015.971 1  80115303.003 2       955.371          50.000  
G12  22078600.604 1 116023828.266 3      -619.800          41.000    22078605.924 1  90408199.925 3      -483.034          40.000  
G17  21117975.289 1 110975692.921 3     -3354.581          44.000    21117980.145 1  86474587.840 3     -2613.531          44.000  
G19  19043941.420 1 100076570.760 1     -2271.916          47.000                                                                  
G20  20971787.204 1 110207485.613 2      1583.740          44.000                                                                  
J02  36049975.325 1 189443895.491 3      -907.855          41.000    36049984.884 1 147618658.342 2      -708.044          46.000  
J04  36365010.944 1 191099422.716 2     -1055.116          43.000    36365014.232 1 148908672.452 2      -821.730          46.000  
C29  24015975.481 1 125057485.873 3      2041.870          42.000                                                                  
C32  20981384.356 1 109255577.404 1       261.843          50.000                                                                  
R18  22513815.484 9               9      2405.338          26.000    22513825.252 9               9      1856.685          23.000  
R03  22420620.968 9               9      3825.391          35.000    22420653.688 8               9      2973.058          34.000  
R08  23326831.601 9               9     -4985.076          19.000                                                                  
J07  36170773.077 1 190078694.282 4      -692.736          36.000    36170777.975 1 148113290.510 2      -539.689          47.000  
J03  37835059.048 1 198824578.076 1      -428.451          46.000    37835061.179 1 154928254.474 2      -333.982          46.000  
E11  24536069.650 1 128937921.639 3       647.249          41.000    24536074.897 1  98796620.198 2       495.860          46.000  
E16  24302156.019 1 127708674.564 2     -1998.399          43.000    24302166.134 1  97854740.658 1     -1530.989          49.000  
E19  23558629.814 1 123801435.150 3       124.134          39.000    23558637.162 1  94860868.088 2        95.425          45.000  
E24  24978714.530 1 131264009.284 2     -3013.548          44.000    24978725.913 1 100578976.790 1     -2309.240          50.000  
S28  37719254.109 1 198216011.017 3      -677.649          40.000  
E10  22946059.359 1 120582362.197 2      -236.237          47.000    22946065.678 1  92394307.947 1      -181.215          51.000  
E04  25291837.120 8               9      2193.969          33.000    25291853.771 2 101839814.39317      1676.306          41.000  
E12  23114037.594 1 121465081.446 2     -1158.711          43.000    23114041.318 1  93070670.788 1      -887.530          48.000  
E33  25793144.368 4 135543885.958 8     -2564.355          33.000    25793154.652 1 103858344.099 4     -1962.644          41.000  
G22  23599470.598 9               9     -3843.617          23.000                                                                  
E25  24793448.103 1 130290441.704 2      -820.912          42.000    24793458.914 1  99832982.441 2      -628.796          47.000  
E29                                                                  26039295.517 1 104849452.404 2     -1627.706          45.000  
G25                                                                  23554379.097 9               9       560.590          17.000  
> 2025 04 25 07 00 11.9960000  0 44                     
S29  37243618.726 1 195716539.519 3      -674.180          42.000  
S37  36170900.897 1 190079364.060 3      -692.052          39.000  
G04  21951281.873 1 115354760.933 3     -2098.135          40.000    21951286.002 1  89886865.213 3     -1635.328          42.000  
G06  19687439.341 1 103458183.585 1      -729.382          48.000    19687443.439 1  80616791.810 2      -568.018          46.000  
G09  20422780.420 1 107322436.435 2      -223.145          44.000    20422784.385 1  83627891.170 2      -173.952          44.000  
G11  20625329.521 1 108386838.534 2       909.807          44.000    20625331.808 1  84457301.558 2       708.895          45.000  
C07  34778571.746 1 181101147.955 2     -1176.198          46.000    34778567.673 1 140038875.940 2      -909.445          48.000  
C08  35929915.061 1 187096498.508 3      -357.946          42.000    35929912.339 1 144674869.538 2      -276.852          47.000  
C10  35184529.008 1 183215075.911 2      -824.707          45.000    35184528.243 1 141673513.770 2      -637.827          48.000  
C27  21520366.683 1 112062188.895 2     -2344.707          46.000                                                                  
C30  20658788.531 1 107575738.417 1       266.987          51.000                                                                  
C13  37002586.803 1 192682181.028 2      -191.177          42.000    37002594.956 1 148994118.954 2      -147.917          47.000  
R02  18816126.026 1 100406477.290 1      1655.757          52.000    18816131.676 1  78093941.285 2      1287.980          49.000  
R16  22261640.997 2 118917689.967 4      -951.580          46.000    22261651.090 2  92491575.722 5      -740.879          42.000  
R15  22152280.286 9               9     -3532.874          35.000    22152288.031 9  92069529.69637     -2750.347          38.000  
R01  19001551.090 1 101574176.715 1     -2572.897          48.000                                                                  
R24  19221551.887 1 102786277.546 1     -1853.738          51.000    19221554.566 1  79944894.666 2     -1441.641          48.000  
R17  19248784.578 1 103004138.736 2      1226.899          51.000    19248786.415 1  80114348.056 2       954.954          49.000  
G12  22078718.662 1 116024448.364 5      -621.269          41.000    22078723.971 1  90408683.129 4      -483.992          39.000  
G17  21118613.416 1 110979047.022 3     -3355.246          44.000    21118618.459 1  86477201.420 4     -2614.177          44.000  
G19  19044373.668 1 100078842.870 1     -2273.010          47.000                                                                  
G20  20971485.677 1 110205901.030 3      1584.656          44.000                                                                  
J02  36050148.099 1 189444803.294 3      -907.650          42.000    36050157.672 1 147619365.711 2      -707.195          46.000  
J04  36365211.598 1 191100477.102 2     -1054.409          43.000    36365214.882 1 148909494.082 2      -822.197          46.000  
C29  24015583.377 1 125055444.404 4      2039.538          41.000                                                                  
C32  20981334.036 1 109255315.639 1       261.011          50.000                                                                  
R18  22513375.331 9               7      2395.624          26.000    22513380.573 9               9      1871.527          24.000  
R03  22419907.602 9 120015519.83837      3823.813          37.000    22419936.732 9  93345525.61038      2975.703          38.000  
R08  23327762.524 9               9     -4991.777          17.000                                                                  
J07  36170904.786 1 190079386.436 5      -692.036          36.000    36170909.671 1 148113829.850 2      -539.226          47.000  
J03  37835140.570 1 198825006.346 1      -428.823          46.000    37835142.649 1 154928588.183 2      -334.044          46.000  
E11  24535946.635 1 128937274.481 3       647.053          40.000    24535951.673 1  98796124.321 2       495.934          46.000  
E16  24302536.374 1 127710672.250 2     -1997.772          43.000    24302546.382 1  97856271.343 2     -1530.451          49.000  
E19  23558606.325 1 123801311.262 3       122.800          38.000    23558613.641 1  94860773.148 2        94.289          45.000  
E24  24979287.742 1 131267022.823 2     -3013.126          44.000    24979299.486 1 100581285.856 2     -2308.949          50.000  
S28  37719382.935 1 198216688.110 4      -676.923          39.000  
E10  22946104.227 1 120582598.836 2      -237.204          47.000    22946110.702 1  92394489.268 1      -181.853          51.000  
E04  25291417.481 8 132907295.88318      2193.431          37.000    25291436.427 2 101838134.630 7      1680.584          46.000  
E12  23114258.042 1 121466240.092 2     -1159.336          43.000    23114261.892 1  93071558.598 1      -888.451          48.000  
E33  25793632.694 8 135546453.82517     -2562.135          31.000    25793642.015 2 103860306.437 7     -1962.091          42.000  
G22  23600201.710 9               9     -3840.602          24.000                                                                  
E25  24793604.296 1 130291262.514 3      -821.184          42.000    24793615.163 1  99833611.415 2      -629.815          47.000  
E29                                                                  26039699.889 1 104851080.980 2     -1629.500          44.000  
G25                                                                  23554247.328 9               9       565.034          17.000  
> 2025 04 25 07 00 12.9960000  0 44                     
S29  37243746.833 1 195717212.931 3      -673.142          42.000  
S37  36171032.504 1 190080055.694 3      -691.290          39.000  
G04  21951681.224 1 115356860.078 3     -2100.305          40.000    21951685.486 1  89888500.916 3     -1636.786          42.000  
G06  19687578.215 1 103458913.080 1      -729.987          48.000    19687582.245 1  80617360.270 2      -569.055          45.000  
G09  20422823.080 1 107322660.256 2      -224.657          44.000    20422826.982 1  83628065.560 3      -175.042          44.000  
G11  20625156.340 1 108385928.292 2       910.001          45.000    20625158.502 1  84456592.262 2       709.294          45.000  
C07  34778797.567 1 181102323.908 1     -1176.096          46.000    34778793.489 1 140039785.262 1      -909.301          48.000  
C08  35929983.750 1 187096856.137 2      -357.374          42.000    35929981.063 1 144675146.082 2      -276.532          48.000  
C10  35184687.303 1 183215900.298 2      -824.413          45.000    35184686.498 1 141674151.237 2      -637.560          48.000  
C27  21520817.067 1 112064533.801 2     -2345.588          46.000                                                                  
C30  20658737.288 1 107575471.836 1       266.311          50.000                                                                  
C13  37002623.416 1 192682371.470 2      -189.862          42.000    37002631.487 1 148994266.224 1      -147.314          47.000  
R02  18815815.581 1 100404821.831 2      1655.097          52.000    18815821.503 1  78092653.707 2      1287.269          48.000  
R16  22261819.209 2 118918641.826 6      -952.153          47.000    22261829.269 2  92492315.969 7      -739.951          43.000  
R15  22152934.856 8 118378566.71735     -3535.489          40.000    22152948.109 8  92072273.06224     -2749.631          37.000  
R01  19002032.506 1 101576750.441 1     -2574.752          48.000                                                                  
R24  19221898.675 1 102788131.923 1     -1855.019          51.000    19221901.287 1  79946336.968 2     -1442.905          48.000  
R17  19248555.295 1 103002911.729 2      1226.604          51.000    19248557.083 1  80113393.747 2       953.984          48.000  
G12  22078836.696 1 116025068.569 4      -620.910          42.000    22078841.952 1  90409166.381 3      -483.654          40.000  
G17  21119251.677 1 110982401.473 3     -3353.969          44.000    21119256.844 1  86479815.281 3     -2613.773          43.000  
G19  19044806.137 1 100081115.700 2     -2273.508          47.000                                                                  
G20  20971184.021 1 110204315.779 2      1585.264          44.000                                                                  
J02  36050320.683 1 189445710.429 3      -906.997          42.000    36050330.411 1 147620072.545 2      -706.603          46.000  
J04  36365412.269 1 191101531.629 2     -1054.667          43.000    36365415.490 1 148910315.768 2      -821.934          45.000  
C29  24015191.280 1 125053402.585 4      2041.996          42.000                                                                  
C32  20981283.851 1 109255054.562 1       260.674          49.000                                                                  
R18  22512917.454 9 120175481.73037      2394.531          43.000    22512929.515 9  93469869.42738      1862.384          42.000  
R03  22419191.096 9               9      3827.197          33.000    22419224.730 8  93342561.24027      2975.902          35.000  
R08  23328695.865 9               9     -4985.297          22.000                                                                  
J07  36171036.445 1 190080078.063 4      -691.035          37.000    36171041.397 1 148114368.783 2      -538.791          47.000  
J03  37835222.279 1 198825435.125 1      -429.091          46.000    37835224.200 1 154928922.308 2      -334.530          45.000  
E11  24535823.267 1 128936627.200 3       647.041          41.000    24535828.604 1  98795628.343 2       495.927          46.000  
E16  24302916.525 1 127712669.425 2     -1997.037          43.000    24302926.390 1  97857801.634 1     -1529.976          50.000  
E19  23558583.038 1 123801188.852 3       121.983          39.000    23558590.191 1  94860679.370 3        93.793          45.000  
E24  24979861.006 1 131270035.376 2     -3012.271          43.000    24979872.688 1 100583594.176 2     -2308.273          50.000  
S28  37719511.472 1 198217363.868 3      -675.330          39.000  
E10  22946149.441 1 120582835.993 1      -237.632          47.000    22946155.927 1  92394670.979 1      -181.970          51.000  
E04  25291001.782 8 132905104.007 7      2192.553          34.000    25291019.428 1 101836455.224 6      1679.491          41.000  
E12  23114478.864 1 121467399.815 2     -1160.145          43.000    23114482.557 1  93072447.219 1      -889.242          48.000  
E33  25794121.796 8               9     -2563.306          35.000    25794129.444 4               9     -1965.632          42.000  
G22  23600932.279 9               9     -3834.352          23.000                                                                  
E25  24793760.365 1 130292083.269 2      -820.920          42.000    24793771.374 1  99834240.288 2      -629.141          47.000  
E29                                                                  26040104.801 1 104852711.114 2     -1630.598          44.000  
G25                                                                  23554114.148 9               9       549.076          16.000  
> 2025 04 25 07 00 13.9960000  0 44                     
S29  37243874.820 1 195717885.391 3      -671.864          42.000  
S37  36171163.973 1 190080746.637 3      -691.588          39.000  
G04  21952081.013 1 115358960.632 3     -2101.798          40.000    21952085.237 1  89890137.690 2     -1637.523          42.000  
G06  19687717.157 1 103459643.019 1      -730.139          48.000    19687721.104 1  80617929.055 2      -569.305          45.000  
G09  20422865.846 1 107322884.966 2      -225.045          44.000    20422869.732 1  83628240.673 2      -175.561          43.000  
G11  20624983.186 1 108385018.086 2       910.091          45.000    20624985.196 1  84455883.025 2       709.124          45.000  
C07  34779023.299 1 181103499.460 2     -1175.539          46.000    34779019.270 1 140040694.294 1      -909.280          48.000  
C08  35930052.367 1 187097213.225 2      -356.976          42.000    35930049.634 1 144675422.221 2      -276.370          48.000  
C10  35184845.564 1 183216724.377 1      -824.214          45.000    35184844.750 1 141674788.443 1      -637.227          48.000  
C27  21521267.451 1 112066879.035 2     -2345.518          46.000                                                                  
C30  20658686.184 1 107575205.533 1       266.013          50.000                                                                  
C13  37002659.959 1 192682561.182 2      -189.781          42.000    37002667.945 1 148994412.934 2      -147.058          46.000  
R02  18815505.422 1 100403166.669 1      1654.666          52.000    18815511.386 1  78091366.370 2      1287.046          49.000  
R16  22261997.531 2 118919594.591 4      -954.295          46.000    22262007.752 2  92493057.110 6      -743.062          42.000  
R15  22153596.140 8 118382102.93027     -3536.611          33.000    22153607.149 8  92075023.50228     -2752.678          31.000  
R01  19002514.265 1 101579325.415 1     -2575.662          48.000    19002787.635 9               9     -1933.506          10.000  
R24  19222245.605 1 102789987.054 2     -1855.450          51.000    19222248.229 1  79947779.845 2     -1443.122          47.000  
R17  19248326.204 1 103001685.137 2      1226.254          50.000    19248327.826 1  80112439.727 2       953.758          49.000  
G12  22078954.757 1 116025689.108 5      -620.730          40.000    22078960.029 1  90409649.912 3      -483.567          39.000  
G17  21119890.044 1 110985755.991 3     -3354.964          45.000    21119895.208 1  86482429.160 3     -2614.791          44.000  
G19  19045238.692 1 100083388.807 1     -2273.583          47.000                                                                  
G20  20970882.220 1 110202730.061 2      1585.684          44.000                                                                  
J02  36050493.150 1 189446616.795 3      -906.583          40.000    36050502.868 1 147620778.812 2      -706.515          45.000  
J04  36365612.904 1 191102585.798 2     -1054.348          43.000    36365616.064 1 148911137.203 2      -821.548          45.000  
C29  24014799.158 1 125051360.978 5      2040.491          42.000                                                                  
C32  20981233.636 1 109254793.729 1       260.390          49.000                                                                  
R18  22512453.023 8 120173085.88925      2395.844          45.000    22512469.804 8  93468006.07425      1862.805          37.000  
R03  22418480.043 9               9      3812.188          30.000    22418511.762 8               9      2975.759          31.000  
R08  23329623.721 9               9     -4977.757          20.000    23329658.329 9               9     -3875.420          23.000  
J07  36171167.942 1 190080769.027 4      -691.937          34.000    36171172.876 1 148114907.173 2      -538.589          46.000  
J03  37835303.913 1 198825863.824 1      -429.019          47.000    37835305.746 1 154929256.348 2      -334.211          46.000  
E11  24535699.949 1 128935979.709 3       647.933          41.000    24535705.367 1  98795132.243 2       495.962          46.000  
E16  24303296.125 1 127714666.302 2     -1996.999          43.000    24303306.406 1  97859331.718 1     -1530.169          49.000  
E19  23558559.842 1 123801067.250 3       121.251          39.000    23558567.247 1  94860586.194 2        92.885          45.000  
E24  24980434.383 1 131273047.216 2     -3012.071          44.000    24980445.828 1 100585901.916 1     -2307.703          50.000  
S28  37719639.940 1 198218038.780 3      -675.769          41.000  
E10  22946194.606 1 120583073.298 1      -237.467          47.000    22946201.101 1  92394852.814 1      -182.011          51.000  
E04  25290586.621 8               7      2191.901          36.000    25290602.038 2 101834775.289 8      1681.475          43.000  
E12  23114699.733 1 121468559.931 2     -1160.542          43.000    23114703.357 1  93073336.134 1      -889.287          48.000  
E33  25794605.485 8               9     -2564.649          36.000    25794617.284 2               9     -1964.209          43.000  
G22  23601663.464 9               9     -3844.165          23.000                                                                  
E25  24793916.754 1 130292904.162 3      -821.199          42.000    24793927.618 1  99834869.254 2      -629.067          47.000  
E29                                                                  26040509.865 1 104854342.275 2     -1631.509          44.000  
G25                                                                  23553979.411 9               9       548.056          15.000  
> 2025 04 25 07 00 14.9960000  0 44                     
S29  37244002.667 1 195718557.549 3      -671.720          41.000  
S37  36171295.343 1 190081437.433 3      -689.929          39.000  
G04  21952480.814 1 115361062.163 3     -2101.187          40.000    21952485.156 1  89891775.249 3     -1637.252          42.000  
G06  19687856.142 1 103460373.378 1      -730.359          48.000    19687860.135 1  80618498.141 2      -569.055          45.000  
G09  20422908.828 1 107323110.675 3      -224.859          44.000    20422912.691 1  83628416.553 2      -175.499          44.000  
G11  20624809.892 1 108384107.995 2       909.285          45.000    20624812.133 1  84455173.850 2       708.850          45.000  
C07  34779249.092 1 181104675.071 2     -1175.300          46.000    34779245.099 1 140041603.343 1      -908.743          48.000  
C08  35930120.852 1 187097570.225 2      -356.700          42.000    35930118.191 1 144675698.271 2      -276.222          48.000  
C10  35185003.746 1 183217548.424 2      -823.721          45.000    35185003.057 1 141675425.673 2      -637.081          48.000  
C27  21521717.836 1 112069224.825 3     -2345.265          46.000                                                                  
C30  20658635.153 1 107574939.579 1       266.172          50.000                                                                  
C13  37002696.359 1 192682750.665 3      -188.966          42.000    37002704.375 1 148994559.451 2      -146.427          47.000  
R02  18815195.501 1 100401512.322 2      1654.967          52.000    18815201.344 1  78090079.664 2      1287.041          48.000  
R16  22262175.976 2 118920547.910 6      -954.920          49.000    22262186.216 2  92493798.539 5      -743.353          47.000  
R15  22154259.131 9               9     -3553.131          23.000    22154270.422 9               9     -2748.071          23.000  
R01  19002996.273 1 101581901.530 2     -2575.864          48.000                                                                  
R24  19222592.586 1 102791842.867 2     -1855.368          51.000    19222595.238 1  79949223.275 2     -1443.323          47.000  
R17  19248097.086 1 103000458.844 3      1226.228          51.000    19248098.684 1  80111485.958 2       953.656          48.000  
G12  22079072.937 1 116026310.109 5      -622.167          41.000    22079078.174 1  90410133.771 4      -484.023          39.000  
G17  21120528.542 1 110989110.863 4     -3354.042          43.000    21120533.673 1  86485043.353 3     -2613.568          43.000  
G19  19045671.335 1 100085662.556 2     -2273.288          47.000                                                                  
G20  20970580.479 1 110201144.391 3      1585.387          44.000                                                                  
J02  36050665.620 1 189447523.070 4      -905.211          41.000    36050675.297 1 147621484.975 2      -705.518          45.000  
J04  36365813.516 1 191103640.064 3     -1053.066          43.000    36365816.699 1 148911958.709 2      -820.559          45.000  
C29  24014406.931 1 125049319.030 6      2040.807          42.000                                                                  
C32  20981183.541 1 109254533.501 1       260.490          49.000                                                                  
R18  22512001.536 9               9      2390.625          34.000    22512018.276 9               9      1857.959          31.000  
R03  22417764.614 9               9      3821.550          31.000    22417798.807 9               9      2959.851          30.000  
R08  23330556.486 9               9     -4978.170          22.000                                                                  
J07  36171299.323 2 190081459.806 5      -690.033          37.000    36171304.370 1 148115445.456 2      -537.520          46.000  
J03  37835385.597 1 198826292.593 2      -428.210          46.000    37835387.356 1 154929590.444 2      -333.491          46.000  
E11  24535576.700 1 128935332.170 4       647.216          41.000    24535582.106 1  98794636.066 3       495.815          46.000  
E16  24303676.444 1 127716663.274 3     -1997.518          43.000    24303686.500 1  97860861.868 2     -1530.342          49.000  
E19  23558536.879 1 123800946.455 4       121.630          38.000    23558544.284 1  94860493.653 2        93.123          45.000  
E24  24981007.411 1 131276058.973 2     -3011.519          44.000    24981018.953 1 100588209.628 2     -2307.853          50.000  
S28  37719768.254 1 198218713.181 4      -674.487          39.000  
E10  22946239.696 1 120583310.767 2      -237.727          46.000    22946246.174 1  92395034.779 2      -182.207          50.000  
E04  25290166.625 4 132900737.19417      2193.349          38.000    25290184.933 1 101833095.436 5      1681.130          45.000  
E12  23114920.435 1 121469720.383 2     -1160.204          43.000    23114924.214 1  93074225.318 1      -889.037          48.000  
E33  25795095.687 8               9     -2562.438          35.000    25795105.150 2 103866198.02018     -1962.459          43.000  
G22  23602390.753 9               9     -3844.638          24.000                                                                  
E25  24794073.002 1 130293725.262 3      -821.704          42.000    24794083.752 1  99835498.453 3      -629.902          47.000  
E29                                                                  26040915.141 1 104855974.107 2     -1631.831          45.000  
G25                                                                  23553844.521 9               9       551.804          16.000  
> 2025 04 25 07 00 15.9960000  0 44                     
S29  37244130.306 1 195719228.727 3      -670.239          42.000  
S37  36171426.575 1 190082127.351 3      -689.610          39.000  
G04  21952880.926 1 115363164.845 3     -2103.406          40.000    21952885.386 1  89893413.739 4     -1639.672          42.000  
G06  19687995.228 1 103461104.132 1      -731.311          48.000    19687999.161 1  80619067.577 2      -569.800          45.000  
G09  20422951.908 1 107323337.052 2      -226.980          43.000    20422955.759 1  83628592.987 2      -177.107          43.000  
G11  20624636.628 1 108383197.997 2       909.668          45.000    20624638.999 1  84454464.771 2       709.252          45.000  
C07  34779474.696 1 181105850.232 2     -1174.923          46.000    34779470.779 1 140042512.050 2      -908.701          47.000  
C08  35930189.409 1 187097926.683 2      -356.013          41.000    35930186.604 1 144675973.906 2      -275.682          47.000  
C10  35185161.884 1 183218372.198 2      -823.865          45.000    35185161.275 1 141676062.668 2      -636.862          47.000  
C27  21522168.303 1 112071570.710 3     -2346.157          46.000                                                                  
C30  20658584.158 1 107574673.898 1       265.283          50.000                                                                  
C13  37002732.555 1 192682939.482 2      -188.491          42.000    37002740.631 1 148994705.435 2      -145.556          47.000  
R02  18814885.516 1 100399858.079 2      1653.968          52.000    18814891.299 1  78088793.043 2      1286.541          48.000  
R16  22262354.699 2 118921502.308 6      -955.218          45.000    22262364.801 2  92494540.828 6      -741.833          41.000  
R15  22154921.697 9               9     -3532.674          23.000    22154935.932 9               9     -2747.108          22.000  
R01  19003478.279 1 101584478.776 2     -2578.281          48.000                                                                  
R24  19222939.699 1 102793699.161 2     -1856.813          51.000    19222942.376 1  79950667.049 2     -1444.140          47.000  
R17  19247867.985 1 102999233.138 2      1225.159          51.000    19247869.673 1  80110532.613 2       952.935          48.000  
G12  22079191.206 1 116026931.483 5      -621.187          39.000    22079196.466 1  90410618.043 4      -484.894          38.000  
G17  21121167.040 1 110992465.461 3     -3354.516          43.000    21121172.118 1  86487657.321 3     -2614.144          43.000  
G19  19046104.108 1 100087936.414 2     -2274.184          47.000                                                                  
G20  20970278.704 1 110199558.282 2      1586.066          44.000                                                                  
J02  36050837.839 1 189448428.350 4      -904.302          41.000    36050847.618 1 147622190.407 2      -705.026          45.000  
J04  36366014.080 1 191104693.789 2     -1053.465          43.000    36366017.209 1 148912779.789 2      -820.642          45.000  
C29  24014014.778 1 125047277.356 5      2042.587          37.000                                                                  
C32  20981133.677 1 109254273.366 1       259.778          49.000                                                                  
R18  22511554.453 9               9      2403.930          30.000    22511574.477 9               9      1863.215          25.000  
R03  22417049.360 9               9      3834.570          31.000    22417086.149 9  93333657.41037      2978.047          34.000  
R08  23331486.370 9               9     -4982.322          22.000                                                                  
J07  36171430.610 1 190082149.735 4      -689.900          36.000    36171435.721 1 148115983.084 2      -537.587          46.000  
J03  37835467.093 1 198826721.167 2      -428.938          46.000    37835468.894 1 154929924.418 2      -334.149          45.000  
E11  24535453.496 1 128934684.581 3       647.743          41.000    24535458.883 1  98794139.860 2       496.024          46.000  
E16  24304056.318 1 127718660.013 3     -1996.918          43.000    24304066.331 1  97862391.828 1     -1529.974          49.000  
E19  23558514.143 1 123800826.139 3       119.796          38.000    23558521.497 1  94860401.453 2        91.618          45.000  
E24  24981580.377 1 131279070.008 2     -3010.789          43.000    24981591.774 1 100590516.780 1     -2306.941          49.000  
S28  37719896.477 1 198219386.696 4      -673.041          39.000  
E10  22946284.985 1 120583548.426 2      -237.967          47.000    22946291.286 1  92395216.876 1      -182.394          51.000  
E04  25289749.472 8 132898529.97018      2192.331          38.000    25289767.654 1 101831415.003 6      1679.440          44.000  
E12  23115141.333 1 121470881.159 2     -1161.176          43.000    23115145.150 1  93075114.737 1      -889.758          48.000  
E33  25795581.810 8 135556696.61317     -2563.691          35.000    25795593.193 2 103868162.553 7     -1965.399          43.000  
G22  23603119.089 9               9     -3839.339          25.000                                                                  
E25  24794229.143 1 130294546.630 3      -821.154          42.000    24794240.173 1  99836127.792 3      -629.665          47.000  
E29                                                                  26041320.629 1 104857606.773 3     -1633.657          43.000  
G25                                                                  23553708.337 9               9       548.292          19.000  
> 2025 04 25 07 00 16.9960000  0 44                     
S29  37244257.929 1 195719899.120 3      -669.656          42.000  
S37  36171557.778 1 190082816.909 3      -689.286          39.000  
G04  21953281.440 1 115365269.420 3     -2106.180          40.000    21953285.902 1  89895053.636 3     -1640.557          41.000  
G06  19688134.418 1 103461835.824 1      -732.123          48.000    19688138.447 1  80619637.728 2      -570.813          45.000  
G09  20422995.240 1 107323564.898 2      -228.644          43.000    20422999.254 1  83628770.520 2      -178.211          44.000  
G11  20624463.577 1 108382288.351 2       909.362          45.000    20624465.924 1  84453755.954 2       708.732          45.000  
C07  34779700.292 1 181107025.388 2     -1174.961          46.000    34779696.487 1 140043420.760 1      -908.874          48.000  
C08  35930257.820 1 187098282.869 3      -356.192          41.000    35930255.000 1 144676249.311 2      -275.284          48.000  
C10  35185320.031 1 183219195.995 2      -823.687          45.000    35185319.449 1 141676699.676 1      -636.820          48.000  
C27  21522618.952 1 112073917.470 2     -2347.244          46.000                                                                  
C30  20658533.361 1 107574408.936 1       264.778          50.000                                                                  
C13  37002768.613 1 192683127.614 2      -187.285          41.000    37002776.722 1 148994850.931 2      -144.851          47.000  
R02  18814575.653 1 100398204.570 1      1653.107          52.000    18814581.489 1  78087506.974 2      1285.669          48.000  
R16  22262533.476 2 118922457.467 5      -956.242          49.000    22262543.597 2  92495283.731 5      -743.590          44.000  
R15  22155589.410 9               9     -3554.635          22.000    22155605.292 9               9     -2752.792          22.000  
R01  19003960.797 1 101587057.846 1     -2579.992          48.000                                                                  
R24  19223287.108 1 102795556.759 2     -1858.052          51.000    19223289.725 1  79952111.846 2     -1445.066          47.000  
R17  19247639.057 1 102998008.266 2      1224.343          51.000    19247640.731 1  80109579.931 2       952.440          48.000  
G12  22079309.570 1 116027553.356 4      -621.927          39.000    22079314.801 1  90411102.593 4      -485.505          37.000  
G17  21121805.464 1 110995820.394 3     -3354.967          44.000    21121810.398 1  86490271.565 2     -2614.453          43.000  
G19  19046537.043 1 100090210.999 1     -2274.750          46.000                                                                  
G20  20969976.778 1 110197971.823 2      1586.900          44.000                                                                  
J02  36051010.016 1 189449333.151 3      -904.447          42.000    36051019.784 1 147622895.453 2      -705.216          46.000  
J04  36366214.530 1 191105747.633 2     -1054.019          43.000    36366217.740 1 148913600.961 2      -820.887          45.000  
C29  24013622.695 1 125045235.620 4      2041.997          42.000                                                                  
C32  20981083.973 1 109254013.944 1       259.096          50.000    20980866.189 9               9       223.164          10.000  
R18  22511106.529 9               9      2398.160          30.000    22511135.479 9               9      1866.837          31.000  
R03  22416337.273 9               9      3822.509          28.000    22416370.839 9               9      2977.037          33.000  
R08  23332416.097 9               9     -4989.947          29.000    23332450.485 9               9     -3879.839          25.000  
J07  36171561.895 1 190082839.295 4      -689.693          36.000    36171566.866 1 148116520.380 2      -537.154          46.000  
J03  37835548.681 1 198827150.171 1      -429.052          47.000    37835550.568 1 154930258.701 2      -334.127          46.000  
E11  24535330.205 1 128934037.050 3       647.384          41.000    24535335.640 1  98793643.691 2       496.126          46.000  
E16  24304436.162 1 127720656.560 2     -1996.103          43.000    24304446.273 1  97863921.654 1     -1529.695          49.000  
E19  23558491.281 1 123800707.081 3       118.436          38.000    23558498.746 1  94860310.233 2        90.914          45.000  
E24  24982153.140 1 131282080.427 2     -3010.072          44.000    24982164.680 1 100592823.449 2     -2306.269          49.000  
S28  37720024.526 1 198220059.280 4      -672.650          39.000  
E10  22946330.550 1 120583786.642 1      -238.425          47.000    22946336.727 1  92395399.399 1      -182.570          51.000  
E04  25289330.931 8               9      2195.066          35.000    25289350.108 1 101829734.142 6      1683.164          45.000  
E12  23115362.324 1 121472042.860 2     -1162.111          43.000    23115366.331 1  93076004.860 1      -890.177          48.000  
E33  25796070.559 8 135559261.675 8     -2566.373          35.000    25796081.218 2 103870127.906 8     -1966.942          42.000  
G22  23603849.781 9               9     -3831.684          24.000                                                                  
E25  24794385.555 1 130295368.232 2      -821.869          42.000    24794396.518 1  99836757.309 2      -629.225          47.000  
E29                                                                  26041726.317 1 104859240.731 2     -1634.659          45.000  
G25                                                                  23553574.222 9               9       533.704          19.000  
> 2025 04 25 07 00 17.9960000  0 44                     
S29  37244385.421 1 195720568.910 2      -669.604          42.000  
S37  36171689.001 1 190083506.091 3      -688.519          39.000  
G04  21953682.262 1 115367375.826 3     -2107.813          40.000    21953686.679 1  89896695.006 3     -1642.485          41.000  
G06  19688273.800 1 103462568.376 1      -732.996          48.000    19688277.875 1  80620208.553 2      -571.503          45.000  
G09  20423038.865 1 107323794.164 2      -230.388          42.000    20423042.847 1  83628949.135 2      -179.091          43.000  
G11  20624290.607 1 108381379.104 2       908.851          45.000    20624292.849 1  84453047.456 2       708.379          45.000  
C07  34779925.932 1 181108200.517 1     -1175.197          46.000    34779922.149 1 140044329.434 1      -908.643          48.000  
C08  35930326.059 1 187098638.785 2      -355.941          41.000    35930323.374 1 144676524.543 2      -275.182          47.000  
C10  35185478.322 1 183220019.832 2      -823.907          45.000    35185477.682 1 141677336.724 1      -637.295          48.000  
C27  21523069.766 1 112076265.036 2     -2348.367          46.000                                                                  
C30  20658482.614 1 107574144.656 1       263.880          50.000                                                                  
C13  37002804.632 1 192683315.470 3      -187.905          42.000    37002812.775 1 148994996.169 2      -145.266          47.000  
R02  18814265.956 1 100396551.756 1      1652.296          52.000    18814271.696 1  78086221.463 2      1285.041          44.000  
R16  22262712.521 2 118923413.991 7      -957.028          48.000    22262722.658 2  92496027.633 7      -743.252          41.000  
R15  22156263.343 9               9     -3542.116          23.000    22156270.805 9               9     -2751.275          20.000  
R01  19004443.627 1 101589638.623 1     -2581.688          48.000    19004621.687 9               9     -1944.182          11.000  
R24  19223634.806 1 102797415.668 2     -1859.448          51.000    19223637.395 1  79953557.636 2     -1446.064          44.000  
R17  19247410.331 1 102996784.257 2      1223.354          50.000    19247412.094 1  80108627.915 2       951.655          45.000  
G12  22079428.050 1 116028175.946 5      -623.448          41.000    22079433.294 1  90411587.690 5      -485.646          39.000  
G17  21122444.040 1 110999175.760 3     -3355.735          44.000    21122448.897 1  86492886.064 3     -2614.198          44.000  
G19  19046970.121 1 100092486.272 1     -2275.704          47.000                                                                  
G20  20969674.844 1 110196385.249 2      1586.288          44.000                                                                  
J02  36051182.062 1 189450237.615 3      -904.424          42.000    36051191.861 1 147623600.193 2      -705.074          46.000  
J04  36366415.132 1 191106801.533 2     -1053.934          43.000    36366418.354 1 148914422.198 2      -821.202          45.000  
C29  24013230.670 1 125043194.338 6      2041.036          41.000                                                                  
C32  20981034.224 1 109253755.165 1       258.179          49.000                                                                  
R18  22510654.210 9               9      2396.582          45.000    22510683.428 9               9      1862.958          35.000  
R03  22415621.155 9               9      3842.102          27.000    22415655.508 9               9      2975.726          27.000  
R08  23333353.490 9               9     -4990.188          29.000    23333381.483 8  97182709.05937     -3882.591          26.000  
J07  36171693.128 1 190083528.504 4      -689.273          36.000    36171698.002 1 148117057.435 2      -537.035          46.000  
J03  37835630.448 1 198827579.525 1      -429.733          47.000    37835632.212 1 154930593.262 2      -334.953          45.000  
E11  24535206.955 1 128933389.690 3       647.167          41.000    24535212.327 1  98793147.671 3       495.719          46.000  
E16  24304816.289 1 127722653.163 2     -1996.953          43.000    24304826.269 1  97865451.506 2     -1529.907          49.000  
E19  23558468.788 1 123800589.254 3       117.305          38.000    23558476.367 1  94860219.953 2        89.741          45.000  
E24  24982726.031 1 131285090.496 2     -3010.594          43.000    24982737.607 1 100595129.838 1     -2306.540          49.000  
S28  37720152.345 1 198220731.253 4      -671.167          39.000  
E10  22946375.910 1 120584025.423 2      -239.289          47.000    22946382.281 1  92395582.360 2      -183.218          51.000  
E04  25288913.871 8               9      2192.401          39.000    25288932.802 2               9      1678.024          45.000  
E12  23115583.679 1 121473205.403 2     -1163.049          43.000    23115587.536 1  93076895.653 1      -890.991          48.000  
E33  25796559.025 4 135561827.699 8     -2564.614          33.000    25796569.589 1 103872094.032 6     -1963.823          40.000  
G22  23604584.995 9               9     -3837.707          23.000                                                                  
E25  24794541.914 1 130296190.272 3      -822.138          42.000    24794553.061 1  99837387.220 3      -630.165          47.000  
E29                                                                  26042132.554 1 104860876.102 2     -1636.240          44.000  
G25                                                                  23553440.613 9               9       552.435          18.000  
> 2025 04 25 07 00 18.9960000  0 44                     
S29  37244512.745 1 195721238.147 2      -668.411          42.000  
S37  36171820.237 1 190084195.067 3      -688.898          39.000  
G04  21954083.381 1 115369483.665 3     -2108.425          40.000    21954087.754 1  89898337.492 3     -1642.911          41.000  
G06  19688413.272 1 103463301.611 1      -733.197          48.000    19688417.303 1  80620779.900 2      -571.375          45.000  
G09  20423082.646 1 107324024.544 2      -231.204          44.000    20423086.731 1  83629128.662 2      -180.025          44.000  
G11  20624117.627 1 108380470.137 2       909.463          45.000    20624119.782 1  84452339.201 2       708.370          45.000  
C07  34780151.588 1 181109375.648 2     -1174.645          46.000    34780147.838 1 140045238.132 1      -908.360          48.000  
C08  35930394.343 1 187098994.572 2      -355.414          41.000    35930391.732 1 144676799.666 1      -275.128          47.000  
C10  35185636.494 1 183220843.678 1      -823.510          45.000    35185635.859 1 141677973.784 1      -636.984          48.000  
C27  21523520.719 1 112078613.210 2     -2348.360          46.000                                                                  
C30  20658431.874 1 107573880.928 1       263.714          50.000                                                                  
C13  37002840.638 1 192683502.929 2      -187.133          42.000    37002848.795 1 148995141.136 1      -144.749          46.000  
R02  18813956.386 1 100394899.667 2      1651.982          53.000    18813962.141 1  78084936.514 2      1284.686          46.000  
R16  22262891.766 8               9      -955.957          34.000    22262901.991 8               9      -747.304          30.000  
R15  22156926.537 9               9     -3536.006          22.000    22156935.139 9               9     -2752.924          21.000  
R01  19004926.701 1 101592220.875 1     -2582.765          48.000                                                                  
R24  19223982.580 1 102799275.588 1     -1860.379          51.000    19223985.308 1  79955004.261 2     -1447.099          45.000  
R17  19247181.766 1 102995560.907 2      1223.252          51.000    19247183.506 1  80107676.445 2       951.581          45.000  
G12  22079546.602 1 116028799.098 3      -622.830          39.000    22079551.845 1  90412073.313 3      -485.166          40.000  
G17  21123082.608 1 111002531.362 3     -3355.874          43.000    21123087.480 1  86495500.863 3     -2614.317          42.000  
G19  19047403.285 1 100094762.153 1     -2276.184          47.000                                                                  
G20  20969372.998 1 110194798.590 2      1587.083          44.000                                                                  
J02  36051354.092 1 189451141.721 3      -904.187          41.000    36051363.958 1 147624304.700 2      -704.656          45.000  
J04  36366615.663 1 191107855.491 2     -1053.981          43.000    36366618.891 1 148915243.453 2      -821.107          45.000  
C29  24012838.706 1 125041153.209 3      2042.006          39.000                                                                  
C32  20980984.881 1 109253496.981 1       257.829          50.000                                                                  
R18  22510205.958 8 120161007.24336      2395.978          39.000    22510226.355 8  93458646.48737      1864.343          35.000  
R03  22414908.700 9               9      3830.416          26.000    22414937.899 8               9      2979.201          28.000  
R08  23334287.279 8               9     -4991.291          28.000    23334311.495 8               9     -3882.103          26.000  
J07  36171824.100 1 190084217.436 4      -688.961          36.000    36171829.062 1 148117594.267 2      -536.772          46.000  
J03  37835712.202 1 198828009.081 1      -429.496          47.000    37835713.944 1 154930927.990 2      -334.815          45.000  
E11  24535083.980 1 128932742.464 3       647.429          41.000    24535089.144 1  98792651.748 2       496.124          45.000  
E16  24305196.179 1 127724649.823 2     -1996.378          43.000    24305206.206 1  97866981.422 1     -1529.800          49.000  
E19  23558446.569 1 123800472.442 3       116.193          38.000    23558454.150 1  94860130.451 2        89.231          45.000  
E24  24983298.736 1 131288100.224 2     -3009.197          44.000    24983310.381 1 100597436.018 1     -2305.817          49.000  
S28  37720280.099 1 198221402.797 3      -670.880          39.000  
E10  22946421.414 1 120584264.602 1      -239.169          47.000    22946427.821 1  92395765.622 1      -183.117          51.000  
E04  25288492.764 8               9      2194.145          32.000    25288515.398 2 101826372.956 8      1680.221          43.000  
E12  23115805.045 1 121474368.587 2     -1163.266          43.000    23115808.876 1  93077786.923 1      -891.312          48.000  
E33  25797048.961 8               9     -2567.302          33.000    25797058.183 2 103874061.047 8     -1966.670          41.000  
G22  23605315.637 9               9     -3840.745          23.000                                                                  
E25  24794698.362 1 130297012.744 2      -822.228          42.000    24794709.509 1  99838017.392 2      -629.843          47.000  
E29                                                                  26042539.051 1 104862512.491 2     -1637.011          44.000  
G25                                                                  23553307.498 9               9       549.865          18.000  
> 2025 04 25 07 00 19.9960000  0 44                     
S29  37244640.001 1 195721906.547 3      -668.055          42.000  
S37  36171951.243 1 190084883.537 3      -687.709          39.000  
G04  21954484.820 1 115371592.733 3     -2109.658          40.000    21954489.079 1  89899980.924 3     -1643.897          41.000  
G06  19688552.869 1 103464035.181 1      -733.508          48.000    19688556.782 1  80621351.506 1      -571.582          45.000  
G09  20423126.698 1 107324255.976 2      -231.791          43.000    20423130.745 1  83629309.025 2      -180.700          43.000  
G11  20623944.588 1 108379561.000 2       909.491          45.000    20623946.743 1  84451630.779 2       708.421          45.000  
C07  34780377.260 1 181110550.521 1     -1174.380          46.000    34780373.432 1 140046146.592 2      -908.050          48.000  
C08  35930462.618 1 187099349.838 3      -354.825          41.000    35930459.937 1 144677074.373 2      -274.426          48.000  
C10  35185794.725 1 183221667.241 1      -823.198          45.000    35185794.048 1 141678610.595 1      -636.689          48.000  
C27  21523971.796 1 112080961.949 2     -2349.042          47.000                                                                  
C30  20658381.119 1 107573617.376 1       263.629          50.000                                                                  
C13  37002876.538 1 192683689.667 3      -186.452          42.000    37002884.664 1 148995285.523 2      -143.531          46.000  
R02  18813646.921 1 100393248.199 1      1651.005          52.000    18813652.637 1  78083652.044 2      1284.243          45.000  
R16  22263070.361 9               9      -950.996          29.000    22263082.841 8               9      -741.895          23.000  
R15  22157586.395 9               9     -3530.902          25.000    22157595.065 9               9     -2745.186          22.000  
R01  19005409.949 1 101594804.323 1     -2584.028          48.000                                                                  
R24  19224330.717 1 102801136.294 1     -1861.222          51.000    19224333.175 1  79956451.486 2     -1447.640          46.000  
R17  19246953.070 1 102994337.695 2      1223.385          51.000    19246954.940 1  80106725.066 2       951.455          47.000  
G12  22079665.134 1 116029422.228 3      -623.375          42.000    22079670.413 1  90412558.858 3      -485.514          39.000  
G17  21123721.190 1 111005887.329 3     -3356.209          43.000    21123726.078 1  86498115.871 3     -2615.205          43.000  
G19  19047836.479 1 100097038.518 2     -2276.508          47.000                                                                  
G20  20969070.938 1 110193211.401 2      1588.335          44.000                                                                  
J02  36051526.140 1 189452045.303 3      -902.579          42.000    36051535.883 1 147625008.823 2      -703.861          44.000  
J04  36366816.101 1 191108909.313 2     -1053.480          43.000    36366819.426 1 148916064.649 2      -821.055          45.000  
C29  24012446.656 9               9      2047.560          27.000                                                                  
C32  20980935.342 1 109253239.234 1       257.497          50.000                                                                  
R18  22509761.555 8               9      2391.568          29.000    22509777.183 9               9      1857.210          18.000  
R03  22414192.336 9               9      3824.798          32.000    22414222.025 9               9      2967.725          29.000  
R08  23335218.465 9               9     -4999.314          20.000    23335242.555 8               9     -3882.008          27.000  
J07  36171955.107 1 190084905.918 5      -687.817          36.000    36171960.001 1 148118130.746 2      -535.991          46.000  
J03  37835793.922 1 198828438.632 1      -429.459          46.000    37835795.630 1 154931262.704 2      -334.609          45.000  
E11  24534960.669 1 128932094.787 3       648.046          40.000    24534966.041 1  98792155.480 2       496.679          46.000  
E16  24305576.046 1 127726646.027 2     -1995.725          43.000    24305586.184 1  97868511.002 1     -1529.574          49.000  
E19  23558424.439 1 123800356.489 3       115.437          38.000    23558431.996 1  94860041.612 2        88.848          45.000  
E24  24983871.325 1 131291109.342 2     -3008.500          43.000    24983882.908 1 100599741.707 1     -2305.572          49.000  
S28  37720407.716 1 198222073.379 4      -669.806          41.000  
E10  22946466.796 1 120584503.759 2      -239.008          47.000    22946473.307 1  92395948.879 1      -183.118          51.000  
E04  25288077.015 8 132889741.52317      2195.120          35.000    25288097.790 1 101824691.806 6      1681.805          43.000  
E12  23116026.429 1 121475532.065 2     -1163.458          43.000    23116030.136 1  93078678.420 1      -891.573          48.000  
E33  25797537.508 8               9     -2571.022          28.000    25797546.276 2               9     -1966.175          33.000  
G22  23606045.165 9               9     -3835.930          22.000                                                                  
E25  24794854.795 1 130297834.974 2      -822.200          42.000    24794865.983 1  99838647.448 2      -629.865          47.000  
E29                                                                  26042945.664 1 104864149.653 2     -1637.321          45.000  
G25                                                                  23553175.116 9               9       547.778          17.000  
> 2025 04 25 07 00 20.9960000  0 43                     
S29  37244766.966 1 195722574.207 3      -667.768          41.000  
S37  36172082.155 1 190085571.513 3      -687.605          39.000  
G04  21954886.352 1 115373702.822 3     -2110.238          40.000    21954890.522 1  89901625.130 3     -1644.294          41.000  
G06  19688692.468 1 103464769.092 1      -734.113          48.000    19688696.433 1  80621923.391 2      -572.064          45.000  
G09  20423170.938 1 107324488.223 2      -232.542          44.000    20423174.896 1  83629489.968 2      -180.909          43.000  
G11  20623771.561 1 108378651.859 2       908.704          45.000    20623773.764 1  84450922.351 2       708.240          45.000  
C07  34780602.777 1 181111725.138 2     -1174.620          46.000    34780599.065 1 140047054.885 2      -908.169          48.000  
C08  35930530.697 1 187099704.704 3      -354.937          41.000    35930528.043 1 144677348.783 2      -274.554          47.000  
C10  35185952.760 1 183222490.597 1      -823.253          45.000    35185952.114 1 141679247.291 2      -636.924          48.000  
C27  21524422.880 1 112083310.987 3     -2349.027          46.000                                                                  
C30  20658330.685 1 107573354.077 2       263.238          51.000                                                                  
C13  37002912.368 1 192683875.885 2      -185.959          42.000    37002920.416 1 148995429.536 2      -144.243          47.000  
R02  18813337.553 1 100391597.169 1      1650.767          52.000    18813343.196 1  78082367.893 2      1284.274          46.000  
R16  22263250.066 9               9      -959.003          25.000    22263262.315 9               9      -738.452          29.000  
R15  22158246.455 9               9     -3530.571          25.000    22158255.330 9               9     -2746.214          23.000  
R01  19005893.473 1 101597388.832 2     -2584.608          48.000                                                                  
R24  19224678.894 1 102802997.533 2     -1861.314          51.000    19224681.230 1  79957899.094 2     -1447.583          46.000  
R17  19246724.604 1 102993114.795 2      1222.612          51.000    19246726.447 1  80105773.915 2       951.267          46.000  
G12  22079783.727 1 116030045.701 4      -624.857          42.000    22079788.997 1  90413044.667 4      -487.034          39.000  
G17  21124359.929 1 111009243.299 3     -3355.440          44.000    21124364.757 1  86500730.935 3     -2615.509          43.000  
G19  19048269.782 1 100099315.245 2     -2276.843          47.000                                                                  
G20  20968768.812 1 110191624.041 3      1587.250          44.000                                                                  
J02  36051697.944 1 189452948.402 3      -902.348          42.000    36051707.724 1 147625712.499 2      -703.903          45.000  
J04  36367016.692 1 191109962.969 2     -1053.762          43.000    36367019.890 1 148916885.648 2      -820.999          45.000  
C29  24012054.564 8 125037068.98638      2040.724          27.000                                                                  
C32  20980886.006 1 109252981.810 1       257.244          50.000                                                                  
R18  22509325.221 9               9      2389.344          27.000    22509333.388 9               9      1851.153          19.000  
R03  22413475.771 9               9      3828.373          32.000                                                                  
R08  23336152.211 9 124964035.27738     -4992.675          37.000    23336173.651 8               9     -3883.395          27.000  
J07  36172085.935 1 190085593.889 4      -687.637          36.000    36172090.949 1 148118666.831 2      -535.793          46.000  
J03  37835875.588 1 198828868.093 2      -429.675          47.000    37835877.354 1 154931597.349 2      -334.780          45.000  
E11  24534837.281 1 128931446.959 3       647.840          41.000    24534842.767 1  98791659.077 2       496.651          46.000  
E16  24305955.876 1 127728642.097 2     -1996.103          44.000    24305965.929 1  97870040.432 2     -1529.535          49.000  
E19  23558402.468 1 123800241.117 3       115.920          38.000    23558409.903 1  94859953.240 3        87.823          44.000  
E24  24984443.736 1 131294117.976 2     -3008.307          44.000    24984455.390 1 100602047.002 2     -2305.113          49.000  
S28  37720535.209 1 198222743.327 3      -670.276          39.000  
E10  22946512.241 1 120584743.008 2      -239.223          47.000    22946518.756 1  92396132.200 2      -183.377          51.000  
E04  25287661.144 8 132887547.493 8      2197.031          31.000    25287680.152 1 101823010.713 6      1683.024          43.000  
E12  23116247.743 1 121476695.833 2     -1164.211          43.000    23116251.620 1  93079570.125 1      -891.697          48.000  
E25  24795011.315 1 130298657.340 3      -822.850          42.000    24795022.522 1  99839277.563 2      -630.317          47.000  
E29                                                                  26043352.382 1 104865787.530 2     -1638.125          44.000  
E33                                                                  25798035.816 2 103877999.93717     -1966.542          43.000  
G25                                                                  23553041.454 9               9       555.881          18.000  
> 2025 04 25 07 00 21.9960000  0 43                     
S29  37244894.016 1 195723241.786 3      -667.479          42.000  
S37  36172213.096 1 190086259.370 3      -688.076          39.000  
G04  21955288.139 1 115375813.433 3     -2111.302          40.000    21955292.135 1  89903269.770 2     -1645.202          41.000  
G06  19688832.231 1 103465503.262 1      -734.564          48.000    19688836.224 1  80622495.474 2      -572.247          45.000  
G09  20423215.229 1 107324720.989 2      -233.442          44.000    20423219.188 1  83629671.371 3      -181.958          43.000  
G11  20623598.605 1 108377742.967 2       908.958          45.000    20623600.740 1  84450214.122 2       708.315          45.000  
C07  34780828.386 1 181112899.846 2     -1175.031          46.000    34780824.624 1 140047963.253 1      -908.510          48.000  
C08  35930598.973 1 187100059.676 2      -355.005          42.000    35930596.188 1 144677623.267 2      -274.518          47.000  
C10  35186110.895 1 183223314.080 2      -823.694          45.000    35186110.231 1 141679884.031 2      -636.779          48.000  
C27  21524873.933 1 112085660.156 3     -2349.434          46.000                                                                  
C30  20658280.132 1 107573091.104 1       262.659          51.000                                                                  
C13  37002948.099 1 192684062.196 2      -186.703          42.000    37002956.204 1 148995573.607 2      -144.503          47.000  
R02  18813028.245 1 100389946.783 2      1650.115          52.000    18813033.918 1  78081084.260 2      1283.783          49.000  
R16  22263428.420 9               9      -926.305          24.000    22263440.568 9               9      -748.159          22.000  
R15  22158902.224 9               9     -3533.925          27.000    22158915.801 9               9     -2749.680          24.000  
R01  19006377.085 1 101599974.164 2     -2586.045          48.000                                                                  
R24  19225026.931 1 102804859.026 2     -1861.577          51.000    19225029.327 1  79959346.926 2     -1447.889          49.000  
R17  19246496.184 1 102991892.227 2      1222.240          51.000    19246497.946 1  80104823.025 2       950.929          50.000  
G12  22079902.550 1 116030669.793 5      -623.227          39.000    22079907.777 1  90413531.045 5      -486.327          37.000  
G17  21124998.584 1 111012599.422 3     -3356.378          44.000    21125003.356 1  86503346.052 3     -2614.424          42.000  
G19  19048703.099 1 100101592.434 2     -2277.681          47.000                                                                  
G20  20968466.744 1 110190036.897 2      1586.999          44.000                                                                  
J02  36051869.843 1 189453851.370 3      -902.639          42.000    36051879.497 1 147626416.118 2      -703.726          45.000  
J04  36367217.255 1 191111016.488 2     -1053.457          43.000    36367220.302 1 148917706.600 2      -821.273          45.000  
C29  24011662.113 9               9      2065.844          24.000                                                                  
C32  20980836.721 1 109252724.848 1       256.665          50.000                                                                  
R18  22508879.485 9               9      2397.506          23.000    22508886.635 9               9      1871.163          18.000  
R03  22412757.729 9               9      3831.890          32.000    22412791.282 8               9      2980.644          34.000  
R08  23337086.970 8 124969028.11927     -4993.512          34.000                                                                  
J07  36172216.817 1 190086281.735 4      -688.160          36.000    36172221.852 1 148119202.841 2      -536.097          46.000  
J03  37835957.224 1 198829297.403 2      -429.375          47.000    37835959.076 1 154931931.876 2      -334.561          45.000  
E11  24534713.972 1 128930799.282 3       647.547          41.000    24534719.631 1  98791162.824 2       496.175          46.000  
E16  24306335.890 1 127730638.601 2     -1997.028          43.000    24306345.937 1  97871570.221 2     -1530.084          49.000  
E19  23558380.835 1 123800126.124 3       114.738          38.000    23558388.063 1  94859865.108 2        88.124          45.000  
E24  24985016.384 1 131297126.789 2     -3009.104          44.000    24985028.101 1 100604352.458 2     -2305.825          49.000  
S28  37720662.708 1 198223413.163 3      -669.879          40.000  
E10  22946557.840 1 120584982.413 2      -239.323          47.000    22946564.414 1  92396315.651 1      -183.489          51.000  
E04  25287243.860 4               9      2194.964          37.000    25287262.460 1 101821329.216 7      1681.908          42.000  
E12  23116469.039 1 121477859.681 2     -1163.851          43.000    23116473.073 1  93080461.926 1      -891.955          48.000  
E33  25798512.532 8 135572097.57817     -2566.749          30.000    25798523.844 2 103879967.263 7     -1967.892          42.000  
E25  24795167.967 1 130299480.244 4      -822.596          42.000    24795179.103 1  99839908.086 3      -630.263          47.000  
E29                                                                  26043759.248 1 104867425.671 2     -1638.064          45.000  
G25                                                                  23552908.309 9               9       544.708          18.000  
> 2025 04 25 07 00 22.9960000  0 44                     
S29  37245021.041 1 195723909.351 3      -667.278          42.000  
S37  36172343.936 1 190086947.250 3      -687.895          39.000  
G04  21955689.803 1 115377924.424 3     -2110.531          40.000    21955693.811 1  89904914.735 2     -1644.989          42.000  
G06  19688971.933 1 103466237.409 1      -733.679          48.000    19688975.943 1  80623067.526 2      -571.649          46.000  
G09  20423259.575 1 107324954.341 2      -232.999          44.000    20423263.590 1  83629853.226 2      -181.932          44.000  
G11  20623425.584 1 108376833.976 2       909.574          45.000    20623427.800 1  84449505.828 2       708.509          45.000  
C07  34781054.015 1 181114074.549 2     -1174.228          46.000    34781050.175 1 140048871.616 2      -908.049          48.000  
C08  35930667.002 1 187100414.615 2      -353.978          41.000    35930664.376 1 144677897.738 2      -273.691          47.000  
C10  35186269.092 1 183224137.482 2      -823.098          45.000    35186268.303 1 141680520.742 2      -636.503          48.000  
C27  21525325.168 1 112088009.586 3     -2349.292          46.000                                                                  
C30  20658229.713 1 107572828.168 1       263.377          51.000                                                                  
C13  37002983.804 1 192684248.478 4      -186.037          42.000    37002991.933 1 148995717.641 2      -143.689          47.000  
R02  18812719.041 1 100388297.126 2      1649.550          52.000    18812724.800 1  78079801.224 2      1283.342          49.000  
R16  22263607.949 9               9      -960.210          21.000    22263620.392 9               9      -735.482          21.000  
R15  22159559.824 9               9     -3534.074          27.000    22159576.237 9  92099821.79238     -2751.177          30.000  
R01  19006860.835 1 101602560.087 2     -2585.798          48.000    19006959.838 9               9     -1944.182          12.000  
R24  19225375.123 1 102806720.766 2     -1861.307          51.000    19225377.470 1  79960794.967 2     -1448.016          48.000  
R17  19246267.625 1 102990669.493 2      1223.386          51.000    19246269.427 1  80103872.038 2       951.524          50.000  
G12  22080021.438 1 116031294.366 5      -623.670          39.000    22080026.609 1  90414017.678 4      -485.530          38.000  
G17  21125637.384 1 111015955.983 3     -3356.925          44.000    21125642.164 1  86505961.580 3     -2615.882          43.000  
G19  19049136.471 1 100103870.142 2     -2277.826          47.000                                                                  
G20  20968164.775 1 110188449.947 3      1587.594          44.000                                                                  
J02  36052041.777 1 189454754.508 3      -903.214          42.000    36052051.461 1 147627119.811 3      -703.750          46.000  
J04  36367417.751 1 191112070.093 2     -1053.370          43.000    36367420.709 1 148918527.590 2      -820.818          46.000  
C29  24011267.838 9               9      2065.844          20.000                                                                  
C32  20980787.410 1 109252468.363 1       256.666          49.000                                                                  
R18  22508432.210 9               9      2428.756          19.000    22508444.305 9               9      1866.026          19.000  
R03  22412043.880 9               9      3832.451          32.000    22412076.877 9               9      2973.235          31.000  
R08  23338016.767 9 124974019.11737     -4993.607          31.000    23338035.332 9  97202092.44438     -3882.253          32.000  
J07  36172347.656 1 190086969.614 4      -687.824          36.000    36172352.700 1 148119738.815 2      -535.870          47.000  
J03  37836038.895 1 198829726.503 1      -428.593          47.000    37836040.607 1 154932266.246 2      -333.886          45.000  
E11  24534590.695 1 128930151.364 3       648.412          41.000    24534596.144 1  98790666.371 2       496.777          46.000  
E16  24306715.876 1 127732635.250 2     -1996.079          43.000    24306725.909 1  97873100.109 2     -1529.031          49.000  
E19  23558359.030 1 123800011.500 3       114.718          39.000    23558366.319 1  94859777.267 2        87.921          46.000  
E24  24985588.957 1 131300135.750 2     -3008.905          43.000    24985600.525 1 100606658.019 2     -2305.551          49.000  
S28  37720790.226 1 198224082.930 4      -669.653          38.000  
E10  22946603.522 1 120585221.635 2      -238.523          47.000    22946609.851 1  92396498.947 1      -182.791          51.000  
E04  25286825.004 8 132883162.07518      2193.598          35.000    25286844.766 2               9      1680.339          42.000  
E12  23116690.578 1 121479023.405 2     -1163.299          43.000    23116694.564 1  93081353.599 1      -891.207          48.000  
E33  25799002.168 8               9     -2568.527          31.000    25799012.726 2 103881934.787 8     -1969.327          40.000  
G22  23608234.600 9               9     -3838.332          23.000                                                                  
E25  24795324.596 1 130300303.292 4      -822.047          41.000    24795335.688 1  99840538.742 3      -629.882          46.000  
E29                                                                  26044166.053 1 104869063.973 2     -1638.076          46.000  
G25                                                                  23552771.522 9               9       548.466          21.000  
> 2025 04 25 07 00 23.9960000  0 44                     
S29  37245147.987 1 195724576.827 2      -667.816          42.000  
S37  36172474.746 1 190087635.181 3      -688.153          39.000  
G04  21956091.703 1 115380036.100 3     -2112.505          40.000    21956095.646 1  89906560.152 3     -1646.112          43.000  
G06  19689111.604 1 103466971.733 1      -734.967          48.000    19689115.662 1  80623639.727 2      -572.650          47.000  
G09  20423304.095 1 107325188.537 2      -235.007          44.000    20423308.212 1  83630035.684 3      -182.759          46.000  
G11  20623252.646 1 108375924.982 2       908.258          45.000    20623254.789 1  84448797.513 3       707.777          47.000  
C07  34781279.599 1 181115249.376 1     -1175.398          46.000    34781275.797 1 140049780.054 1      -909.144          49.000  
C08  35930735.122 1 187100769.611 2      -355.315          42.000    35930732.536 1 144678172.244 2      -274.885          49.000  
C10  35186427.230 1 183224960.942 2      -824.084          45.000    35186426.459 1 141681157.484 2      -637.209          49.000  
C27  21525776.425 1 112090359.463 2     -2350.882          46.000                                                                  
C30  20658179.183 1 107572565.450 1       261.952          50.000                                                                  
C13  37003019.574 1 192684434.813 3      -186.926          42.000    37003027.678 1 148995861.730 2      -144.717          48.000  
R02  18812410.093 1 100386648.364 2      1647.871          52.000    18812415.793 1  78078518.866 2      1281.641          51.000  
R16  22263791.669 9               9      -966.086          21.000    22263801.487 9               9      -716.017          22.000  
R15  22160215.842 9               9     -3537.612          28.000    22160239.294 9  92102577.39738     -2750.447          25.000  
R01  19007344.642 1 101605146.878 2     -2587.875          48.000    19007423.702 9               9     -1944.182          12.000  
R24  19225723.420 1 102808583.066 2     -1863.402          51.000    19225725.685 1  79962243.391 2     -1448.778          50.000  
R17  19246039.111 1 102989446.831 3      1222.160          51.000    19246041.010 1  80102921.066 2       950.821          50.000  
G12  22080140.333 1 116031919.227 5      -625.430          42.000    22080145.450 1  90414504.552 5      -487.226          42.000  
G17  21126276.165 1 111019313.003 3     -3357.652          43.000    21126280.960 1  86508577.411 3     -2615.650          44.000  
G19  19049570.012 1 100106148.555 2     -2279.402          46.000                                                                  
G20  20967862.898 1 110186863.264 3      1586.154          44.000                                                                  
J02  36052213.649 1 189455657.808 3      -903.970          42.000    36052223.408 1 147627823.701 2      -704.464          48.000  
J04  36367618.330 1 191113123.901 2     -1054.447          43.000    36367621.304 1 148919348.725 2      -821.514          47.000  
C29  24010872.037 9               9      2097.094          13.000                                                                  
C32  20980738.297 1 109252212.533 1       254.908          49.000                                                                  
R18  22507983.752 9               9      2392.240          15.000    22507995.466 9               9      1915.881          19.000  
R03  22411327.847 9               9      3831.396          38.000    22411359.733 8  93309815.63537      2977.554          40.000  
R08  23338947.056 9               9     -4991.001          26.000    23338966.686 8  97205975.59928     -3882.808          37.000  
J07  36172478.631 1 190087657.546 4      -688.166          36.000    36172483.616 1 148120274.902 2      -536.661          49.000  
J03  37836120.523 1 198830155.598 1      -429.864          46.000    37836122.308 1 154932600.575 2      -334.475          48.000  
E11  24534467.570 1 128929503.310 3       647.485          41.000    24534472.937 1  98790169.813 2       495.984          47.000  
E16  24307095.657 1 127734632.181 2     -1997.228          43.000    24307105.843 1  97874630.196 2     -1530.461          50.000  
E19  23558337.246 1 123799897.459 3       113.027          39.000    23558344.599 1  94859689.885 2        86.757          46.000  
E24  24986161.517 1 131303144.885 2     -3009.450          43.000    24986173.221 1 100608963.695 1     -2305.851          50.000  
S28  37720917.669 1 198224752.548 3      -670.093          39.000  
E10  22946649.100 1 120585460.856 2      -239.959          46.000    22946655.418 1  92396682.233 2      -183.768          52.000  
E04  25286408.593 8               9      2189.025          35.000    25286427.438 2 101817967.320 8      1676.865          45.000  
E12  23116912.095 1 121480187.209 2     -1164.278          43.000    23116916.052 1  93082245.351 1      -892.323          49.000  
E33  25799489.543 8               9     -2569.744          37.000    25799500.782 4 103883898.21316     -1968.722          43.000  
G22  23608963.775 9               7     -3832.251          26.000                                                                  
E25  24795481.088 1 130301126.558 4      -824.089          41.000    24795492.240 1  99841169.563 3      -631.368          47.000  
E29                                                                  26044573.132 1 104870702.544 2     -1639.169          45.000  
G25                                                                  23552633.247 9               9       546.222          23.000  
> 2025 04 25 07 00 24.9960000  0 44                     
S29  37245274.948 1 195725244.196 2      -667.155          42.000  
S37  36172605.583 1 190088322.885 3      -687.016          39.000  
G04  21956493.649 1 115382148.599 3     -2112.565          40.000    21956497.688 1  89908206.246 3     -1646.271          44.000  
G06  19689251.480 1 103467706.609 1      -734.674          48.000    19689255.449 1  80624212.348 2      -572.034          45.000  
G09  20423348.799 1 107325423.349 2      -234.815          45.000    20423352.814 1  83630218.653 2      -183.047          45.000  
G11  20623079.654 1 108375016.485 2       909.417          45.000    20623081.935 1  84448089.636 2       708.332          46.000  
C07  34781505.186 1 181116424.302 1     -1174.198          46.000    34781501.431 1 140050688.609 1      -908.524          47.000  
C08  35930803.382 1 187101124.784 3      -354.457          42.000    35930800.685 1 144678446.885 2      -274.307          47.000  
C10  35186585.493 1 183225784.632 2      -823.018          44.000    35186584.668 1 141681794.426 2      -636.614          48.000  
C27  21526227.782 1 112092709.488 2     -2349.753          47.000                                                                  
C30  20658128.891 1 107572303.283 1       262.436          51.000                                                                  
C13  37003055.514 1 192684621.230 3      -185.937          42.000    37003063.432 1 148996005.873 2      -143.968          46.000  
R02  18812101.305 1 100385000.170 2      1648.713          52.000    18812106.893 1  78077236.932 2      1282.267          48.000  
R16  22263977.448 9               9      -948.490          21.000    22263982.792 9               9      -750.289          20.000  
R15  22160876.163 9               9     -3534.417          28.000    22160900.177 9               9     -2756.004          26.000  
R01  19007828.785 1 101607734.676 2     -2587.616          48.000                                                                  
R24  19226071.719 1 102810445.803 2     -1862.624          51.000    19226074.137 1  79963692.200 2     -1448.705          48.000  
R17  19245810.818 1 102988224.850 2      1222.014          52.000    19245812.596 1  80101970.626 2       950.606          48.000  
G12  22080259.354 1 116032545.113 5      -623.245          39.000    22080264.547 1  90414992.304 5      -487.231          37.000  
G17  21126914.967 1 111022670.076 4     -3356.724          40.000    21126919.735 1  86511193.349 3     -2616.087          40.000  
G19  19050003.632 1 100108427.403 2     -2278.416          47.000                                                                  
G20  20967561.018 1 110185276.924 2      1586.522          44.000                                                                  
J02  36052385.478 1 189456560.810 3      -902.497          42.000    36052395.281 1 147628527.333 2      -703.305          46.000  
J04  36367818.779 1 191114177.544 2     -1053.240          43.000    36367821.804 1 148920169.751 2      -820.363          46.000  
C29  24010484.348 9               9      2041.801          28.000                                                                  
C32  20980689.317 1 109251957.173 1       255.721          50.000                                                                  
R18  22507535.413 9               9      2419.469          18.000    22507545.551 9               9      1880.902          19.000  
R03  22410611.999 9               9      3830.698          37.000    22410645.966 9  93306843.55438      2979.306          35.000  
R08  23339880.981 9               9     -4992.334          31.000    23339898.304 9               9     -3884.064          33.000  
J07  36172609.491 1 190088345.260 4      -687.170          37.000    36172614.467 1 148120810.774 2      -535.465          47.000  
J03  37836202.174 1 198830584.666 1      -428.333          46.000    37836203.989 1 154932934.952 2      -334.005          47.000  
E11  24534344.233 1 128928855.671 3       647.727          41.000    24534349.757 1  98789673.574 2       496.671          46.000  
E16  24307475.603 1 127736629.625 3     -1997.594          43.000    24307485.880 1  97876160.732 2     -1530.594          49.000  
E19  23558315.463 1 123799783.828 3       113.362          38.000    23558323.021 1  94859602.817 2        86.977          45.000  
E24  24986734.360 1 131306154.151 2     -3009.193          44.000    24986745.926 1 100611269.490 2     -2305.332          49.000  
S28  37721045.018 1 198225422.072 3      -669.043          40.000  
E10  22946694.554 1 120585700.486 2      -239.702          47.000    22946700.979 1  92396865.853 1      -183.459          51.000  
E04  25285992.897 9               7      2195.624          25.000    25286010.151 8               9      1683.304          37.000  
E12  23117133.595 1 121481351.379 2     -1163.734          43.000    23117137.548 1  93083137.373 1      -891.719          47.000  
E33  25799983.212 8               9     -2567.461          23.000    25799990.170 4               9     -1964.343          28.000  
G22  23609692.522 9               9     -3826.583          23.000                                                                  
E25  24795638.312 1 130301950.624 4      -823.040          43.000    24795649.112 1  99841801.017 3      -632.047          47.000  
E29                                                                  26044980.239 1 104872341.684 3     -1639.357          44.000  
G25                                                                  23552498.018 9               9       528.474          20.000  
> 2025 04 25 07 00 25.9960000  0 44                     
S29  37245401.921 1 195725911.201 3      -666.823          42.000  
S37  36172736.328 1 190089010.273 3      -687.370          39.000  
G04  21956895.668 1 115384261.700 3     -2113.649          40.000    21956899.772 1  89909852.819 2     -1646.432          41.000  
G06  19689391.404 1 103468441.482 1      -734.814          48.000    19689395.294 1  80624785.013 2      -572.919          45.000  
G09  20423393.636 1 107325658.673 2      -235.121          43.000    20423397.552 1  83630402.052 2      -183.355          44.000  
G11  20622906.806 1 108374107.950 2       908.552          45.000    20622908.998 1  84447381.661 2       707.999          45.000  
C07  34781730.743 1 181117599.014 1     -1174.635          46.000    34781727.010 1 140051596.930 2      -907.983          48.000  
C08  35930871.611 1 187101479.690 3      -355.119          41.000    35930868.912 1 144678721.313 2      -274.463          47.000  
C10  35186743.664 1 183226608.076 2      -823.263          45.000    35186742.873 1 141682431.159 2      -636.794          47.000  
C27  21526679.127 1 112095059.648 2     -2350.104          46.000                                                                  
C30  20658078.417 1 107572041.143 1       262.196          50.000                                                                  
C13  37003091.275 1 192684807.377 3      -186.070          42.000    37003099.202 1 148996149.841 1      -144.023          46.000  
R02  18811792.492 1 100383352.459 2      1647.425          52.000    18811798.105 1  78075955.362 2      1281.757          47.000  
R16  22264158.323 9               9      -972.000          30.000    22264163.608 9               9      -748.114          20.000  
R15  22161537.393 9               9     -3531.625          28.000    22161562.499 9               9     -2749.650          32.000  
R01  19008313.066 1 101610323.189 2     -2588.627          48.000                                                                  
R24  19226420.164 1 102812308.824 2     -1862.822          51.000    19226422.538 1  79965141.209 2     -1448.729          48.000  
R17  19245582.364 1 102987002.869 2      1221.847          51.000    19245584.169 1  80101020.192 2       950.665          48.000  
G12  22080379.671 4 116033177.45537      -626.855          36.000    22080383.686 2  90415480.309 7      -489.187          32.000  
G17  21127553.873 1 111026027.324 3     -3357.747          43.000    21127558.697 1  86513809.346 3     -2616.091          43.000  
G19  19050437.328 1 100110706.552 1     -2279.078          46.000                                                                  
G20  20967259.114 1 110183690.543 3      1586.398          44.000                                                                  
J02  36052557.249 1 189457463.584 3      -902.640          41.000    36052567.092 1 147629230.787 2      -703.442          45.000  
J04  36368019.119 1 191115230.949 2     -1053.014          43.000    36368022.258 1 148920990.606 2      -820.771          46.000  
C29  24010094.168 8 125026860.75635      2043.369          40.000                                                                  
C32  20980640.223 1 109251702.051 1       255.033          50.000                                                                  
R18  22507090.367 9               9      2374.558          18.000    22507095.700 9               9      1866.615          19.000  
R03  22409893.958 9 119961916.40337      3831.585          35.000    22409927.777 8               9      2978.872          35.000  
R08  23340813.321 9               9     -4993.079          26.000    23340828.653 9               9     -3884.721          29.000  
J07  36172740.327 1 190089032.647 4      -687.523          37.000    36172745.290 1 148121346.390 2      -535.602          46.000  
J03  37836283.852 1 198831013.400 1      -428.338          46.000    37836285.493 1 154933269.035 2      -334.084          45.000  
E11  24534220.954 1 128928207.848 3       648.131          41.000    24534226.372 1  98789177.183 2       496.724          46.000  
E16  24307855.851 1 127738627.097 3     -1997.751          43.000    24307865.949 1  97877691.262 2     -1530.988          49.000  
E19  23558294.032 1 123799670.580 3       113.464          38.000    23558301.486 1  94859516.066 2        86.816          45.000  
E24  24987306.993 1 131309163.293 2     -3009.105          44.000    24987318.684 1 100613575.187 2     -2305.600          50.000  
S28  37721172.330 1 198226091.219 4      -668.811          40.000  
E10  22946740.182 1 120585939.977 1      -239.137          47.000    22946746.636 1  92397049.368 1      -183.453          51.000  
E04  25285573.521 8 132876594.65117      2194.911          40.000    25285592.118 4 101814600.62817      1681.284          47.000  
E12  23117355.097 1 121482515.450 2     -1163.685          43.000    23117359.145 1  93084029.327 1      -891.724          48.000  
G22  23610420.942 9               9     -3833.591          23.000                                                                  
E25  24795794.998 1 130302774.881 3      -823.991          42.000    24795805.992 1  99842432.566 3      -631.531          47.000  
E29                                                                  26045387.542 1 104873981.212 2     -1639.368          45.000  
E33                                                                  25800478.023 4               9     -1967.054          42.000  
G25                                                                  23552368.882 9               9       528.474          15.000  
> 2025 04 25 07 00 26.9960000  0 44                     
S29  37245528.761 1 195726578.369 2      -667.767          42.000  
S37  36172867.115 1 190089697.654 3      -687.899          39.000  
G04  21957297.861 1 115386375.046 3     -2113.559          40.000    21957301.757 1  89911499.596 3     -1647.373          41.000  
G06  19689531.221 1 103469176.429 1      -735.211          48.000    19689535.070 1  80625357.671 2      -572.675          45.000  
G09  20423438.509 1 107325894.461 2      -236.164          44.000    20423442.489 1  83630585.785 2      -184.333          44.000  
G11  20622734.031 1 108373199.538 2       907.844          45.000    20622736.227 1  84446673.784 2       707.721          45.000  
C07  34781956.343 1 181118773.829 1     -1175.046          46.000    34781952.718 1 140052505.393 1      -908.699          48.000  
C08  35930939.655 1 187101834.764 2      -355.240          41.000    35930937.200 1 144678995.886 2      -274.886          47.000  
C10  35186901.844 1 183227431.674 2      -823.815          45.000    35186900.961 1 141683068.018 2      -637.167          47.000  
C27  21527130.488 1 112097409.919 2     -2350.860          46.000                                                                  
C30  20658028.188 1 107571779.173 1       261.774          51.000                                                                  
C13  37003127.084 1 192684993.740 2      -186.582          42.000    37003134.911 1 148996293.955 2      -144.713          47.000  
R02  18811483.799 1 100381705.455 1      1646.350          52.000    18811489.527 1  78074674.387 2      1280.335          47.000  
R16  22264336.805 9               7      -958.325          30.000                                                                  
R15  22162198.333 9               9     -3533.610          41.000    22162221.938 9  92110817.39838     -2750.038          40.000  
R01  19008797.360 1 101612912.229 2     -2589.629          49.000                                                                  
R24  19226768.509 1 102814171.940 2     -1863.432          51.000    19226770.915 1  79966590.318 2     -1449.514          47.000  
R17  19245353.925 1 102985780.976 2      1221.671          51.000    19245355.953 1  80100069.855 2       950.329          47.000  
G12  22080500.328 4 116033804.40925      -627.683          38.000    22080502.932 2  90415968.820 6      -488.433          36.000  
G17  21128192.789 1 111029384.780 3     -3358.070          44.000    21128197.610 1  86516425.536 3     -2616.543          42.000  
G19  19050871.221 1 100112986.201 1     -2280.221          47.000                                                                  
G20  20966957.318 1 110182104.623 2      1585.133          44.000                                                                  
J02  36052729.063 1 189458366.481 3      -903.781          42.000    36052738.889 1 147629934.324 2      -703.418          45.000  
J04  36368219.564 1 191116284.378 2     -1053.780          43.000    36368222.840 1 148921811.449 2      -821.250          46.000  
C29  24009700.763 4 125024818.82518      2039.614          36.000                                                                  
C32  20980591.290 1 109251447.412 1       254.191          50.000                                                                  
R18  22506644.983 9               9      2381.090          20.000    22506645.739 9               9      1901.663          19.000  
R03  22409176.109 9               9      3826.522          34.000    22409209.895 8               9      2978.880          32.000  
R08  23341745.748 9               9     -4989.918          27.000    23341757.544 9               9     -3883.116          29.000  
J07  36172871.195 1 190089719.989 4      -687.245          36.000    36172876.079 1 148121882.003 1      -535.642          46.000  
J03  37836365.345 1 198831441.917 1      -428.735          46.000    37836366.954 1 154933602.926 2      -334.051          45.000  
E11  24534097.472 1 128927560.069 3       647.797          41.000    24534103.139 1  98788680.838 2       496.251          46.000  
E16  24308236.147 1 127740625.053 2     -1998.379          43.000    24308246.143 1  97879222.155 2     -1531.290          49.000  
E19  23558272.623 1 123799557.526 3       112.955          38.000    23558280.025 1  94859429.449 2        86.630          45.000  
E24  24987879.600 1 131312172.779 2     -3009.851          44.000    24987891.372 1 100615881.151 1     -2306.271          50.000  
S28  37721299.691 1 198226760.500 3      -669.971          40.000  
E10  22946785.671 1 120586179.454 1      -239.567          47.000    22946792.228 1  92397232.849 1      -183.473          51.000  
E04  25285157.188 8               9      2193.575          38.000    25285175.033 2 101812919.355 7      1681.539          46.000  
E12  23117576.761 1 121483679.427 2     -1164.185          43.000    23117580.653 1  93084921.196 1      -891.943          48.000  
G22  23611151.033 9               9     -3839.342          22.000                                                                  
E25  24795951.979 1 130303599.625 3      -825.096          42.000    24795962.983 1  99843064.504 2      -632.363          47.000  
E29                                                                  26045794.566 1 104875620.786 2     -1639.340          45.000  
E33                                                                  25800966.282 4               9     -1965.982          34.000  
G25                                                                  23552240.812 9               9       528.474          11.000  
> 2025 04 25 07 00 27.9960000  0 42                     
S29  37245655.846 1 195727245.962 2      -666.609          42.000  
S37  36172997.933 1 190090385.298 3      -686.461          39.000  
G04  21957700.166 1 115388489.074 3     -2114.023          40.000    21957704.032 1  89913146.926 3     -1647.704          39.000  
G06  19689671.152 1 103469911.985 1      -735.638          48.000    19689675.056 1  80625930.853 2      -573.315          43.000  
G09  20423483.603 1 107326130.972 2      -236.357          43.000    20423487.409 1  83630770.077 2      -184.581          42.000  
G11  20622561.320 1 108372291.860 2       907.451          45.000    20622563.563 1  84445966.525 2       707.067          43.000  
C07  34782182.015 1 181119949.185 2     -1174.674          46.000    34782178.438 1 140053414.261 2      -908.537          46.000  
C08  35931008.031 1 187102190.487 3      -355.638          41.000    35931005.481 1 144679270.953 2      -274.996          45.000  
C10  35187060.093 1 183228255.837 2      -823.679          45.000    35187059.237 1 141683705.320 2      -637.212          46.000  
C27  21527582.038 1 112099760.555 2     -2350.073          46.000                                                                  
C30  20657977.869 1 107571517.949 1       261.137          50.000                                                                  
C13  37003163.033 1 192685180.763 3      -187.030          42.000    37003170.781 1 148996438.552 2      -144.463          44.000  
R02  18811175.335 1 100380059.497 2      1646.330          52.000    18811181.092 1  78073394.199 2      1280.537          45.000  
R16  22264515.680 9               9      -965.426          34.000                                                                  
R15  22162855.925 8 118431605.01437     -3536.120          40.000    22162878.262 8  92113568.29827     -2749.907          32.000  
R01  19009281.952 1 101615502.322 2     -2590.461          48.000                                                                  
R24  19227116.981 1 102816035.570 2     -1863.390          51.000    19227119.433 1  79968039.777 2     -1449.216          45.000  
R17  19245125.724 1 102984559.831 2      1220.564          51.000    19245127.706 1  80099120.062 2       949.646          45.000  
G12  22080616.874 4 116034432.55724      -628.940          41.000    22080622.526 1  90416458.340 4      -490.151          39.000  
G17  21128831.748 1 111032742.671 3     -3357.325          43.000    21128836.655 1  86519042.046 3     -2616.255          42.000  
G19  19051305.223 1 100115266.665 2     -2280.000          47.000                                                                  
G20  20966655.613 1 110180519.536 3      1585.392          44.000                                                                  
J02  36052900.935 1 189459269.654 3      -902.407          42.000    36052910.759 1 147630638.092 2      -702.770          43.000  
J04  36368420.083 1 191117338.033 3     -1052.733          43.000    36368423.347 1 148922632.489 2      -820.260          44.000  
C29  24009309.635 8               7      2042.664          32.000                                                                  
C32  20980542.447 1 109251193.603 2       254.187          50.000                                                                  
R18  22506201.792 9               9      2376.861          22.000    22506197.517 9               9      1862.000          18.000  
R03  22408458.092 8               9      3827.793          36.000    22408494.949 8  93297884.82637      2979.082          33.000  
R08  23342676.065 9               9     -4993.688          28.000    23342688.684 9               9     -3884.169          27.000  
J07  36173002.104 1 190090407.656 4      -686.251          36.000    36173007.019 1 148122417.859 2      -535.500          44.000  
J03  37836446.871 1 198831870.643 2      -428.313          46.000    37836448.670 1 154933937.002 2      -333.954          44.000  
E11  24533974.430 1 128926912.965 3       646.745          41.000    24533980.005 1  98788185.007 2       495.634          46.000  
E16  24308616.821 1 127742623.978 3     -1998.668          44.000    24308626.629 1  97880753.796 2     -1531.350          48.000  
E19  23558251.266 1 123799445.024 3       112.655          39.000    23558258.534 1  94859343.236 2        86.193          45.000  
E24  24988452.432 1 131315182.926 3     -3009.331          44.000    24988464.104 1 100618187.645 2     -2306.292          49.000  
S28  37721427.119 1 198227430.338 4      -669.904          39.000  
E10  22946831.398 1 120586419.508 2      -240.058          47.000    22946837.954 1  92397416.799 1      -184.058          50.000  
E04  25284738.582 4               9      2194.041          35.000    25284757.196 2 101811238.322 8      1682.465          42.000  
E12  23117798.255 1 121484843.814 2     -1164.247          43.000    23117802.258 1  93085813.402 1      -892.219          47.000  
E33  25801445.371 8 135587510.08317     -2569.309          37.000    25801455.495 4 103891769.08516     -1967.487          44.000  
E25  24796109.085 1 130304425.446 3      -826.334          42.000    24796120.016 1  99843697.246 2      -632.774          46.000  
E29                                                                  26046201.790 1 104877260.804 3     -1640.791          44.000  
> 2025 04 25 07 00 28.9960000  0 42                     
S29  37245783.103 1 195727914.134 3      -668.341          42.000  
S37  36173128.841 1 190091073.255 3      -688.004          39.000  
G04  21958102.610 1 115390603.693 3     -2114.962          40.000    21958106.402 1  89914794.637 3     -1648.139          40.000  
G06  19689811.294 1 103470648.096 1      -736.426          48.000    19689815.086 1  80626504.440 2      -573.749          44.000  
G09  20423528.673 1 107326368.177 2      -237.765          43.000    20423532.541 1  83630954.889 2      -185.126          43.000  
G11  20622388.647 1 108371384.868 2       906.569          46.000    20622391.072 1  84445259.789 2       706.386          44.000  
C07  34782407.833 1 181121125.081 1     -1176.272          46.000    34782404.303 1 140054323.526 2      -909.815          47.000  
C08  35931076.528 1 187102546.821 3      -356.885          42.000    35931073.927 1 144679546.493 2      -276.045          47.000  
C10  35187218.498 1 183229080.620 2      -825.206          45.000    35187217.660 1 141684343.084 2      -637.954          46.000  
C27  21528033.439 1 112102111.548 2     -2351.586          46.000                                                                  
C30  20657927.828 1 107571257.418 1       260.025          50.000                                                                  
C13  37003199.056 1 192685368.381 3      -188.024          43.000    37003206.894 1 148996583.645 2      -145.471          46.000  
R02  18810867.126 1 100378414.608 2      1644.218          52.000    18810872.759 1  78072114.849 2      1278.839          45.000  
R16  22264692.249 8               9      -966.817          35.000    22264705.127 9               9      -750.118          31.000  
R15  22163516.994 4 118435142.22916     -3537.756          42.000    22163536.770 8  92116281.80736     -2752.456          40.000  
R01  19009766.689 1 101618093.350 2     -2591.793          48.000                                                                  
R24  19227465.531 1 102817899.670 2     -1864.464          51.000    19227468.139 1  79969489.642 2     -1450.028          45.000  
R17  19244897.647 1 102983339.266 2      1219.901          51.000    19244899.521 1  80098170.747 2       948.628          45.000  
G12  22080736.241 4 116035061.99025      -630.648          39.000    22080742.318 1  90416948.784 4      -491.291          39.000  
G17  21129470.710 1 111036100.969 3     -3358.799          43.000    21129475.763 1  86521658.911 3     -2616.802          41.000  
G19  19051739.336 1 100117547.957 1     -2281.863          47.000                                                                  
G20  20966354.163 1 110178935.383 3      1583.843          44.000                                                                  
J02  36053072.908 1 189460173.190 3      -904.104          41.000    36053082.716 1 147631342.141 2      -704.260          45.000  
J04  36368620.602 1 191118391.969 2     -1054.259          43.000    36368623.956 1 148923453.715 2      -821.495          44.000  
C29  24008919.812 4               9      2038.607          31.000                                                                  
C32  20980493.715 1 109250940.625 1       252.486          49.000                                                                  
R18  22505751.886 9               9      2390.776          29.000    22505749.465 9               9      1871.309          21.000  
R03  22407743.049 8               9      3829.777          39.000    22407777.881 8  93294905.103 8      2977.495          39.000  
R08  23343610.701 9 125003974.68138     -4996.436          28.000    23343620.099 9  97225352.40138     -3885.469          27.000  
J07  36173133.015 1 190091095.616 4      -687.738          36.000    36173137.933 1 148122953.905 2      -536.127          46.000  
J03  37836528.609 1 198832299.548 1      -429.111          46.000    37836530.282 1 154934271.209 2      -334.237          44.000  
E11  24533851.501 1 128926266.450 3       646.442          41.000    24533856.934 1  98787689.649 2       494.964          46.000  
E16  24308997.274 1 127744623.910 3     -2000.389          44.000    24309007.087 1  97882286.212 2     -1533.024          49.000  
E19  23558229.963 1 123799332.928 3       111.499          38.000    23558237.297 1  94859257.344 2        85.595          46.000  
E24  24989025.328 1 131318193.901 3     -3011.520          44.000    24989037.048 1 100620494.747 2     -2307.675          50.000  
S28  37721554.595 1 198228100.633 4      -670.428          40.000  
E10  22946877.054 1 120586660.094 1      -240.995          47.000    22946883.668 1  92397601.140 1      -184.633          51.000  
E04  25284322.718 4               9      2192.515          40.000    25284339.980 2 101809557.378 8      1680.550          47.000  
E12  23118019.917 1 121486008.585 2     -1165.256          43.000    23118023.823 1  93086705.878 1      -892.653          48.000  
E33  25801935.840 8               9     -2569.648          32.000    25801943.694 2 103893736.443 6     -1967.888          39.000  
E25  24796266.133 1 130305252.304 3      -827.645          41.000    24796277.361 1  99844330.827 3      -634.356          46.000  
E29                                                                  26046609.114 1 104878901.047 2     -1641.194          45.000  
> 2025 04 25 07 00 29.9960000  0 43                     
S29  37245910.330 1 195728582.254 3      -668.048          42.000  
S37  36173259.786 1 190091761.052 3      -687.708          40.000  
G04  21958505.133 1 115392719.189 3     -2116.283          40.000    21958508.968 1  89916443.097 3     -1649.456          41.000  
G06  19689951.433 1 103471384.682 1      -736.597          48.000    19689955.270 1  80627078.401 2      -573.944          45.000  
G09  20423573.924 1 107326606.108 2      -238.651          44.000    20423577.787 1  83631140.292 2      -185.510          44.000  
G11  20622216.140 1 108370478.375 2       906.168          45.000    20622218.559 1  84444553.415 2       706.291          44.000  
C07  34782633.683 1 181122301.071 1     -1176.103          46.000    34782630.084 1 140055232.885 1      -909.548          49.000  
C08  35931144.896 1 187102903.267 2      -356.267          42.000    35931142.377 1 144679822.130 1      -275.657          48.000  
C10  35187376.982 1 183229905.571 1      -825.206          45.000    35187376.078 1 141684980.988 2      -637.881          48.000  
C27  21528484.888 1 112104462.827 2     -2351.319          46.000                                                                  
C30  20657877.974 1 107570997.355 1       259.934          50.000                                                                  
C13  37003235.048 1 192685556.158 2      -188.143          43.000    37003242.959 1 148996728.842 2      -145.293          48.000  
R02  18810559.107 1 100376770.397 2      1643.792          52.000    18810564.651 1  78070836.019 2      1278.450          46.000  
R16  22264876.082 9               9      -977.740          28.000                                                                  
R15  22164179.309 4 118438680.541 5     -3539.008          44.000    22164197.229 4  92119033.75825     -2752.681          43.000  
R01  19010251.517 1 101620685.426 1     -2592.575          48.000                                                                  
R24  19227814.172 1 102819764.289 2     -1864.679          51.000    19227816.810 1  79970939.897 2     -1450.331          46.000  
R17  19244669.837 1 102982119.266 2      1219.669          51.000    19244671.506 1  80097221.863 2       948.606          46.000  
G12  22080856.912 2 116035692.36124      -630.777          42.000    22080862.307 1  90417439.970 4      -491.373          39.000  
G17  21130109.705 1 111039459.480 2     -3358.621          44.000    21130114.785 1  86524275.924 3     -2617.139          43.000  
G19  19052173.549 1 100119829.736 1     -2281.917          47.000                                                                  
G20  20966052.682 1 110177351.618 2      1583.700          44.000                                                                  
J02  36053244.827 1 189461076.598 3      -903.787          41.000    36053254.581 1 147632046.097 2      -704.024          45.000  
J04  36368821.145 1 191119445.847 2     -1054.017          43.000    36368824.506 1 148924274.918 2      -821.162          45.000  
C29  24008527.515 9               9      2030.787          25.000                                                                  
C32  20980445.268 1 109250688.139 1       252.243          50.000                                                                  
R18  22505306.777 9               9      2368.160          26.000    22505302.231 9               9      1862.692          19.000  
R03  22407028.371 8 119946571.35137      3831.465          37.000    22407062.558 4  93291925.604 6      2978.823          36.000  
R08  23344542.383 9 125008963.65028     -4995.763          28.000    23344553.365 9               9     -3883.521          26.000  
J07  36173264.067 2 190091783.429 5      -687.588          37.000    36173268.799 1 148123489.847 2      -535.892          46.000  
J03  37836610.197 1 198832728.450 1      -428.987          46.000    37836611.893 1 154934605.425 2      -334.329          45.000  
E11  24533728.498 1 128925620.341 3       646.237          41.000    24533733.956 1  98787194.559 2       495.217          47.000  
E16  24309377.941 1 127746624.337 2     -2000.491          44.000    24309387.775 1  97883819.006 1     -1533.134          49.000  
E19  23558208.656 1 123799221.385 3       111.365          39.000    23558215.881 1  94859171.899 2        85.165          45.000  
E24  24989598.495 1 131321205.054 3     -3011.424          44.000    24989610.031 1 100622801.957 1     -2307.042          50.000  
S28  37721682.197 1 198228771.044 3      -670.380          40.000  
E10  22946922.943 1 120586901.028 1      -241.105          47.000    22946929.464 1  92397785.749 1      -184.622          51.000  
E04  25283902.750 4 132867818.868 5      2194.238          41.000    25283922.389 2 101807876.418 5      1680.950          48.000  
E12  23118241.677 1 121487173.639 2     -1165.144          43.000    23118245.328 1  93087598.581 1      -892.580          48.000  
E33  25802420.084 8 135592632.25218     -2564.313          31.000    25802433.011 2 103895703.991 8     -1966.743          42.000  
G22  23613345.079 9               9     -3827.332          23.000                                                                  
E25  24796423.646 1 130306079.879 2      -827.621          42.000    24796434.832 1  99844964.941 2      -633.870          47.000  
E29                                                                  26047016.466 1 104880541.877 2     -1641.165          45.000  
> 2025 04 25 07 00 30.9960000  0 43                     
S29  37246037.447 1 195729250.081 3      -667.453          42.000  
S37  36173390.585 1 190092448.679 2      -687.511          40.000  
G04  21958907.914 1 115394835.862 3     -2117.010          40.000    21958911.728 1  89918092.434 2     -1649.840          41.000  
G06  19690091.663 1 103472121.761 1      -737.360          48.000    19690095.494 1  80627652.762 2      -574.915          45.000  
G09  20423619.429 1 107326844.992 2      -239.329          44.000    20423623.257 1  83631326.457 2      -186.649          44.000  
G11  20622043.723 1 108369572.111 2       906.309          45.000    20622046.169 1  84443847.239 2       706.105          44.000  
C07  34782859.488 1 181123477.104 2     -1176.157          46.000    34782855.865 1 140056142.258 1      -909.676          48.000  
C08  35931213.291 1 187103259.704 2      -356.295          42.000    35931210.801 1 144680097.747 1      -275.601          47.000  
C10  35187535.367 1 183230730.588 2      -825.065          45.000    35187534.534 1 141685618.941 1      -638.014          48.000  
C27  21528936.633 1 112106814.596 2     -2351.846          46.000                                                                  
C30  20657828.212 1 107570737.746 1       259.104          50.000                                                                  
C13  37003271.083 1 192685743.785 2      -187.165          43.000    37003279.025 1 148996873.941 1      -145.022          47.000  
R02  18810251.173 1 100375126.924 1      1642.922          52.000    18810256.605 1  78069557.775 2      1277.675          46.000  
R16  22265057.486 9               9      -963.710          26.000    22265069.787 9               9      -758.209          24.000  
R15  22164842.127 4 118442219.029 3     -3538.935          45.000    22164857.868 4  92121785.864 4     -2752.149          43.000  
R01  19010736.673 1 101623278.696 2     -2593.749          48.000                                                                  
R24  19228163.057 1 102821629.683 2     -1865.852          51.000    19228165.601 1  79972390.758 2     -1451.167          46.000  
R17  19244441.925 1 102980899.809 2      1219.051          51.000    19244443.594 1  80096273.395 2       948.178          46.000  
G12  22080977.793 2 116036323.434 3      -631.091          41.000    22080982.399 1  90417931.730 4      -492.685          39.000  
G17  21130748.872 1 111042818.354 3     -3358.836          43.000    21130753.953 1  86526893.244 2     -2617.430          43.000  
G19  19052607.858 1 100122112.124 1     -2282.757          47.000                                                                  
G20  20965751.372 1 110175767.988 2      1583.353          44.000                                                                  
J02  36053416.752 1 189461979.906 3      -903.478          41.000    36053426.567 1 147632749.941 2      -703.777          45.000  
J04  36369021.724 1 191120499.744 2     -1054.029          43.000    36369025.073 1 148925096.178 2      -821.572          45.000  
C29  24008136.178 9               9      2041.751          22.000                                                                  
C32  20980396.915 1 109250436.222 1       251.436          49.000                                                                  
R18  22504865.497 9               9      2370.831          23.000    22504858.412 9               9      1840.328          18.000  
R03  22406315.664 9               9      3818.649          31.000                                                                  
R08  23345476.563 9               9     -4996.123          28.000    23345485.370 9               9     -3886.755          26.000  
J07  36173394.952 1 190092471.075 4      -688.126          37.000    36173399.600 1 148124025.683 2      -535.963          46.000  
J03  37836691.875 1 198833157.424 1      -429.153          47.000    37836693.560 1 154934939.686 2      -334.547          45.000  
E11  24533605.554 1 128924974.339 3       645.941          41.000    24533611.123 1  98786699.588 2       495.072          46.000  
E16  24309758.713 1 127748625.004 2     -2000.701          43.000    24309768.595 1  97885351.966 1     -1532.989          49.000  
E19  23558187.597 1 123799110.623 3       110.492          39.000    23558194.826 1  94859087.033 2        84.404          45.000  
E24  24990171.491 1 131324216.144 2     -3010.958          44.000    24990182.996 1 100625109.166 1     -2307.233          49.000  
S28  37721809.787 1 198229441.182 3      -669.849          39.000  
E10  22946968.839 1 120587142.242 1      -241.586          47.000    22946975.289 1  92397970.570 1      -184.861          51.000  
E04  25283485.327 4 132865625.183 8      2193.624          37.000    25283504.115 1 101806195.579 5      1680.304          43.000  
E12  23118463.381 1 121488339.114 2     -1165.786          43.000    23118467.274 1  93088491.619 1      -893.333          48.000  
E33  25802910.235 4               9     -2569.804          37.000    25802921.308 2 103897671.765 7     -1968.240          43.000  
G22  23614072.980 9               9     -3834.347          24.000                                                                  
E25  24796581.399 1 130306907.949 2      -828.131          42.000    24796592.535 1  99845599.425 2      -634.397          47.000  
E29                                                                  26047424.305 1 104882183.556 2     -1641.960          45.000  
> 2025 04 25 07 00 31.9960000  0 43                     
S29  37246164.522 1 195729917.627 3      -666.864          42.000  
S37  36173521.526 1 190093136.369 2      -687.769          39.000  
G04  21959310.844 1 115396953.568 2     -2118.426          40.000    21959314.816 1  89919742.565 3     -1649.885          42.000  
G06  19690231.935 1 103472859.172 1      -737.018          48.000    19690235.857 1  80628227.360 1      -574.432          46.000  
G09  20423665.138 1 107327085.010 2      -240.363          43.000    20423668.955 1  83631513.491 2      -187.436          45.000  
G11  20621871.237 1 108368665.812 2       906.558          45.000    20621873.669 1  84443141.037 2       706.386          45.000  
C07  34783085.317 1 181124653.189 2     -1175.495          46.000    34783081.678 1 140057051.686 1      -909.120          48.000  
C08  35931281.715 1 187103616.037 2      -356.004          41.000    35931279.211 1 144680373.279 1      -275.072          47.000  
C10  35187693.888 1 183231555.575 2      -824.130          44.000    35187692.995 1 141686256.887 1      -637.566          48.000  
C27  21529388.306 1 112109167.042 2     -2352.387          46.000                                                                  
C30  20657778.528 1 107570478.405 1       259.778          50.000                                                                  
C13  37003307.049 1 192685931.217 2      -186.521          42.000    37003315.043 1 148997018.880 1      -144.573          47.000  
R02  18809943.274 1 100373484.301 1      1642.669          52.000    18809948.747 1  78068280.175 2      1277.582          46.000  
R16  22265241.260 9               9      -971.713          25.000    22265251.859 9               9      -725.793          20.000  
R15  22165504.392 4 118445757.306 5     -3537.920          45.000    22165519.594 4  92124537.923 5     -2752.151          42.000  
R01  19011222.055 1 101625873.107 1     -2594.615          48.000                                                                  
R24  19228511.984 1 102823495.847 2     -1866.376          51.000    19228514.630 1  79973842.220 2     -1451.538          46.000  
R17  19244214.153 1 102979680.512 2      1219.895          51.000    19244215.764 1  80095325.068 2       948.407          47.000  
G12  22081097.366 2 116036954.656 3      -630.663          41.000    22081102.505 1  90418423.626 3      -492.210          40.000  
G17  21131388.175 1 111046177.847 3     -3359.744          43.000    21131393.237 1  86529510.998 3     -2617.747          44.000  
G19  19053042.362 1 100124395.267 1     -2283.079          46.000                                                                  
G20  20965450.062 1 110174184.310 2      1584.112          44.000                                                                  
J02  36053588.591 1 189462883.214 3      -903.216          41.000    36053598.322 1 147633453.827 2      -703.552          46.000  
J04  36369222.415 1 191121553.922 2     -1053.829          43.000    36369225.712 1 148925917.607 2      -821.307          46.000  
C29  24007739.601 9               9      2043.719          18.000                                                                  
C32  20980348.731 1 109250185.002 1       251.329          50.000                                                                  
R18  22504425.660 9               9      2363.116          21.000    22504416.346 9               9      1840.328          15.000  
R03  22405598.185 8 119938920.38237      3830.626          39.000    22405631.410 8               9      2980.195          33.000  
R08  23346408.990 9 125018959.18637     -4995.517          33.000    23346416.896 8  97237001.59137     -3886.558          32.000  
J07  36173525.741 1 190093158.738 4      -687.525          36.000    36173530.459 1 148124561.514 1      -535.367          47.000  
J03  37836773.499 1 198833586.520 1      -428.656          47.000    37836775.275 1 154935274.048 2      -334.161          46.000  
E11  24533482.687 1 128924328.071 3       647.664          40.000    24533488.113 1  98786204.408 2       496.168          46.000  
E16  24310139.214 1 127750625.647 2     -1999.961          43.000    24310149.214 1  97886884.932 2     -1532.651          49.000  
E19  23558166.559 1 123799000.780 3       109.488          39.000    23558174.030 1  94859002.865 2        83.779          45.000  
E24  24990744.488 1 131327227.145 2     -3010.634          43.000    24990755.902 1 100627416.279 1     -2306.628          49.000  
S28  37721937.167 1 198230111.029 3      -669.305          39.000  
E10  22947014.638 1 120587383.492 1      -240.688          47.000    22947021.126 1  92398155.446 1      -184.657          51.000  
E04  25283068.770 4 132863431.541 7      2193.364          40.000    25283087.218 1 101804514.680 5      1681.020          48.000  
E12  23118685.180 1 121489504.894 2     -1165.678          43.000    23118689.157 1  93089384.869 1      -893.134          48.000  
E33  25803399.443 4 135597769.311 7     -2570.198          39.000    25803410.508 1 103899640.070 4     -1969.738          46.000  
G22  23614802.719 9               9     -3834.163          25.000                                                                  
E25  24796738.979 1 130307736.071 2      -827.962          42.000    24796749.908 1  99846233.949 2      -633.901          46.000  
E29                                                                  26047832.299 1 104883825.820 2     -1642.589          45.000  
> 2025 04 25 07 00 32.9960000  0 43                     
S29  37246291.417 1 195730584.870 3      -667.216          42.000  
S37  36173652.467 1 190093824.202 3      -688.248          39.000  
G04  21959713.996 1 115399072.242 2     -2119.371          40.000    21959717.966 1  89921393.493 3     -1650.967          42.000  
G06  19690372.403 1 103473596.759 1      -737.823          48.000    19690376.197 1  80628802.100 1      -574.762          46.000  
G09  20423711.123 1 107327326.140 2      -241.517          43.000    20423714.756 1  83631701.380 2      -188.121          45.000  
G11  20621698.684 1 108367759.259 2       906.522          45.000    20621701.192 1  84442434.633 2       706.407          45.000  
C07  34783311.147 1 181125829.301 2     -1176.359          46.000    34783307.576 1 140057961.132 1      -909.800          48.000  
C08  35931350.104 1 187103972.201 2      -356.875          42.000    35931347.588 1 144680648.679 1      -275.632          48.000  
C10  35187852.293 1 183232380.470 2      -825.096          45.000    35187851.378 1 141686894.735 2      -637.896          47.000  
C27  21529840.167 1 112111520.230 2     -2353.614          47.000                                                                  
C30  20657728.643 1 107570219.172 1       259.067          51.000                                                                  
C13  37003342.983 1 192686118.421 2      -186.800          44.000    37003350.936 1 148997163.646 1      -145.038          47.000  
R02  18809635.501 1 100371842.638 1      1641.144          52.000    18809641.143 1  78067003.329 2      1276.452          47.000  
R16  22265423.806 9               9      -972.991          23.000    22265429.228 9               9      -750.028          17.000  
R15  22166166.096 4 118449295.453 4     -3538.510          45.000    22166181.822 4  92127289.816 4     -2752.730          40.000  
R01  19011707.622 1 101628468.544 1     -2595.802          48.000    19009767.082 9               9     -1950.227          10.000  
R24  19228861.116 1 102825362.765 2     -1867.414          51.000    19228863.806 1  79975294.255 2     -1452.166          46.000  
R17  19243986.257 1 102978461.142 2      1219.494          51.000    19243987.826 1  80094376.658 2       948.450          47.000  
G12  22081217.631 2 116037586.054 5      -632.310          36.000    22081222.625 1  90418915.551 5      -492.545          36.000  
G17  21132027.614 1 111049538.141 2     -3360.793          44.000    21132032.803 1  86532129.414 3     -2619.078          44.000  
G19  19053477.023 1 100126679.225 1     -2284.613          46.000                                                                  
G20  20965148.746 1 110172600.586 2      1583.343          44.000                                                                  
J02  36053760.551 1 189463786.850 3      -903.939          41.000    36053770.284 1 147634157.965 2      -704.569          46.000  
J04  36369423.067 1 191122608.441 2     -1054.498          43.000    36369426.394 1 148926739.315 2      -822.058          46.000  
C29  24007350.331 9               9      2040.542          29.000                                                                  
C32  20980300.647 1 109249934.497 1       250.028          50.000                                                                  
R18  22503982.024 9               9      2387.102          20.000    22503969.967 9               9      1878.024          13.000  
R03  22404881.420 9               9      3828.682          34.000    22404917.416 8               9      2980.237          29.000  
R08  23347339.714 8               9     -4969.291          21.000    23347348.104 8               9     -3892.086          25.000  
J07  36173656.637 1 190093846.559 4      -687.840          36.000    36173661.254 1 148125097.511 1      -536.181          47.000  
J03  37836855.090 1 198834015.663 1      -429.229          46.000    37836856.980 1 154935608.442 2      -334.645          46.000  
E11  24533359.600 1 128923681.438 3       646.368          40.000    24533364.979 1  98785708.928 2       495.346          46.000  
E16  24310519.722 1 127752626.234 2     -2000.830          43.000    24310529.937 1  97888417.837 1     -1532.999          49.000  
E19  23558145.888 1 123798891.891 3       108.576          38.000    23558153.255 1  94858919.443 2        83.106          45.000  
E24  24991317.472 1 131330238.123 2     -3011.208          43.000    24991329.010 1 100629723.411 1     -2307.534          49.000  
S28  37722064.469 1 198230780.604 3      -670.142          39.000  
E10  22947060.525 1 120587624.596 1      -241.084          47.000    22947067.147 1  92398340.174 1      -184.613          51.000  
E04  25282651.884 2 132861238.770 7      2190.886          37.000    25282670.048 1 101802834.572 4      1678.658          44.000  
E12  23118907.248 1 121490670.786 2     -1166.068          43.000    23118910.833 1  93090278.216 1      -893.433          48.000  
E33  25803888.066 4 135600338.857 6     -2571.393          34.000    25803899.494 1 103901608.927 4     -1969.599          43.000  
G22  23615530.654 9               9     -3836.531          25.000                                                                  
E25  24796896.585 1 130308564.065 2      -828.030          42.000    24796907.561 1  99846868.404 2      -634.660          47.000  
E29                                                                  26048240.242 1 104885468.704 2     -1643.433          44.000  
> 2025 04 25 07 00 33.9960000  0 43                     
S29  37246418.549 1 195731253.016 3      -668.791          42.000  
S37  36173783.585 1 190094512.909 3      -689.018          39.000  
G04  21960117.202 1 115401190.760 3     -2118.114          40.000    21960121.087 1  89923044.319 2     -1650.669          42.000  
G06  19690512.777 1 103474334.352 1      -737.610          48.000    19690516.504 1  80629376.857 2      -574.829          46.000  
G09  20423757.000 1 107327567.876 2      -241.364          43.000    20423760.808 1  83631889.753 2      -188.383          45.000  
G11  20621526.125 1 108366852.838 2       906.178          45.000    20621528.739 1  84441728.339 2       706.178          45.000  
C07  34783537.148 1 181127006.115 1     -1176.975          46.000    34783533.539 1 140058871.126 1      -910.215          48.000  
C08  35931418.599 1 187104329.088 2      -357.531          42.000    35931416.116 1 144680924.643 1      -275.983          48.000  
C10  35188010.917 1 183233205.908 1      -825.699          45.000    35188009.884 1 141687533.002 2      -638.337          48.000  
C27  21530292.061 1 112113873.834 2     -2353.641          46.000                                                                  
C30  20657678.933 1 107569960.218 1       258.841          50.000                                                                  
C13  37003379.056 1 192686306.524 2      -188.419          42.000    37003387.010 1 148997309.072 1      -145.478          47.000  
R02  18809328.046 1 100370202.405 1      1639.864          52.000    18809333.749 1  78065727.606 2      1275.278          46.000  
R16  22265607.497 9               9      -941.103          22.000    22265613.785 9               9      -751.039          18.000  
R15  22166828.298 2 118452834.449 4     -3539.969          44.000    22166844.135 2  92130042.376 4     -2753.845          42.000  
R01  19012193.294 1 101631064.416 2     -2595.664          48.000    19010230.300 9               9     -1950.227          12.000  
R24  19229210.257 1 102827229.824 2     -1866.919          51.000    19229212.987 1  79976746.417 2     -1452.174          47.000  
R17  19243758.288 1 102977241.611 2      1219.624          51.000    19243759.947 1  80093428.131 2       948.572          47.000  
G12  22081337.840 1 116038217.912 5      -633.124          41.000    22081342.928 1  90419407.928 5      -492.430          38.000  
G17  21132667.283 1 111052899.398 2     -3361.462          44.000    21132672.403 1  86534748.575 2     -2619.241          43.000  
G19  19053911.863 1 100128964.247 1     -2285.452          46.000                                                                  
G20  20964847.512 1 110171017.884 2      1582.124          44.000                                                                  
J02  36053932.686 1 189464691.533 2      -905.084          42.000    36053942.401 1 147634862.895 2      -705.284          47.000  
J04  36369623.839 1 191123663.645 2     -1055.294          43.000    36369627.195 1 148927561.548 2      -822.339          46.000  
C29  24006958.151 8 125010530.50137      2040.157          43.000                                                                  
C32  20980252.627 1 109249685.031 1       249.114          50.000                                                                  
R18  22503533.345 9               9      2392.688          20.000    22503518.329 9               9      1871.070          17.000  
R03  22404163.603 9 119931241.79437      3828.413          39.000    22404200.467 8  93280008.11537      2978.844          38.000  
R08  23348272.744 9               7     -4994.702          33.000    23348283.688 9  97244776.76937     -3884.878          32.000  
J07  36173787.769 1 190094535.293 4      -689.241          36.000    36173792.404 1 148125634.156 2      -536.727          47.000  
J03  37836936.734 1 198834444.845 1      -428.973          46.000    37836938.644 1 154935942.871 2      -334.251          46.000  
E11  24533236.475 1 128923034.822 3       646.256          40.000    24533241.969 1  98785213.467 2       495.115          46.000  
E16  24310900.827 1 127754627.732 2     -2001.991          43.000    24310910.802 1  97889951.453 2     -1534.127          49.000  
E19  23558125.352 1 123798783.369 3       108.383          38.000    23558132.548 1  94858836.271 2        83.315          45.000  
E24  24991890.504 1 131333250.263 2     -3012.793          44.000    24991902.131 1 100632031.382 1     -2308.433          49.000  
S28  37722192.093 1 198231450.845 4      -670.026          39.000  
E10  22947106.411 1 120587865.652 1      -240.915          47.000    22947113.071 1  92398524.890 1      -184.753          51.000  
E04  25282234.773 4 132859039.70417      2189.742          36.000    25282252.962 2 101801154.972 8      1677.985          45.000  
E12  23119129.018 1 121491836.508 2     -1165.510          43.000    23119132.732 1  93091171.443 1      -893.160          48.000  
E33  25804377.387 4 135602907.641 7     -2567.041          30.000    25804388.342 1 103903577.257 5     -1966.783          42.000  
G22  23616260.211 9               9     -3833.010          31.000                                                                  
E25  24797054.249 1 130309392.558 3      -828.854          42.000    24797065.274 1  99847503.237 2      -635.213          47.000  
E29                                                                  26048648.128 1 104887111.146 2     -1642.128          44.000  
> 2025 04 25 07 00 34.9960000  0 43                     
S29  37246545.949 1 195731922.374 3      -670.300          42.000  
S37  36173914.879 1 190095202.295 3      -689.787          39.000  
G04  21960520.138 1 115403308.159 3     -2116.323          40.000    21960523.944 1  89924694.222 3     -1649.148          42.000  
G06  19690652.964 1 103475071.179 1      -736.792          48.000    19690656.758 1  80629950.991 2      -574.054          45.000  
G09  20423802.957 1 107327809.220 2      -240.917          44.000    20423806.752 1  83632077.798 2      -187.565          44.000  
G11  20621353.647 1 108365946.342 2       905.566          44.000    20621356.206 1  84441021.976 2       706.102          45.000  
C07  34783763.188 1 181128183.281 2     -1177.810          46.000    34783759.601 1 140059781.374 2      -910.567          48.000  
C08  35931487.241 1 187104686.716 2      -358.425          41.000    35931484.805 1 144681201.212 2      -277.575          48.000  
C10  35188169.448 1 183234031.602 2      -826.155          45.000    35188168.393 1 141688171.497 2      -638.984          48.000  
C27  21530744.050 1 112116227.008 2     -2352.689          46.000                                                                  
C30  20657629.165 1 107569700.953 1       258.608          50.000                                                                  
C13  37003415.297 1 192686495.746 3      -189.788          43.000    37003423.399 1 148997455.398 2      -147.062          47.000  
R02  18809020.895 1 100368563.123 2      1638.652          52.000    18809026.562 1  78064452.609 2      1274.429          49.000  
R16  22265787.455 9               9      -965.326          34.000    22265793.396 9               9      -755.193          32.000  
R15  22167491.062 2 118456374.830 5     -3541.272          45.000    22167506.509 8  92132781.42436     -2754.125          45.000  
R01  19012678.854 1 101633659.673 2     -2594.716          48.000    19010694.911 9               9     -1950.227          14.000  
R24  19229559.360 1 102829096.048 1     -1865.597          51.000    19229561.927 1  79978197.920 2     -1451.016          49.000  
R17  19243530.344 1 102976021.353 2      1220.520          51.000    19243531.800 1  80092479.044 2       949.236          50.000  
G12  22081458.374 2 116038850.794 6      -634.811          43.000    22081463.365 1  90419901.066 5      -494.132          40.000  
G17  21133306.905 1 111056261.111 3     -3361.646          43.000    21133312.133 1  86537368.084 3     -2619.776          44.000  
G19  19054346.679 1 100131249.696 2     -2285.686          46.000                                                                  
G20  20964546.596 1 110169436.480 3      1580.148          44.000                                                                  
J02  36054105.081 1 189465597.218 3      -905.680          41.000    36054114.844 1 147635568.623 3      -706.083          46.000  
J04  36369824.675 1 191124718.937 2     -1055.248          43.000    36369827.996 1 148928383.840 2      -822.024          46.000  
C29  24006567.479 4 125008488.98926      2040.382          38.000                                                                  
C32  20980204.767 1 109249435.943 1       248.854          49.000                                                                  
R18  22503088.419 9               9      2363.823          19.000    22503066.989 9               9      1922.425          19.000  
R03  22403449.488 9               9      3819.266          31.000    22403487.844 9               9      2949.950          26.000  
R08  23349208.200 8 125033949.22036     -4993.892          33.000    23349217.954 9               9     -3883.476          26.000  
J07  36173918.801 1 190095224.656 4      -689.488          36.000    36173923.593 1 148126171.333 2      -537.273          47.000  
J03  37837018.250 1 198834873.279 1      -428.366          47.000    37837020.156 1 154936276.694 2      -333.716          46.000  
E11  24533113.390 1 128922388.262 3       645.679          40.000    24533118.861 1  98784718.056 2       494.600          47.000  
E16  24311281.890 1 127756630.416 3     -2003.988          43.000    24311292.041 1  97891485.975 2     -1535.558          50.000  
E19  23558104.298 1 123798674.194 3       109.602          38.000    23558111.872 1  94858752.610 2        84.377          45.000  
E24  24992464.132 1 131336263.832 2     -3014.574          44.000    24992475.664 1 100634340.487 2     -2309.920          50.000  
S28  37722319.776 1 198232122.435 4      -672.833          39.000  
E10  22947152.336 1 120588106.105 2      -240.432          47.000    22947158.674 1  92398709.125 1      -184.111          51.000  
E04  25281817.819 8               9      2191.265          33.000    25281835.221 4 101799473.82217      1678.470          42.000  
E12  23119350.732 1 121493001.166 2     -1164.227          43.000    23119354.428 1  93092063.827 1      -891.928          48.000  
E33  25804864.663 4 135605475.146 7     -2563.994          35.000    25804876.850 1 103905544.626 4     -1966.703          41.000  
G22  23616989.274 9               9     -3833.010          24.000                                                                  
E25  24797211.913 1 130310221.815 3      -830.579          42.000    24797223.052 1  99848138.613 3      -636.480          47.000  
E29                                                                  26049055.803 1 104888752.491 2     -1640.696          45.000  
> 2025 04 25 07 00 35.9960000  0 43                     
S29  37246673.382 1 195732592.262 2      -670.267          42.000  
S37  36174046.132 1 190095891.512 3      -689.764          39.000  
G04  21960922.923 1 115405424.834 3     -2116.910          40.000    21960926.740 1  89926343.602 3     -1649.203          43.000  
G06  19690793.136 1 103475807.742 2      -737.164          48.000    19690796.946 1  80630524.940 2      -574.060          46.000  
G09  20423848.678 1 107328050.091 3      -241.661          44.000    20423852.614 1  83632265.520 3      -188.238          46.000  
G11  20621181.238 1 108365040.203 2       905.193          45.000    20621183.764 1  84440315.894 2       705.835          46.000  
C07  34783989.226 1 181129360.564 1     -1177.973          46.000    34783985.640 1 140060691.724 2      -910.892          49.000  
C08  35931556.088 1 187105044.770 2      -358.549          42.000    35931553.548 1 144681478.076 2      -277.464          48.000  
C10  35188328.026 1 183234857.503 2      -826.630          45.000    35188326.953 1 141688810.134 2      -639.227          48.000  
C27  21531195.835 1 112118579.502 3     -2353.140          46.000                                                                  
C30  20657579.441 1 107569441.694 1       258.653          51.000                                                                  
C13  37003451.780 1 192686685.620 2      -190.445          43.000    37003459.957 1 148997602.237 2      -147.496          47.000  
R02  18808713.809 1 100366924.239 2      1638.285          52.000    18808719.473 1  78063177.930 2      1274.097          49.000  
R16  22265960.058 8 118940761.24636      -969.605          45.000    22265974.396 9  92509540.70536      -754.346          45.000  
R15  22168153.934 2 118459916.586 6     -3543.809          44.000    22168169.231 2  92135536.07726     -2755.122          45.000  
R01  19013164.189 1 101636254.799 2     -2595.870          48.000    19011166.460 9               9     -1950.227          13.000  
R24  19229908.152 1 102830961.606 2     -1865.979          51.000    19229910.719 1  79979648.918 2     -1451.429          49.000  
R17  19243302.287 1 102974801.110 2      1219.720          50.000    19243303.860 1  80091529.978 2       948.508          50.000  
G12  22081579.079 1 116039484.743 4      -633.479          40.000    22081584.032 1  90420395.135 4      -494.557          39.000  
G17  21133946.614 1 111059622.435 3     -3361.546          44.000    21133951.796 1  86539987.291 3     -2619.421          44.000  
G19  19054781.644 1 100133535.237 2     -2286.252          46.000                                                                  
G20  20964245.778 1 110167855.925 2      1580.007          44.000                                                                  
J02  36054277.409 1 189466502.885 3      -906.386          41.000    36054287.242 1 147636274.342 2      -706.065          48.000  
J04  36370025.393 1 191125773.759 2     -1055.248          43.000    36370028.633 1 148929205.802 2      -822.305          47.000  
C29  24006174.496 4 125006447.81626      2040.233          39.000                                                                  
C32  20980157.021 1 109249186.974 1       248.168          49.000                                                                  
R18  22502639.863 9               9      2425.292          18.000                                                                  
R03  22402740.795 9               9      3816.707          24.000    22402774.434 9  93274070.36038      2977.176          32.000  
R08  23350142.662 9               9     -4991.917          27.000                                                                  
J07  36174049.953 1 190095913.885 4      -689.667          36.000    36174054.679 1 148126708.401 2      -537.686          48.000  
J03  37837099.648 1 198835301.010 1      -428.124          47.000    37837101.647 1 154936610.022 2      -333.786          48.000  
E11  24532990.361 1 128921742.074 3       645.651          41.000    24532996.027 1  98784222.925 2       494.736          47.000  
E16  24311663.176 1 127758634.104 3     -2004.793          43.000    24311673.296 1  97893021.264 2     -1536.083          50.000  
E19  23558083.526 1 123798564.290 3       109.350          39.000    23558090.939 1  94858668.416 2        83.904          45.000  
E24  24993037.669 1 131339278.159 2     -3015.042          44.000    24993049.270 1 100636650.158 2     -2310.023          50.000  
S28  37722447.689 1 198232794.694 4      -672.961          39.000  
E10  22947198.002 1 120588346.495 2      -241.009          47.000    22947204.548 1  92398893.324 1      -184.670          51.000  
E04  25281402.434 8 132854665.69318      2187.202          33.000    25281418.488 2 101797794.613 6      1675.427          44.000  
E12  23119572.302 1 121494165.234 2     -1164.475          43.000    23119575.956 1  93092955.781 1      -892.321          48.000  
E33  25805355.217 8               9     -2568.554          28.000    25805365.403 8               9     -1963.663          34.000  
G22  23617720.303 9               9     -3827.129          22.000                                                                  
E25  24797369.983 1 130311051.992 3      -830.817          42.000    24797381.158 1  99848774.719 2      -636.163          47.000  
E29                                                                  26049463.244 1 104890393.149 2     -1640.496          45.000  
> 2025 04 25 07 00 36.9960000  0 42                     
S29  37246801.000 1 195733262.817 3      -670.860          42.000  
S37  36174177.364 1 190096581.251 3      -689.895          39.000  
G04  21961325.738 1 115407541.823 3     -2116.730          40.000    21961329.561 1  89927993.168 3     -1649.485          41.000  
G06  19690933.376 1 103476544.559 1      -737.018          48.000    19690937.072 1  80631099.095 2      -574.359          45.000  
G09  20423894.648 1 107328291.581 3      -241.531          43.000    20423898.578 1  83632453.699 2      -188.458          45.000  
G11  20621008.920 1 108364134.469 2       906.085          45.000    20621011.355 1  84439610.144 2       705.977          45.000  
C07  34784215.404 1 181130538.397 1     -1177.881          46.000    34784211.851 1 140061602.493 2      -910.704          48.000  
C08  35931625.073 1 187105403.485 2      -358.792          42.000    35931622.435 1 144681755.446 2      -277.456          47.000  
C10  35188486.615 1 183235683.943 2      -826.156          45.000    35188485.706 1 141689449.200 1      -638.950          47.000  
C27  21531647.615 1 112120932.301 2     -2352.604          46.000                                                                  
C30  20657529.734 1 107569182.918 1       258.712          51.000                                                                  
C13  37003488.470 1 192686876.239 2      -191.069          41.000    37003496.548 1 148997749.633 2      -147.692          46.000  
R02  18808406.955 1 100365286.589 1      1637.323          53.000    18808412.507 1  78061904.212 2      1273.269          48.000  
R16  22266141.067 8 118941732.067 8      -970.974          48.000    22266151.946 8  92510278.77927      -755.024          43.000  
R15  22168817.010 2 118463458.959 5     -3542.056          47.000    22168832.243 2  92138291.28925     -2755.123          43.000  
R01  19013649.750 1 101638850.561 2     -2595.784          48.000    19011639.107 9               9     -1950.227          13.000  
R24  19230257.077 1 102832827.466 2     -1866.073          51.000    19230259.729 1  79981100.133 2     -1451.331          48.000  
R17  19243074.240 1 102973581.101 2      1220.082          51.000    19243075.834 1  80090581.076 2       948.901          49.000  
G12  22081699.847 1 116040119.712 4      -635.481          43.000    22081704.871 1  90420889.898 4      -495.471          39.000  
G17  21134586.380 1 111062984.471 4     -3363.025          42.000    21134591.569 1  86542607.039 3     -2620.334          42.000  
G19  19055216.703 1 100135821.654 2     -2286.772          47.000                                                                  
G20  20963945.165 1 110166276.329 2      1579.111          44.000                                                                  
J02  36054449.786 1 189467409.216 3      -906.732          40.000    36054459.705 1 147636980.569 2      -706.318          45.000  
J04  36370226.193 1 191126828.971 2     -1055.020          43.000    36370229.486 1 148930028.048 2      -822.068          45.000  
C29  24005783.091 4               9      2040.231          32.000                                                                  
C32  20980109.371 1 109248938.872 1       247.775          49.000                                                                  
R18  22502193.913 9               9      2345.235          17.000                                                                  
R03  22402024.106 9 119919788.25138      3820.269          27.000    22402059.742 9               9      2973.122          26.000  
R08  23351074.073 9               9     -4991.612          27.000    23351077.609 9               9     -3882.385          32.000  
J07  36174181.132 1 190096603.615 4      -689.597          36.000    36174185.895 1 148127245.858 2      -537.301          47.000  
J03  37837180.976 1 198835728.822 1      -427.804          47.000    37837183.024 1 154936943.366 2      -333.235          46.000  
E11  24532867.377 1 128921096.277 3       645.833          41.000    24532873.153 1  98783728.075 2       495.246          46.000  
E16  24312044.537 1 127760638.721 2     -2004.820          44.000    24312054.648 1  97894557.270 1     -1536.331          49.000  
E19  23558062.671 1 123798454.792 3       109.065          38.000    23558070.037 1  94858584.502 2        83.924          44.000  
E24  24993611.538 1 131342293.400 3     -3015.188          43.000    24993623.087 1 100638960.500 1     -2310.218          49.000  
S28  37722575.725 1 198233467.521 4      -671.600          39.000  
E10  22947243.713 1 120588587.098 1      -240.527          47.000    22947250.321 1  92399077.678 1      -184.397          51.000  
E04  25280982.580 8               9      2189.901          37.000    25281002.218 4               9      1678.201          44.000  
E12  23119793.687 1 121495329.377 2     -1164.299          43.000    23119797.457 1  93093847.775 1      -891.931          48.000  
E33  25805843.827 8 135610624.42917     -2564.740          34.000    25805853.191 4 103909477.02517     -1965.419          42.000  
E25  24797528.099 1 130311882.982 3      -830.859          42.000    24797539.295 1  99849411.465 2      -636.503          48.000  
E29                                                                  26049870.628 1 104892033.890 2     -1641.172          43.000  
> 2025 04 25 07 00 37.9960000  0 42                     
S29  37246928.607 1 195733933.243 2      -670.063          42.000  
S37  36174308.574 1 190097270.972 3      -689.681          39.000  
G04  21961728.706 1 115409659.321 3     -2118.355          40.000    21961732.495 1  89929643.168 3     -1650.814          41.000  
G06  19691073.554 1 103477281.489 1      -737.061          47.000    19691077.364 1  80631673.327 2      -574.335          44.000  
G09  20423940.767 1 107328533.737 2      -242.863          43.000    20423944.747 1  83632642.359 2      -188.781          44.000  
G11  20620836.481 1 108363228.744 2       905.828          45.000    20620839.000 1  84438904.386 2       705.432          45.000  
C07  34784441.659 1 181131716.257 2     -1177.711          46.000    34784438.066 1 140062513.296 2      -910.796          48.000  
C08  35931694.022 1 187105762.192 3      -358.483          42.000    35931691.309 1 144682032.825 2      -277.126          47.000  
C10  35188645.299 1 183236510.411 2      -826.348          45.000    35188644.456 1 141690088.264 2      -638.751          47.000  
C27  21532099.550 1 112123285.436 2     -2353.537          46.000                                                                  
C30  20657479.967 1 107568924.278 1       258.595          51.000                                                                  
C13  37003525.145 1 192687066.787 3      -190.330          43.000    37003533.170 1 148997896.975 2      -147.255          47.000  
R02  18808100.150 1 100363649.698 2      1636.728          52.000    18808105.795 1  78060631.075 2      1272.746          46.000  
R16  22266323.061 9               9      -975.591          29.000    22266332.113 8               9      -757.587          28.000  
R15  22169479.958 2 118467001.677 6     -3541.879          44.000    22169495.045 2  92141046.70725     -2754.619          41.000  
R01  19014135.460 1 101641447.074 2     -2596.947          48.000                                                                  
R24  19230606.031 1 102834693.633 1     -1866.309          51.000    19230608.753 1  79982551.626 2     -1452.109          47.000  
R17  19242846.161 1 102972361.132 2      1219.300          50.000    19242847.854 1  80089632.174 2       949.118          47.000  
G12  22081820.716 1 116040755.040 5      -635.029          42.000    22081825.787 1  90421384.900 4      -494.573          38.000  
G17  21135226.192 1 111066346.822 4     -3362.859          44.000    21135231.427 1  86545227.032 4     -2619.913          42.000  
G19  19055651.852 1 100138108.626 2     -2287.266          47.000                                                                  
G20  20963644.555 1 110164696.892 2      1579.276          44.000                                                                  
J02  36054622.237 1 189468315.553 3      -905.772          40.000    36054632.239 1 147637686.783 2      -705.886          45.000  
J04  36370427.062 1 191127884.242 2     -1055.025          43.000    36370430.365 1 148930850.329 2      -822.025          44.000  
C29  24005405.913 9               9      2008.458          25.000                                                                  
C32  20980061.817 1 109248691.255 1       247.424          49.000                                                                  
R18  22501751.977 9               9      2412.037          18.000    22501725.113 9               9      1854.015          18.000  
R03  22401309.177 9               9      3827.829          40.000    22401342.192 8  93268107.12838      2977.550          38.000  
R08  23352012.734 9               9     -4984.343          25.000    23352011.273 8  97260302.01137     -3883.484          31.000  
J07  36174312.362 1 190097293.351 4      -689.874          36.000    36174317.247 1 148127783.303 2      -537.133          46.000  
J03  37837262.311 1 198836156.481 1      -427.596          47.000    37837264.423 1 154937276.626 2      -333.139          45.000  
E11  24532744.778 1 128920450.319 4       646.124          40.000    24532750.140 1  98783233.145 3       495.259          45.000  
E16  24312426.458 1 127762643.551 3     -2004.886          44.000    24312436.178 1  97896093.413 2     -1536.049          49.000  
E19  23558041.783 1 123798345.740 3       108.793          38.000    23558049.390 1  94858500.941 2        83.804          46.000  
E24  24994185.276 1 131345308.761 2     -3015.408          44.000    24994196.907 1 100641270.979 2     -2310.137          49.000  
S28  37722703.745 1 198234140.224 4      -671.820          39.000  
E10  22947289.625 1 120588827.636 2      -240.808          47.000    22947295.999 1  92399261.975 2      -184.127          50.000  
E04  25280567.085 8               9      2190.936          34.000    25280584.342 4               9      1680.754          39.000  
E12  23120015.215 1 121496493.500 2     -1164.499          43.000    23120018.981 1  93094739.768 1      -892.043          47.000  
E33  25806325.520 8               9     -2566.697          28.000    25806341.521 2 103911443.098 7     -1965.457          42.000  
E25  24797686.154 1 130312714.226 4      -830.940          41.000    24797697.543 1  99850048.346 3      -636.549          46.000  
E29                                                                  26050278.195 1 104893674.790 2     -1640.978          44.000  
> 2025 04 25 07 00 38.9960000  0 43                     
S29  37247055.966 1 195734602.814 2      -669.293          42.000  
S37  36174439.735 1 190097959.913 3      -688.451          39.000  
G04  21962131.886 1 115411778.153 3     -2120.136          39.000    21962135.675 1  89931294.273 3     -1652.689          39.000  
G06  19691213.859 1 103478018.948 1      -737.976          48.000    19691217.686 1  80632247.989 2      -575.440          43.000  
G09  20423986.904 1 107328776.754 2      -244.106          44.000    20423991.037 1  83632831.728 2      -190.124          42.000  
G11  20620664.146 1 108362323.210 2       905.224          45.000    20620666.712 1  84438198.761 2       705.543          43.000  
C07  34784667.737 1 181132893.761 1     -1177.505          46.000    34784664.252 1 140063423.817 1      -910.486          47.000  
C08  35931762.745 1 187106120.407 2      -357.865          41.000    35931760.129 1 144682309.844 1      -276.996          47.000  
C10  35188803.904 1 183237336.608 2      -826.282          45.000    35188803.106 1 141690727.141 1      -639.032          46.000  
C27  21532551.435 1 112125638.817 2     -2353.685          45.000                                                                  
C30  20657430.463 1 107568666.028 1       257.703          51.000                                                                  
C13  37003561.613 1 192687256.730 2      -189.712          43.000    37003569.625 1 148998043.845 2      -146.778          46.000  
R02  18807793.423 1 100362013.005 1      1636.608          52.000    18807799.081 1  78059358.088 2      1273.087          45.000  
R16  22266505.679 9               9      -969.352          28.000    22266519.420 9               9      -762.782          26.000  
R15  22170143.012 2 118470544.131 4     -3542.721          46.000    22170158.021 2  92143801.43514     -2755.882          39.000  
R01  19014621.366 1 101644044.886 1     -2599.043          49.000                                                                  
R24  19230955.235 1 102836560.505 1     -1867.472          51.000    19230957.837 1  79984003.602 2     -1452.493          45.000  
R17  19242618.198 1 102971141.705 2      1218.742          51.000    19242620.027 1  80088683.771 2       947.867          45.000  
G12  22081941.793 2 116041391.308 7      -637.193          32.000    22081946.851 2  90421880.781 5      -497.449          30.000  
G17  21135866.082 1 111069709.131 5     -3363.509          41.000    21135871.254 1  86547846.961 5     -2620.273          39.000  
G19  19056087.043 1 100140395.807 1     -2287.574          47.000                                                                  
G20  20963343.917 1 110163117.077 2      1579.979          44.000                                                                  
J02  36054794.475 1 189469221.126 3      -905.851          40.000    36054804.552 1 147638392.410 2      -705.101          44.000  
J04  36370627.858 1 191128939.129 2     -1054.994          43.000    36370631.047 1 148931672.303 2      -821.649          44.000  
C29  24005024.655 9               9      2012.331          22.000                                                                  
C32  20980014.205 1 109248443.872 1       247.116          50.000                                                                  
R18  22501306.017 9               9      2378.069          19.000    22501278.815 9               9      1862.069          16.000  
R03  22400590.365 8 119912114.01128      3829.256          34.000    22400626.323 8  93265127.22337      2982.971          33.000  
R08  23352951.060 9 125053992.12937     -4995.297          32.000                                                                  
J07  36174443.481 1 190097982.271 4      -688.358          36.000    36174448.354 1 148128320.144 2      -536.514          45.000  
J03  37837343.539 1 198836584.064 1      -427.826          47.000    37837345.802 1 154937609.798 2      -333.413          44.000  
E11  24532621.726 1 128919804.398 3       645.688          40.000    24532627.194 1  98782738.235 2       494.601          46.000  
E16  24312807.869 1 127764648.213 2     -2004.832          44.000    24312817.782 1  97897629.461 1     -1536.042          49.000  
E19  23558021.392 1 123798237.416 3       107.632          38.000    23558028.675 1  94858417.970 2        82.846          45.000  
E24  24994758.902 1 131348323.426 2     -3013.992          44.000    24994770.499 1 100643580.933 1     -2309.445          49.000  
S28  37722831.732 1 198234812.102 3      -671.265          39.000  
E10  22947335.471 1 120589068.448 1      -241.286          47.000    22947341.888 1  92399446.509 1      -184.976          51.000  
E04  25280147.345 9 132848070.52818      2193.922          33.000    25280167.707 8               9      1683.147          36.000  
E12  23120236.922 1 121497658.081 2     -1165.223          43.000    23120240.517 1  93095632.118 1      -892.670          47.000  
E33  25806819.122 8               9     -2566.228          28.000    25806830.142 4 103913410.69218     -1966.519          38.000  
G22  23619910.939 9               9     -3829.063          24.000                                                                  
E25  24797844.579 1 130313545.773 3      -831.857          42.000    24797855.717 1  99850685.563 2      -637.887          47.000  
E29                                                                  26050685.944 1 104895316.833 2     -1643.129          43.000  
