     3.03           OBSERVATION DATA    M: Mixed            RINEX VERSION / TYPE
RTKCONV demo5 b34d                      20250508 054308 UTC PGM / RUN BY / DATE 
format: u-blox UBX                                          COMMENT             
log: C:\Users\youna\Downloads\115 RTAP ÁÖÇà\RTAP2_250425_070COMMENT             
                                                            MARKER NAME         
                                                            MARKER NUMBER       
                                                            MARKER TYPE         
                                                            OBSERVER / AGENCY   
                                                            REC # / TYPE / VERS 
                                                            ANT # / TYPE        
 -3028982.9919  4072042.2424  3850308.3000                  APPROX POSITION XYZ 
        0.0000        0.0000        0.0000                  ANTENNA: DELTA H/E/N
G    8 C1C L1C D1C S1C C2X L2X D2X S2X                      SYS / # / OBS TYPES 
R    8 C1C L1C D1C S1C C2C L2C D2C S2C                      SYS / # / OBS TYPES 
E    8 C1X L1X D1X S1X C7X L7X D7X S7X                      SYS / # / OBS TYPES 
J    8 C1C L1C D1C S1C C2X L2X D2X S2X                      SYS / # / OBS TYPES 
S    4 C1C L1C D1C S1C                                      SYS / # / OBS TYPES 
C    8 C2I L2I D2I S2I C7I L7I D7I S7I                      SYS / # / OBS TYPES 
  2025    04    25    07    09   36.9970000     GPS         TIME OF FIRST OBS   
  2025    04    25    07    17   56.9970000     GPS         TIME OF LAST OBS    
G L1C                                                       SYS / PHASE SHIFT   
G L2X  0.00000                                              SYS / PHASE SHIFT   
R L1C                                                       SYS / PHASE SHIFT   
R L2C                                                       SYS / PHASE SHIFT   
E L1X  0.00000                                              SYS / PHASE SHIFT   
E L7X  0.00000                                              SYS / PHASE SHIFT   
J L1C                                                       SYS / PHASE SHIFT   
J L2X  0.00000                                              SYS / PHASE SHIFT   
S L1C                                                       SYS / PHASE SHIFT   
C L2I                                                       SYS / PHASE SHIFT   
C L7I                                                       SYS / PHASE SHIFT   
  8 R01  1 R02 -4 R03  5 R15  0 R16 -1 R17  4 R18 -3 R24  2 GLONASS SLOT / FRQ #
 C1C    0.000 C1P    0.000 C2C    0.000 C2P    0.000        GLONASS COD/PHS/BIS 
                                                            END OF HEADER       
> 2025 04 25 07 09 36.9970000  0 44                     
S29  37322680.360 1 196132007.06915      -737.377          39.000  
S37  36248377.191 1 190486507.70513      -747.747          40.000  
G06  19771044.586 1 103897538.49711      -843.060          48.000    19771048.574 1  80959137.87812      -657.267          46.000  
G09  20462744.392 1 107532449.57913      -586.876          43.000    20462748.365 1  83791542.12313      -458.258          45.000  
G11  20534769.069 1 107910943.89212       812.074          44.000    20534770.980 1  84086475.68612       632.928          46.000  
C07  34912911.388 1 181800692.51111     -1284.174          46.000    34912907.485 1 140579806.21112      -992.432          48.000  
C08  35976907.963 1 187341206.95312      -461.193          42.000    35976905.224 1 144864094.35112      -356.685          48.000  
C10  35280883.622 1 183716813.28212      -924.742          45.000    35280882.748 1 142061493.68012      -714.708          47.000  
C27  21780867.049 1 113418678.11213     -2517.823          47.000                                                                  
C30  20639045.008 1 107472921.79611        97.546          51.000                                                                  
C13  37032794.340 1 192839479.76913      -304.815          43.000    37032802.026 1 149115751.50712      -235.635          46.000  
R02  18665285.421 1  99601543.61911      1173.709          52.000    18665290.547 1  77467907.44112       912.612          48.000  
R16  22387704.787 2 119591098.77914     -1376.635          48.000    22387714.822 2  93015391.93614     -1070.905          45.000  
R15  22543394.830 9               9     -3768.258          31.000    22543420.545 9               9     -2935.829          27.000  
R01  19292822.995 1 103131194.30212     -2981.219          48.000                                                                  
R24  19424992.597 1 103874163.12812     -2065.233          50.000    19424996.078 2  80791026.97212     -1606.041          48.000  
R17  19125228.477 1 102342968.47812      1117.719          52.000    19125230.369 1  79600105.39912       868.634          47.000  
G12  22169386.436 1 116500908.56213      -999.869          42.000    22169391.148 1  90779948.47513      -779.180          43.000  
G17  21489504.779 1 112928094.39313     -3584.094          43.000    21489511.210 1  87995952.10113     -2792.657          42.000  
G19  19306601.986 1 101456876.57912     -2629.031          46.000                                                                  
G20  20816935.012 1 109393737.72212      1353.382          44.000                                                                  
J02  36153652.061 1 189988718.57213     -1011.788          41.000    36153662.560 1 148043201.91613      -789.521          44.000  
J04  36480810.933 1 191707956.70712     -1120.679          44.000    36480813.670 1 149382837.13512      -873.105          46.000  
C29  23797364.609 1 123919120.15013      2034.463          43.000                                                                  
C32  20970045.653 1 109196531.27811       -68.986          51.000                                                                  
R18  22260092.671 2 118825887.30115      2448.606          41.000    22260103.400 2  92420218.04316      1904.399          40.000  
R03  22025144.048 8               9      3670.187          38.000    22025173.075 4               9      2853.293          38.000  
J07  36248381.147 1 190486518.07513      -747.804          37.000    36248385.794 1 148431080.19512      -582.585          46.000  
J03  37877686.585 1 199048587.64211      -389.478          47.000    37877688.444 1 155102801.45812      -304.022          46.000  
E11  24471246.492 1 128597279.56013       607.436          40.000    24471251.569 1  98535610.07912       465.544          47.000  
E16  24535144.307 1 128933048.58713     -2260.205          42.000    24535154.991 1  98792878.96012     -1732.223          50.000  
E19  23554898.689 1 123781834.80913      -126.522          38.000    23554906.345 1  94845851.14612       -97.611          46.000  
E24  25316645.593 1 133039856.52215     -3201.971          39.000    25316658.358 1 101939682.89212     -2454.511          47.000  
S28  37799073.038 2 198635472.12615      -739.549          36.000  
E10  22974353.757 1 120731051.01111      -279.047          47.000    22974360.177 1  92508238.61211      -213.568          52.000  
E04  25060764.014 1 131695207.55613      2070.273          42.000    25060778.779 1 100909381.68312      1586.474          47.000  
E12  23239036.783 1 122121954.00812     -1193.427          43.000    23239040.680 1  93573985.12612      -914.512          47.000  
E33  26063819.852 9               9     -2556.110          27.000    26063829.546 4 104948240.48117     -1959.088          33.000  
G25  23496357.807 1 123474189.67414       404.584          39.000    23496369.890 8  96213705.54816       315.331          35.000  
E06  26610458.091 2 139838897.56617      2290.384          34.000                                                                  
E25  24900326.938 1 130852090.18613     -1099.934          41.000    24900338.105 1 100263335.49012      -842.627          48.000  
E29                                                                  26274069.362 8               9     -1764.605          32.000  
G04                                                                  22188330.077 9               9     -1858.878          33.000  
G05                                                                  23988252.066 9               9      2025.373          22.000  
> 2025 04 25 07 09 37.9970000  0 44                     
S29  37322820.886 1 196132745.636 4      -740.449          39.000  
S37  36248519.252 1 190487254.250 3      -745.678          40.000  
G06  19771205.142 1 103898382.708 1      -844.531          48.000    19771209.216 1  80959795.696 2      -658.231          46.000  
G09  20462856.213 1 107533036.860 3      -586.907          43.000    20462859.994 1  83791999.729 2      -457.167          44.000  
G11  20534614.865 1 107910133.633 2       809.253          45.000    20534616.747 1  84085844.338 2       630.688          46.000  
C07  34913158.065 1 181801976.519 1     -1283.850          45.000    34913154.040 1 140580799.127 2      -992.883          47.000  
C08  35976996.642 1 187341668.731 2      -462.296          42.000    35976993.941 1 144864451.418 2      -357.312          48.000  
C10  35281061.170 1 183717738.342 2      -925.341          45.000    35281060.415 1 142062209.000 2      -716.053          47.000  
C27  21781350.322 1 113421194.785 2     -2515.850          47.000                                                                  
C30  20639026.456 1 107472825.303 1        95.989          51.000                                                                  
C13  37032852.877 1 192839784.952 2      -306.028          42.000    37032860.564 1 149115987.459 2      -235.716          46.000  
R02  18665065.496 1  99600369.612 1      1174.518          52.000    18665070.439 1  77466994.328 2       913.481          46.000  
R16  22387963.035 2 119592478.494 3     -1381.609          48.000    22387973.090 2  93016465.062 4     -1074.959          42.000  
R15  22544102.124 9               9     -3777.002          31.000    22544127.260 9               9     -2939.828          32.000  
R01  19293380.763 1 103134175.801 2     -2982.538          47.000                                                                  
R24  19425378.652 1 103876227.749 3     -2063.835          49.000    19425382.178 1  80792632.786 2     -1605.521          47.000  
R17  19125020.184 1 102341853.234 2      1114.479          51.000    19125022.055 1  79599237.960 2       866.711          47.000  
G12  22169577.232 1 116501910.738 4     -1003.329          41.000    22169581.920 1  90780729.472 3      -782.783          43.000  
G17  21490186.538 1 112931676.965 3     -3581.339          43.000    21490192.924 1  87998743.683 2     -2789.935          42.000  
G19  19307102.125 1 101459504.836 2     -2628.286          46.000                                                                  
G20  20816677.770 1 109392385.776 3      1351.600          43.000                                                                  
J02  36153844.515 1 189989729.817 4     -1010.297          40.000    36153854.940 1 148043989.854 2      -786.708          44.000  
J04  36481023.864 1 191709075.980 2     -1118.172          44.000    36481026.700 1 149383709.295 2      -871.087          46.000  
C29  23796974.494 1 123917088.663 3      2029.348          42.000                                                                  
C32  20970058.842 1 109196600.083 1       -68.441          51.000                                                                  
R18  22259634.818 2 118823442.603 4      2442.386          44.000    22259645.413 2  92418316.577 5      1899.696          43.000  
R03  22024456.827 8 117898641.71036      3672.442          43.000    22024485.376 8  91699061.98736      2857.119          40.000  
J07  36248523.110 1 190487264.604 3      -745.301          37.000    36248527.879 1 148431661.944 2      -581.406          46.000  
J03  37877760.705 1 199048977.232 1      -389.294          47.000    37877762.531 1 155103105.022 2      -302.850          46.000  
E11  24471131.321 1 128596673.909 3       603.972          39.000    24471136.399 1  98535146.005 2       463.161          47.000  
E16  24535574.743 1 128935310.156 3     -2262.041          39.000    24535585.492 1  98794611.885 2     -1733.643          49.000  
E19  23554922.750 1 123781961.096 3      -125.868          38.000    23554930.495 1  94845947.890 1       -96.303          46.000  
E24  25317254.929 2 133043059.610 5     -3203.523          41.000    25317267.882 1 101942137.101 3     -2453.387          50.000  
S28  37799213.866 2 198636212.079 6      -739.880          38.000  
E10  22974406.929 1 120731331.362 1      -281.021          47.000    22974413.289 1  92508453.452 1      -215.356          51.000  
E04  25060369.620 1 131693135.403 3      2074.141          42.000    25060384.465 1 100907793.962 2      1588.481          48.000  
E12  23239263.997 1 122123147.877 2     -1194.274          43.000    23239267.764 1  93574899.900 1      -915.026          47.000  
E33  26064308.383 9               9     -2543.483          27.000    26064317.344 8               9     -1953.488          27.000  
G25  23496281.238 1 123473787.577 3       399.940          37.000    23496290.873 4  96213392.200 5       311.848          35.000  
E06  26610021.809 2 139836605.399 7      2293.367          36.000                                                                  
E25  24900536.298 1 130853191.848 4     -1103.854          41.000    24900547.773 1 100264179.622 3      -845.125          49.000  
E29                                                                  26274506.207 8               9     -1764.496          38.000  
G04                                                                  22188782.547 9               9     -1858.859          24.000  
G05                                                                  23987760.004 9               9      2022.070          23.000  
> 2025 04 25 07 09 38.9970000  0 44                     
S29  37322961.449 1 196133484.243 4      -738.698          39.000  
S37  36248660.999 1 190487999.106 2      -743.978          41.000  
G06  19771365.902 1 103899227.893 1      -845.417          48.000    19771370.168 1  80960454.333 2      -659.631          46.000  
G09  20462967.817 1 107533623.507 3      -586.298          43.000    20462971.677 1  83792456.867 2      -456.952          45.000  
G11  20534461.079 1 107909325.582 2       807.407          45.000    20534463.129 1  84085214.673 2       628.671          46.000  
C07  34913404.629 1 181803260.489 2     -1284.314          45.000    34913400.591 1 140581791.934 2      -992.865          48.000  
C08  35977085.605 1 187342131.218 2      -462.934          42.000    35977082.823 1 144864809.024 2      -357.528          49.000  
C10  35281239.057 1 183718664.071 1      -926.213          44.000    35281238.182 1 142062924.842 2      -716.654          47.000  
C27  21781833.229 1 113423709.888 2     -2514.165          47.000                                                                  
C30  20639008.047 1 107472729.996 1        94.592          51.000                                                                  
C13  37032911.562 1 192840090.708 3      -305.702          43.000    37032919.261 1 149116223.954 2      -237.440          48.000  
R02  18664845.345 1  99599195.050 1      1174.602          53.000    18664850.429 1  77466080.763 1       914.183          46.000  
R16  22388221.982 2 119593862.172 4     -1385.963          45.000    22388232.197 2  93017541.256 5     -1077.843          42.000  
R15  22544805.870 8               9     -3774.088          39.000    22544828.375 8  93701010.08137     -2934.979          38.000  
R01  19293938.705 1 103137158.273 3     -2983.251          47.000    19293518.871 9               9     -2107.018          10.000  
R24  19425764.661 1 103878291.729 2     -2063.819          51.000    19425768.092 1  80794238.061 2     -1604.530          46.000  
R17  19124812.087 1 102340740.143 2      1111.992          51.000    19124814.130 1  79598372.212 2       865.239          47.000  
G12  22169768.480 1 116502916.048 4     -1006.815          39.000    22169773.215 1  90781512.793 2      -784.729          42.000  
G17  21490867.828 1 112935257.182 4     -3578.227          42.000    21490874.200 1  88001533.521 3     -2789.237          42.000  
G19  19307602.067 1 101462132.094 1     -2627.084          46.000                                                                  
G20  20816420.737 1 109391034.978 2      1350.454          44.000                                                                  
J02  36154036.508 1 189990739.059 3     -1007.659          41.000    36154047.158 1 148044776.279 2      -785.998          43.000  
J04  36481236.467 1 191710193.559 2     -1116.628          44.000    36481239.363 1 149384580.187 2      -870.670          45.000  
C29  23796584.885 1 123915060.017 2      2026.870          43.000                                                                  
C32  20970071.966 1 109196668.526 1       -67.993          51.000                                                                  
R18  22259177.391 2 118821000.916 4      2439.998          43.000    22259187.967 2  92416417.450 5      1897.881          39.000  
R03  22023771.163 8 117894970.90736      3676.292          39.000    22023801.392 8  91696214.40637      2859.951          36.000  
J07  36248664.768 1 190488009.482 3      -744.312          37.000    36248669.670 1 148432242.348 2      -579.558          47.000  
J03  37877834.688 1 199049366.315 1      -388.403          46.000    37877836.511 1 155103408.229 2      -303.113          47.000  
E11  24471016.597 1 128596070.528 4       601.960          40.000    24471021.492 1  98534683.678 2       461.317          47.000  
E16  24536005.466 1 128937573.288 4     -2264.641          41.000    24536016.089 1  98796345.919 1     -1734.801          51.000  
E19  23554946.491 1 123782086.386 3      -124.833          38.000    23554954.206 1  94846043.903 1       -95.584          45.000  
E24  25317864.625 2 133046262.720 6     -3203.773          38.000    25317877.317 1 101944591.484 2     -2454.613          48.000  
S28  37799354.739 2 198636952.389 7      -739.674          35.000  
E10  22974460.527 1 120731613.232 1      -282.617          47.000    22974466.980 1  92508669.426 1      -216.582          51.000  
E04  25059974.829 1 131691060.747 3      2075.908          42.000    25059989.732 1 100906204.291 2      1590.679          48.000  
E12  23239491.044 1 122124342.283 2     -1195.009          43.000    23239495.230 1  93575815.072 2      -915.852          48.000  
E33  26064793.094 8               9     -2552.954          28.000    26064801.167 8               9     -1955.575          28.000  
G25  23496205.504 1 123473389.305 4       396.323          38.000    23496215.563 4  96213074.83714       309.191          35.000  
E06  26609585.265 2 139834310.453 7      2295.854          36.000                                                                  
E25  24900746.559 1 130854296.215 3     -1106.032          42.000    24900757.824 1 100265025.813 2      -847.208          48.000  
E29                                                                  26274944.847 4               9     -1767.391          34.000  
G04                                                                  22189232.426 9  90861196.80617     -1856.406          36.000  
G05                                                                  23987267.134 9               9      2022.806          24.000  
> 2025 04 25 07 09 39.9970000  0 44                     
S29  37323101.966 1 196134222.927 3      -738.248          39.000  
S37  36248802.420 1 190488742.274 3      -741.931          40.000  
G06  19771527.140 1 103900074.349 1      -847.173          49.000    19771531.158 1  80961113.835 2      -660.196          46.000  
G09  20463079.420 1 107534209.666 2      -586.530          42.000    20463083.224 1  83792913.539 2      -455.995          44.000  
G11  20534307.763 1 107908520.044 2       804.030          45.000    20534309.817 1  84084586.990 1       626.378          46.000  
C07  34913651.200 1 181804544.478 2     -1284.503          46.000    34913647.151 1 140582784.790 1      -992.340          47.000  
C08  35977174.609 1 187342594.603 3      -464.227          41.000    35977171.852 1 144865167.412 2      -359.002          49.000  
C10  35281416.978 1 183719590.620 1      -927.098          45.000    35281416.065 1 142063641.295 2      -716.334          46.000  
C27  21782315.892 1 113426223.432 2     -2512.711          46.000                                                                  
C30  20638989.934 1 107472636.106 1        92.874          51.000                                                                  
C13  37032970.408 1 192840397.316 3      -306.019          42.000    37032978.090 1 149116460.998 1      -237.084          48.000  
R02  18664625.121 1  99598019.948 1      1175.731          52.000    18664630.182 1  77465166.823 1       914.274          47.000  
R16  22388481.940 2 119595250.145 3     -1390.573          49.000    22388491.938 2  93018620.763 3     -1081.291          42.000  
R15  22545511.181 8 120476383.53138     -3786.624          34.000    22545528.678 8  93703947.22625     -2937.474          38.000  
R01  19294496.850 1 103140141.944 2     -2984.145          49.000    19294020.534 9               9     -2107.018          12.000  
R24  19426150.481 1 103880355.020 2     -2062.781          51.000    19426153.919 1  80795842.878 2     -1604.291          47.000  
R17  19124604.558 1 102339629.555 1      1108.825          52.000    19124606.640 1  79597508.414 2       862.699          47.000  
G12  22169960.453 1 116503924.769 3     -1010.774          41.000    22169965.226 1  90782298.878 3      -788.721          43.000  
G17  21491548.574 1 112938835.064 3     -3575.701          42.000    21491555.097 1  88004321.450 2     -2787.029          42.000  
G19  19308101.763 1 101464758.431 2     -2625.791          46.000                                                                  
G20  20816163.958 1 109389685.587 3      1348.848          44.000                                                                  
J02  36154228.178 1 189991746.237 4     -1006.954          40.000    36154238.795 1 148045561.066 3      -783.019          44.000  
J04  36481448.846 1 191711309.545 2     -1115.019          43.000    36481451.758 1 149385449.745 2      -868.649          45.000  
C29  23796195.982 1 123913034.836 3      2023.028          44.000                                                                  
C32  20970085.040 1 109196736.780 1       -68.305          50.000                                                                  
R18  22258720.645 2 118818562.640 5      2437.130          44.000    22258731.215 2  92414521.232 6      1893.702          40.000  
R03  22023084.945 8 117891295.05227      3677.627          42.000    22023112.840 8  91693355.37126      2859.438          38.000  
J07  36248806.139 1 190488752.644 3      -741.822          37.000    36248811.091 1 148432821.436 2      -578.478          46.000  
J03  37877908.656 1 199049755.095 1      -388.666          46.000    37877910.523 1 155103711.169 2      -302.942          47.000  
E11  24470902.272 1 128595469.790 3       599.304          40.000    24470907.190 1  98534223.393 2       458.960          47.000  
E16  24536436.416 1 128939838.267 3     -2266.634          41.000    24536447.070 1  98798081.438 2     -1736.481          50.000  
E19  23554970.224 1 123782210.756 3      -123.455          38.000    23554977.887 1  94846139.222 2       -95.011          45.000  
E24  25318474.470 1 133049465.906 5     -3203.674          40.000    25318486.950 1 101947045.878 2     -2454.717          48.000  
S28  37799495.740 1 198637693.226 5      -741.603          36.000  
E10  22974514.558 1 120731896.928 1      -284.879          47.000    22974520.959 1  92508886.803 1      -218.176          51.000  
E04  25059579.310 1 131688983.460 2      2079.119          43.000    25059594.537 1 100904612.612 2      1592.606          48.000  
E12  23239718.634 1 122125537.370 2     -1195.723          43.000    23239722.774 1  93576730.812 1      -916.023          48.000  
E33  26065278.721 9 136973963.25617     -2550.736          28.000    26065287.694 9               9     -1951.067          27.000  
G25  23496130.615 1 123472995.291 3       390.994          40.000    23496142.466 4  96212767.767 3       304.851          35.000  
E06  26609147.933 2 139832013.042 7      2299.976          32.000                                                                  
E25  24900957.339 1 130855403.763 3     -1110.556          41.000    24900968.761 1 100265874.454 1      -850.164          49.000  
E29                                                                  26275384.110 9               9     -1765.404          31.000  
G04                                                                  22189686.133 8               9     -1858.579          30.000  
G05                                                                  23986774.663 9               7      2018.147          30.000  
> 2025 04 25 07 09 40.9970000  0 44                     
S29  37323242.548 1 196134961.787 3      -738.485          40.000  
S37  36248943.457 1 190489483.612 3      -740.772          39.000  
G04  22190135.663 8 116609949.78738     -2385.377          31.000    22190141.472 8  90864912.095 8     -1862.282          23.000  
G06  19771688.476 1 103900921.979 1      -847.382          48.000    19771692.348 1  80961774.357 1      -660.452          45.000  
G09  20463190.781 1 107534795.081 3      -585.162          43.000    20463194.634 1  83793369.776 2      -455.715          42.000  
G11  20534154.951 1 107907717.072 2       802.675          44.000    20534157.073 1  84083961.290 1       625.159          45.000  
C07  34913897.781 1 181805828.466 2     -1283.270          46.000    34913893.771 1 140583777.669 1      -992.279          47.000  
C08  35977263.789 1 187343058.947 2      -464.077          41.000    35977260.986 1 144865526.411 1      -358.850          47.000  
C10  35281595.016 1 183720518.010 1      -927.020          44.000    35281594.107 1 142064358.426 1      -717.120          46.000  
C27  21782798.265 1 113428735.246 2     -2511.013          46.000                                                                  
C30  20638972.217 1 107472543.649 1        92.648          51.000                                                                  
C13  37033029.356 1 192840704.766 3      -307.232          44.000    37033037.047 1 149116698.754 1      -237.247          46.000  
R02  18664404.806 1  99596844.236 1      1175.891          52.000    18664409.852 1  77464252.371 2       915.102          47.000  
R16  22388742.582 2 119596642.477 3     -1391.765          45.000    22388752.634 2  93019703.800 3     -1083.949          43.000  
R15  22546216.370 9 120480143.64738     -3776.928          40.000    22546236.983 8  93706886.07825     -2942.474          31.000  
R01  19295055.334 1 103143126.861 1     -2984.881          49.000    19294524.102 9               9     -2107.018          11.000  
R24  19426536.166 1 103882417.582 2     -2061.866          49.000    19426539.585 1  80797447.076 2     -1603.078          45.000  
R17  19124397.404 1 102338521.472 2      1108.627          51.000    19124399.504 1  79596646.605 1       862.146          46.000  
G12  22170153.042 1 116504936.988 3     -1013.002          41.000    22170157.849 1  90783087.541 2      -789.419          41.000  
G17  21492228.940 1 112942410.394 3     -3573.822          42.000    21492235.368 1  88007107.419 3     -2785.337          40.000  
G19  19308601.273 1 101467383.768 2     -2624.963          46.000                                                                  
G20  20815907.325 1 109388337.530 3      1348.630          44.000                                                                  
J02  36154419.397 1 189992751.309 3     -1003.911          41.000    36154429.949 1 148046344.264 2      -782.953          42.000  
J04  36481660.902 1 191712423.742 2     -1113.815          44.000    36481663.801 1 149386317.972 2      -867.478          44.000  
C29  23795807.840 1 123911013.058 3      2020.811          43.000                                                                  
C32  20970098.060 1 109196804.713 1       -67.461          50.000                                                                  
R18  22258264.549 2 118816128.122 4      2434.109          45.000    22258275.097 2  92412627.539 6      1891.881          39.000  
R03  22022397.473 4 117887617.20825      3679.006          43.000    22022425.209 8  91690484.93035      2862.469          34.000  
J07  36248947.260 1 190489493.991 3      -740.930          37.000    36248952.084 1 148433399.093 2      -576.659          44.000  
J03  37877982.573 1 199050143.508 1      -388.061          47.000    37877984.369 1 155104013.819 1      -302.210          44.000  
E11  24470788.403 1 128594871.821 3       597.418          40.000    24470793.277 1  98533765.188 2       458.063          46.000  
E16  24536867.512 1 128942105.022 2     -2267.302          41.000    24536878.552 1  98799818.282 1     -1736.956          51.000  
E19  23554993.773 1 123782334.206 4      -123.908          38.000    23555001.207 1  94846233.732 2       -93.827          46.000  
E24  25319083.634 1 133052669.083 3     -3202.621          40.000    25319096.377 1 101949500.255 1     -2454.250          48.000  
S28  37799636.903 1 198638434.620 5      -740.205          36.000  
E10  22974568.831 1 120732182.467 1      -285.648          47.000    22974575.147 1  92509105.611 1      -219.100          50.000  
E04  25059183.500 1 131686903.382 3      2081.530          41.000    25059198.737 1 100903018.808 1      1594.628          47.000  
E12  23239946.072 1 122126733.208 2     -1196.326          43.000    23239950.091 1  93577647.074 1      -916.051          47.000  
E33  26065765.035 8 136976519.407 8     -2548.796          27.000    26065775.262 8 104956074.98218     -1952.912          32.000  
G25  23496056.522 1 123472605.467 3       388.619          38.000    23496068.474 4  96212463.989 5       303.553          35.000  
E06  26608710.255 2 139829713.081 7      2299.996          34.000                                                                  
E25  24901168.801 1 130856514.439 3     -1110.942          41.000    24901180.160 1 100266725.480 1      -851.416          49.000  
E29                                                                  26275821.049 8               9     -1769.190          25.000  
G05                                                                  23986280.958 9               9      2019.373          25.000  
> 2025 04 25 07 09 41.9970000  0 44                     
S29  37323383.078 1 196135700.365 3      -738.425          41.000  
S37  36249084.457 1 190490224.470 2      -741.212          39.000  
G06  19771849.762 1 103901769.717 1      -847.494          48.000    19771853.786 1  80962434.968 1      -660.613          45.000  
G09  20463302.208 1 107535380.819 2      -586.339          43.000    20463306.060 1  83793826.125 2      -456.437          43.000  
G11  20534002.172 1 107906914.328 2       803.679          44.000    20534004.282 1  84083335.774 2       625.768          45.000  
C07  34914144.378 1 181807112.313 1     -1283.771          45.000    34914140.341 1 140584770.452 1      -992.993          47.000  
C08  35977352.754 1 187343523.185 2      -463.940          42.000    35977350.125 1 144865885.377 1      -358.016          47.000  
C10  35281773.057 1 183721445.358 1      -926.818          45.000    35281772.170 1 142065075.507 1      -716.663          46.000  
C27  21783280.593 1 113431246.853 2     -2512.146          46.000                                                                  
C30  20638954.605 1 107472451.412 1        92.683          51.000                                                                  
C13  37033088.374 1 192841012.050 2      -306.807          43.000    37033096.111 1 149116936.412 1      -237.418          47.000  
R02  18664184.488 1  99595668.855 1      1174.763          52.000    18664189.541 1  77463338.175 1       913.525          45.000  
R16  22389003.403 2 119598035.874 3     -1392.728          48.000    22389013.460 2  93020787.526 3     -1083.335          40.000  
R15  22546925.895 8 120483922.29027     -3774.846          37.000    22546945.581 8  93709809.25836     -2937.223          35.000  
R01  19295613.754 1 103146112.307 1     -2985.252          48.000                                                                  
R24  19426921.910 1 103884480.177 2     -2063.830          50.000    19426925.387 1  80799051.297 1     -1604.478          44.000  
R17  19124190.547 1 102337413.771 1      1108.594          51.000    19124192.459 1  79595785.049 1       861.786          45.000  
G12  22170345.792 1 116505950.004 3     -1012.228          42.000    22170350.653 1  90783876.912 3      -788.623          40.000  
G17  21492909.210 1 112945985.401 2     -3575.941          43.000    21492915.723 1  88009893.077 2     -2786.109          41.000  
G19  19309100.920 1 101470009.180 1     -2625.508          46.000                                                                  
G20  20815650.814 1 109386989.715 2      1347.165          43.000                                                                  
J02  36154610.649 1 189993755.804 3     -1004.657          41.000    36154621.128 1 148047127.018 2      -783.470          41.000  
J04  36481872.828 1 191713537.448 2     -1113.863          44.000    36481875.702 1 149387185.793 1      -868.032          43.000  
C29  23795419.554 1 123908991.483 2      2022.633          43.000                                                                  
C32  20970111.195 1 109196872.795 1       -68.313          50.000                                                                  
R18  22257808.404 2 118813693.588 3      2435.123          46.000    22257819.020 2  92410734.074 4      1894.417          41.000  
R03  22021709.834 4 117883939.02426      3677.964          39.000    22021736.581 4  91687624.16425      2860.547          39.000  
J07  36249088.223 1 190490234.836 3      -741.168          37.000    36249092.987 1 148433976.390 1      -577.045          44.000  
J03  37878056.507 1 199050531.533 1      -388.165          47.000    37878058.205 1 155104316.164 1      -302.124          44.000  
E11  24470674.802 1 128594273.918 3       598.434          40.000    24470679.587 1  98533307.102 2       458.529          47.000  
E16  24537299.255 1 128944372.075 3     -2266.776          42.000    24537309.829 1  98801555.358 1     -1736.575          50.000  
E19  23555017.252 1 123782457.556 3      -124.469          39.000    23555024.741 1  94846328.242 2       -94.594          46.000  
E24  25319693.311 1 133055872.216 2     -3202.769          40.000    25319705.698 1 101951954.622 1     -2453.957          47.000  
S28  37799777.957 1 198639175.747 4      -740.004          37.000  
E10  22974623.114 1 120732468.072 1      -284.752          47.000    22974629.731 1  92509324.435 1      -218.259          51.000  
E04  25058787.605 1 131684822.790 2      2079.734          42.000    25058802.679 1 100901424.607 1      1593.775          47.000  
E12  23240173.537 1 122127928.940 2     -1195.673          43.000    23240177.608 1  93578563.303 1      -915.979          47.000  
E33  26066251.497 8               9     -2549.106          28.000    26066257.904 4 104958028.146 6     -1951.733          37.000  
G25  23495982.438 1 123472216.459 3       390.336          40.000    23495994.493 4  96212160.875 6       304.423          32.000  
E06  26608273.001 2 139827412.106 7      2299.106          33.000                                                                  
E25  24901380.053 1 130857625.652 4     -1110.807          41.000    24901391.679 1 100267576.920 2      -850.689          49.000  
E29                                                                  26276260.110 4 105803610.99817     -1765.606          34.000  
G04                                                                  22190593.746 9  90866771.78417     -1858.539          32.000  
G05                                                                  23985790.419 9               9      2023.717          25.000  
> 2025 04 25 07 09 42.9970000  0 44                     
S29  37323523.493 1 196136438.811 3      -738.179          40.000  
S37  36249225.643 1 190490966.315 2      -743.175          39.000  
G04  22191043.171 8               9     -2382.936          28.000    22191048.102 8  90868629.974 8     -1858.390          29.000  
G06  19772010.931 1 103902617.018 1      -847.268          48.000    19772015.003 1  80963095.148 2      -659.972          45.000  
G09  20463413.956 1 107535967.770 2      -587.539          44.000    20463417.758 1  83794283.580 2      -458.616          44.000  
G11  20533849.083 1 107906110.233 2       804.980          45.000    20533851.395 1  84082709.230 1       627.010          47.000  
C07  34914390.947 1 181808396.286 1     -1284.149          46.000    34914386.956 1 140585763.281 1      -993.103          48.000  
C08  35977441.769 1 187343986.927 3      -463.591          42.000    35977439.202 1 144866243.995 1      -358.211          49.000  
C10  35281951.106 1 183722372.378 2      -927.439          45.000    35281950.248 1 142065792.311 1      -716.376          47.000  
C27  21783763.140 1 113433759.797 1     -2513.702          46.000                                                                  
C30  20638936.854 1 107472358.698 1        93.259          51.000                                                                  
C13  37033147.426 1 192841319.067 2      -307.354          42.000    37033155.035 1 149117173.771 1      -236.943          48.000  
R02  18663964.570 1  99594495.032 1      1172.710          52.000    18663969.643 1  77462425.240 1       911.871          47.000  
R16  22389264.020 2 119599427.665 3     -1391.068          48.000    22389273.992 2  93021869.962 4     -1080.856          42.000  
R15  22547632.772 8 120487712.35936     -3780.495          41.000    22547651.771 8  93712744.59527     -2938.876          36.000  
R01  19296172.248 1 103149098.075 2     -2985.557          47.000                                                                  
R24  19427307.798 1 103886543.663 2     -2064.943          49.000    19427311.222 1  80800656.264 1     -1605.880          45.000  
R17  19123983.335 1 102336304.758 2      1109.502          52.000    19123985.131 1  79594922.477 2       863.208          47.000  
G12  22170538.307 1 116506961.825 3     -1010.815          42.000    22170543.209 1  90784665.334 3      -787.841          42.000  
G17  21493589.941 1 112949562.322 2     -3578.478          41.000    21493596.373 1  88012680.275 2     -2787.836          42.000  
G19  19309600.833 1 101472636.042 2     -2627.744          46.000                                                                  
G20  20815394.316 1 109385641.450 2      1348.618          42.000                                                                  
J02  36154802.040 1 189994761.681 3     -1007.230          41.000    36154812.523 1 148047910.773 2      -784.359          43.000  
J04  36482084.966 1 191714652.234 2     -1115.755          44.000    36482087.786 1 149388054.454 2      -869.351          45.000  
C29  23795030.730 1 123906967.804 3      2025.753          42.000                                                                  
C32  20970124.396 1 109196941.835 1       -69.862          50.000                                                                  
R18  22257351.985 2 118811256.813 3      2438.638          44.000    22257362.553 2  92408838.843 4      1895.427          43.000  
R03  22021023.583 4               9      3674.505          30.000    22021049.034 8               9      2860.655          28.000  
J07  36249229.462 1 190490976.679 3      -743.187          37.000    36249234.218 1 148434554.452 1      -578.854          46.000  
J03  37878130.345 1 199050919.544 1      -388.348          47.000    37878132.110 1 155104618.513 1      -302.667          46.000  
E11  24470560.412 1 128593674.450 3       600.742          40.000    24470565.347 1  98532847.743 2       460.001          47.000  
E16  24537730.683 1 128946638.599 3     -2266.577          41.000    24537741.213 1  98803292.043 1     -1736.285          51.000  
E19  23555041.305 1 123782582.198 5      -125.719          38.000    23555048.554 1  94846423.752 2       -95.182          47.000  
E24  25320302.632 1 133059075.582 3     -3202.611          42.000    25320315.221 1 101954409.117 1     -2454.577          49.000  
S28  37799919.027 1 198639916.412 4      -739.779          38.000  
E10  22974677.219 1 120732752.613 1      -284.018          47.000    22974683.803 1  92509542.458 1      -217.569          52.000  
E04  25058392.426 1 131682743.980 2      2077.119          43.000    25058406.876 1 100899831.779 1      1591.562          48.000  
E12  23240401.138 1 122129124.291 2     -1195.147          44.000    23240405.159 1  93579479.235 1      -915.925          48.000  
E33  26066730.910 8 136981594.97417     -2552.362          28.000    26066740.576 4 104959962.24117     -1955.760          30.000  
G25  23495908.159 1 123471825.780 3       392.389          39.000    23495920.086 2  96211856.534 5       304.957          35.000  
E06  26607835.682 2 139825112.674 7      2297.785          34.000                                                                  
E25  24901591.368 1 130858735.580 3     -1108.888          41.000    24901602.683 1 100268427.443 1      -849.726          49.000  
E29                                                                  26276698.800 4               9     -1762.665          30.000  
G05                                                                  23985299.207 9               9      2016.557          25.000  
> 2025 04 25 07 09 43.9970000  0 44                     
S29  37323664.092 1 196137177.689 4      -738.416          38.000  
S37  36249367.351 1 190491711.127 2      -746.725          41.000  
G04  22191497.218 8               9     -2387.233          32.000    22191502.019 8               9     -1855.862          31.000  
G06  19772172.013 1 103903463.716 1      -846.253          48.000    19772176.101 1  80963754.916 2      -659.518          47.000  
G09  20463526.263 1 107536557.648 3      -590.597          44.000    20463530.032 1  83794743.246 2      -461.104          44.000  
G11  20533695.622 1 107905303.614 2       808.483          45.000    20533697.899 1  84082080.686 2       629.629          48.000  
C07  34914637.672 1 181809681.080 1     -1284.888          46.000    34914633.648 1 140586756.780 2      -993.610          49.000  
C08  35977530.729 1 187344450.277 3      -463.025          42.000    35977528.177 1 144866602.269 1      -357.528          49.000  
C10  35282129.004 1 183723299.076 1      -926.437          45.000    35282128.189 1 142066508.904 1      -716.477          49.000  
C27  21784246.508 1 113436276.296 2     -2518.779          46.000                                                                  
C30  20638918.948 1 107472265.383 1        93.932          51.000                                                                  
C13  37033206.204 1 192841625.679 2      -305.781          42.000    37033214.022 1 149117410.873 2      -236.474          48.000  
R02  18663745.307 1  99593324.487 1      1168.971          52.000    18663750.294 1  77461514.807 2       909.046          51.000  
R16  22389523.972 2 119600815.803 3     -1385.730          49.000    22389533.942 2  93022949.642 4     -1077.020          46.000  
R01  19296730.871 1 103152084.545 2     -2986.876          49.000                                                                  
R24  19427694.234 1 103888609.615 2     -2066.479          51.000    19427697.649 1  80802263.112 1     -1607.669          50.000  
R17  19123775.586 1 102335193.471 2      1112.873          51.000    19123777.528 1  79594058.153 2       865.182          50.000  
G12  22170730.396 1 116507970.941 4     -1006.951          41.000    22170735.311 1  90785451.682 2      -784.910          41.000  
G17  21494271.521 1 112953143.943 2     -3583.906          43.000    21494277.903 1  88015471.171 3     -2793.150          43.000  
G19  19310101.346 1 101475266.151 2     -2631.557          46.000                                                                  
G20  20815137.552 1 109384292.658 3      1349.471          44.000                                                                  
J02  36154994.218 1 189995771.135 3     -1011.727          39.000    36155004.632 1 148048697.394 2      -788.767          45.000  
J04  36482297.717 1 191715770.006 2     -1119.571          44.000    36482300.494 1 149388925.454 1      -872.451          47.000  
C29  23794641.245 1 123904940.159 2      2030.279          43.000                                                                  
C32  20970138.045 1 109197013.090 1       -72.735          50.000                                                                  
R18  22256894.680 2 118808815.436 4      2444.771          42.000    22256905.334 4  92406900.00336      1901.048          44.000  
R03  22020336.765 8               9      3684.681          33.000    22020361.955 8  91681893.95836      2856.164          41.000  
J07  36249371.203 1 190491721.520 3      -747.003          37.000    36249376.063 1 148435134.849 2      -581.652          47.000  
J03  37878204.390 1 199051308.408 2      -388.916          47.000    37878206.230 1 155104921.554 2      -303.693          48.000  
E11  24470446.052 1 128593071.974 3       604.710          40.000    24470450.764 1  98532386.104 2       463.064          47.000  
E16  24538161.682 1 128948904.076 4     -2265.370          42.000    24538172.310 1  98805027.930 2     -1735.287          51.000  
E19  23555065.480 1 123782709.670 5      -128.938          36.000    23555072.630 1  94846521.497 4       -99.385          44.000  
E24  25320912.220 1 133062279.955 4     -3204.936          39.000    25320925.231 1 101956864.399 2     -2455.195          48.000  
S28  37800059.977 1 198640657.070 5      -739.800          36.000  
E10  22974731.214 1 120733035.401 1      -281.467          47.000    22974737.657 1  92509759.135 1      -215.444          51.000  
E04  25057997.624 1 131680669.713 2      2071.608          41.000    25058012.069 1 100898242.415 1      1587.387          48.000  
E12  23240628.425 1 122130319.428 2     -1194.744          44.000    23240632.545 1  93580394.990 1      -914.921          47.000  
E33  26067217.199 9               9     -2554.301          26.000    26067228.777 4               7     -1955.981          34.000  
G25  23495833.081 1 123471431.171 3       396.918          39.000    23495844.900 2  96211549.019 6       310.121          35.000  
E06  26607398.417 2 139822817.301 5      2291.883          35.000                                                                  
E25  24901801.945 1 130859842.954 3     -1105.429          41.000    24901813.491 1 100269275.933 1      -847.317          49.000  
E29                                                                  26277137.568 8 105807144.09318     -1767.065          27.000  
R15                                                                  22548355.021 8  93715681.63628     -2935.851          38.000  
G05                                                                  23984805.319 9               9      2026.527          24.000  
> 2025 04 25 07 09 44.9970000  0 44                     
S29  37323804.787 1 196137916.747 4      -738.519          40.000  
S37  36249509.623 1 190492458.826 3      -748.542          40.000  
G06  19772333.013 1 103904309.619 1      -845.539          48.000    19772337.017 1  80964414.090 2      -659.208          46.000  
G09  20463639.085 1 107537150.405 3      -593.832          42.000    20463642.862 1  83795205.118 2      -463.197          43.000  
G11  20533541.623 1 107904494.185 2       810.793          44.000    20533543.803 1  84081449.966 2       631.710          46.000  
C07  34914884.511 1 181810966.599 1     -1286.011          46.000    34914880.516 1 140587750.775 1      -993.738          48.000  
C08  35977619.607 1 187344912.968 3      -462.201          42.000    35977617.073 1 144866960.086 1      -357.711          48.000  
C10  35282306.944 1 183724225.321 2      -925.867          45.000    35282306.025 1 142067225.140 1      -715.918          47.000  
C27  21784730.525 1 113438796.156 2     -2520.759          47.000                                                                  
C30  20638900.778 1 107472171.145 1        94.900          51.000                                                                  
C13  37033264.885 1 192841931.781 3      -305.826          43.000    37033272.843 1 149117647.577 3      -236.422          46.000  
R02  18663526.475 1  99592157.163 2      1165.618          52.000    18663531.449 1  77460606.888 1       906.873          49.000  
R16  22389783.068 2 119602199.991 3     -1382.645          48.000    22389793.041 2  93024026.231 4     -1075.396          44.000  
R15  22549042.856 8               9     -3776.999          42.000    22549059.024 8               9     -2936.811          43.000  
R01  19297289.578 1 103155071.395 2     -2987.145          48.000    19296550.628 9               9     -2107.018          13.000  
R24  19428081.018 1 103890677.946 2     -2068.470          50.000    19428084.481 1  80803871.860 2     -1609.290          48.000  
R17  19123567.388 1 102334079.645 2      1114.763          52.000    19123569.430 1  79593191.855 2       866.566          49.000  
G12  22170921.890 1 116508977.194 4     -1005.953          40.000    22170926.767 1  90786235.722 3      -782.836          42.000  
G17  21494953.982 1 112956730.288 3     -3587.624          43.000    21494960.425 1  88018265.736 2     -2795.974          42.000  
G19  19310602.549 1 101477899.452 1     -2634.454          46.000                                                                  
G20  20814880.726 1 109382943.093 3      1349.958          44.000                                                                  
J02  36155186.976 1 189996784.118 3     -1013.338          41.000    36155197.429 1 148049486.773 2      -791.337          42.000  
J04  36482510.918 1 191716890.751 2     -1121.250          44.000    36482513.759 1 149389798.790 2      -874.523          46.000  
C29  23794250.913 1 123902908.065 3      2033.701          43.000                                                                  
C32  20970152.151 1 109197086.398 1       -74.303          50.000                                                                  
R18  22256436.424 2 118806369.303 4      2448.075          44.000    22256445.756 4  92404992.44725      1903.856          45.000  
R03  22019650.904 4 117872915.14837      3666.707          40.000    22019678.982 8  91679039.59926      2852.348          41.000  
J07  36249513.556 1 190492469.201 3      -748.810          37.000    36249518.367 1 148435717.480 2      -583.718          46.000  
J03  37878278.526 1 199051698.017 1      -389.874          47.000    37878280.389 1 155105225.122 2      -303.802          47.000  
E11  24470330.804 1 128592466.205 3       607.159          40.000    24470335.661 1  98531921.947 2       465.239          47.000  
E16  24538592.441 1 128951168.308 3     -2264.026          43.000    24538603.156 1  98806762.838 2     -1734.457          50.000  
E19  23555090.155 2 123782840.052 6      -130.242          39.000    23555097.671 1  94846621.405 3      -100.654          45.000  
E24  25321522.006 1 133065485.021 4     -3205.696          41.000    25321535.275 1 101959320.214 2     -2455.802          48.000  
S28  37800200.896 1 198641397.300 5      -739.105          38.000  
E10  22974784.718 1 120733316.184 1      -280.004          47.000    22974791.202 1  92509974.295 1      -214.478          51.000  
E04  25057603.722 1 131678600.078 2      2067.858          43.000    25057618.445 1 100896656.605 2      1584.602          47.000  
E12  23240856.116 1 122131514.168 2     -1194.448          44.000    23240859.784 1  93581310.438 1      -915.367          47.000  
E33  26067702.989 8 136986702.81718     -2556.200          30.000    26067715.684 4               9     -1962.474          34.000  
G25  23495757.051 1 123471032.242 3       401.052          38.000    23495768.889 2  96211238.301 7       310.914          35.000  
E06  26606961.931 2               9      2289.611          27.000                                                                  
E25  24902012.236 1 130860947.291 3     -1102.805          41.000    24902023.694 1 100270122.162 1      -845.670          50.000  
E29                                                                  26277576.646 8               9     -1763.902          28.000  
G04                                                                  22191959.559 8               9     -1861.528          31.000  
G05                                                                  23984312.250 9               9      2013.740          24.000  
> 2025 04 25 07 09 45.9970000  0 44                     
S29  37323945.416 1 196138656.003 4      -738.182          39.000  
S37  36249652.295 1 190493208.796 3      -751.324          40.000  
G04  22192403.762 8               9     -2385.517          28.000    22192410.790 8               9     -1857.182          31.000  
G06  19772493.855 1 103905154.912 1      -844.797          48.000    19772497.812 1  80965072.742 2      -658.392          47.000  
G09  20463752.302 1 107537745.495 3      -596.198          42.000    20463756.176 1  83795668.801 2      -464.524          45.000  
G11  20533387.106 1 107903682.487 2       812.568          45.000    20533389.337 1  84080817.476 2       633.119          46.000  
C07  34915131.507 1 181812252.588 1     -1286.334          46.000    34915127.498 1 140588745.209 2      -994.635          47.000  
C08  35977708.353 1 187345375.140 2      -461.983          41.000    35977705.870 1 144867317.460 1      -357.099          48.000  
C10  35282484.748 1 183725151.134 2      -925.550          45.000    35282483.817 1 142067941.039 1      -715.758          47.000  
C27  21785214.833 1 113441318.843 2     -2523.784          48.000                                                                  
C30  20638882.582 1 107472076.253 1        95.166          51.000                                                                  
C13  37033323.729 1 192842237.424 3      -305.572          43.000    37033331.577 1 149117883.920 2      -236.548          47.000  
R02  18663308.239 1  99590992.465 1      1163.389          53.000    18663313.210 1  77459701.001 2       905.232          48.000  
R16  22390041.562 2 119603581.024 3     -1378.874          48.000    22390051.577 2  93025100.374 3     -1073.095          44.000  
R15  22549748.633 4 120499020.67337     -3772.191          49.000    22549764.568 8               9     -2933.546          47.000  
R01  19297848.471 1 103158058.684 2     -2987.597          49.000    19297057.652 9               9     -2107.018          11.000  
R24  19428468.194 1 103892748.225 2     -2071.296          50.000    19428471.546 1  80805482.048 2     -1610.802          49.000  
R17  19123358.764 1 102332963.726 2      1117.357          51.000    19123360.926 1  79592323.912 2       868.991          49.000  
G12  22171112.898 1 116509981.019 4     -1002.541          40.000    22171117.765 1  90787017.940 2      -781.059          41.000  
G17  21495637.096 1 112960320.460 3     -3592.328          42.000    21495643.549 1  88021063.275 2     -2799.977          42.000  
G19  19311104.193 1 101480535.376 1     -2637.445          46.000                                                                  
G20  20814623.807 1 109381592.915 3      1350.605          44.000                                                                  
J02  36155380.302 1 189997800.002 3     -1017.870          41.000    36155390.680 1 148050278.291 2      -792.751          44.000  
J04  36482724.625 1 191718013.866 2     -1124.610          44.000    36482727.503 1 149390673.907 1      -876.318          46.000  
C29  23793859.936 1 123900872.379 3      2037.623          43.000                                                                  
C32  20970166.612 1 109197161.427 1       -75.962          50.000                                                                  
R18  22255977.443 2 118803919.159 4      2451.639          43.000    22255988.895 4  92403086.72925      1907.797          44.000  
R03  22018965.838 4 117869247.93527      3665.225          43.000    22018997.193 8               9      2851.823          41.000  
J07  36249656.229 1 190493219.188 3      -751.635          37.000    36249661.026 1 148436301.882 1      -585.638          46.000  
J03  37878352.734 1 199052088.128 1      -390.540          47.000    37878354.629 1 155105529.074 1      -303.638          47.000  
E11  24470214.845 1 128591857.763 4       609.991          40.000    24470219.918 1  98531455.722 2       467.453          47.000  
E16  24539023.161 1 128953431.449 3     -2263.253          41.000    24539033.891 1  98808496.934 1     -1733.578          51.000  
E19  23555115.528 1 123782972.880 4      -133.947          38.000    23555123.043 1  94846723.127 2      -102.125          45.000  
E24  25322132.069 1 133068690.692 5     -3204.092          38.000    25322145.302 1 101961776.622 2     -2457.350          46.000  
S28  37800341.773 2 198642136.34137      -738.834          35.000  
E10  22974837.821 1 120733595.306 2      -277.914          47.000    22974844.217 1  92510188.182 1      -213.124          51.000  
E04  25057210.319 1 131676534.083 2      2063.615          42.000    25057225.243 1 100895073.585 1      1581.381          48.000  
E12  23241083.237 1 122132708.541 2     -1194.153          43.000    23241087.254 1  93582225.603 1      -914.843          48.000  
G25  23495680.648 1 123470629.994 4       404.938          39.000    23495692.218 2  96210924.857 6       314.120          34.000  
E06  26606526.686 2 139818238.416 7      2286.876          33.000                                                                  
E25  24902222.016 1 130862049.359 3     -1100.766          41.000    24902233.234 1 100270966.560 2      -843.522          49.000  
E29                                                                  26278014.850 8               9     -1773.277          29.000  
E33                                                                  26068201.528 2 104965846.81117     -1962.612          35.000  
G05                                                                  23983815.878 9               9      2018.064          26.000  
> 2025 04 25 07 09 46.9970000  0 44                     
S29  37324086.051 1 196139395.094 3      -739.240          40.000  
S37  36249795.504 1 190493960.946 3      -753.660          40.000  
G04  22192858.023 4 116624255.17338     -2389.654          33.000    22192863.302 8  90876064.71217     -1859.811          38.000  
G06  19772654.571 1 103905999.501 1      -844.374          48.000    19772658.461 1  80965730.873 2      -658.119          46.000  
G09  20463866.034 1 107538343.022 3      -598.976          43.000    20463869.882 1  83796134.396 2      -466.710          44.000  
G11  20533232.184 1 107902868.282 2       815.023          45.000    20533234.386 1  84080183.016 2       635.039          46.000  
C07  34915378.579 1 181813538.970 2     -1286.694          45.000    34915374.552 1 140589739.930 1      -995.105          48.000  
C08  35977796.980 1 187345836.512 2      -461.120          42.000    35977794.401 1 144867674.237 2      -356.790          48.000  
C10  35282662.306 1 183726076.348 2      -925.000          45.000    35282661.490 1 142068656.466 1      -715.387          47.000  
C27  21785699.794 1 113443844.386 2     -2527.297          46.000                                                                  
C30  20638864.226 1 107471980.532 1        96.072          51.000                                                                  
C13  37033382.362 1 192842542.333 2      -304.552          42.000    37033390.064 1 149118119.722 2      -235.825          46.000  
R02  18663090.506 1  99589830.428 1      1160.483          53.000    18663095.494 1  77458797.216 2       902.480          49.000  
R16  22390299.427 2 119604958.651 3     -1376.225          49.000    22390309.600 2  93026171.777 4     -1070.265          43.000  
R15  22550454.422 4 120502791.76925     -3770.263          47.000    22550469.789 4  93724484.13615     -2931.958          44.000  
R01  19298407.472 1 103161046.412 2     -2987.753          48.000                                                                  
R24  19428855.689 1 103894820.460 2     -2073.443          51.000    19428859.005 1  80807093.752 2     -1612.351          48.000  
R17  19123149.756 1 102331845.649 2      1119.306          51.000    19123151.968 2  79591454.306 2       869.944          48.000  
G12  22171303.364 1 116510982.234 3      -999.633          40.000    22171308.128 1  90787798.095 3      -779.029          41.000  
G17  21496321.072 1 112963914.401 3     -3595.408          42.000    21496327.419 1  88023863.703 2     -2802.331          42.000  
G19  19311606.193 1 101483173.885 1     -2640.230          46.000                                                                  
G20  20814366.652 1 109380241.794 2      1351.656          44.000                                                                  
J02  36155574.179 1 189998818.587 3     -1020.580          41.000    36155584.447 1 148051071.923 3      -794.718          43.000  
J04  36482938.766 1 191719139.268 2     -1127.040          45.000    36482941.653 1 149391550.826 2      -877.898          45.000  
C29  23793468.232 1 123898832.863 3      2041.088          42.000                                                                  
C32  20970181.200 1 109197238.138 1       -77.719          50.000                                                                  
R18  22255517.679 2 118801464.705 4      2456.362          43.000    22255529.358 4  92401177.706 5      1911.802          43.000  
R03  22018281.294 2 117865583.31428      3662.511          40.000    22018308.155 8               9      2848.304          40.000  
J07  36249799.397 1 190493971.320 3      -753.400          37.000    36249804.109 1 148436887.964 2      -587.398          46.000  
J03  37878427.072 1 199052478.713 1      -391.046          47.000    37878428.931 1 155105833.440 2      -304.431          47.000  
E11  24470098.425 1 128591246.359 3       612.986          40.000    24470103.496 1  98530987.258 2       469.447          47.000  
E16  24539453.745 1 128955693.284 3     -2260.635          42.000    24539464.274 1  98810230.079 1     -1732.912          51.000  
E19  23555141.337 1 123783108.086 4      -136.812          38.000    23555148.702 1  94846826.761 2      -104.726          45.000  
E24  25322742.378 1 133071896.784 4     -3206.217          40.000    25322755.218 1 101964233.131 2     -2456.996          48.000  
S28  37800482.424 1 198642875.80724      -739.193          36.000  
E10  22974890.294 1 120733872.670 1      -276.621          47.000    22974897.071 1  92510400.700 1      -212.037          51.000  
E04  25056817.718 1 131674471.707 3      2060.256          42.000    25056832.698 1 100893493.345 1      1578.647          48.000  
E12  23241310.595 1 122133902.558 2     -1194.120          43.000    23241314.536 1  93583140.500 1      -915.011          48.000  
G25  23495603.473 1 123470224.136 4       408.280          39.000    23495614.971 4               9       316.101          34.000  
E06  26606093.560 8               9      2282.977          34.000                                                                  
E25  24902431.274 1 130863148.729 3     -1098.101          42.000    24902442.479 1 100271808.931 2      -841.381          49.000  
E29                                                                  26278454.223 8               9     -1769.904          30.000  
E33                                                                  26068688.698 4               9     -1965.799          36.000  
G05                                                                  23983309.099 8               9      2020.295          35.000  
> 2025 04 25 07 09 47.9970000  0 44                     
S29  37324226.588 1 196140134.181 3      -739.158          41.000  
S37  36249939.175 1 190494715.775 3      -755.953          40.000  
G04  22193312.860 8 116626645.89337     -2388.027          38.000    22193317.243 8  90877923.64617     -1859.865          38.000  
G06  19772815.146 1 103906843.300 1      -843.391          48.000    19772818.997 1  80966388.371 2      -657.154          46.000  
G09  20463980.234 1 107538943.339 2      -601.776          43.000    20463984.079 1  83796602.195 2      -469.282          44.000  
G11  20533076.677 1 107902051.178 2       818.304          45.000    20533078.772 1  84079546.296 2       638.218          46.000  
C07  34915625.690 1 181814825.881 2     -1287.201          45.000    34915621.740 1 140590735.049 1      -995.520          48.000  
C08  35977885.495 1 187346297.029 2      -459.999          42.000    35977882.817 1 144868030.329 1      -355.691          48.000  
C10  35282839.880 1 183727000.946 1      -924.270          45.000    35282839.069 1 142069371.441 1      -714.919          47.000  
C27  21786185.572 1 113446373.286 2     -2531.371          47.000                                                                  
C30  20638845.663 1 107471883.895 1        96.992          51.000                                                                  
C13  37033440.807 1 192842846.518 3      -303.686          42.000    37033448.466 1 149118354.920 2      -235.143          47.000  
R02  18662873.340 1  99588671.460 1      1157.222          53.000    18662878.300 1  77457895.799 2       900.166          48.000  
R16  22390556.477 1 119606332.171 2     -1371.542          49.000    22390566.728 2  93027240.112 4     -1066.719          43.000  
R15  22551160.128 2 120506560.92625     -3768.614          44.000    22551175.740 4  93727415.694 6     -2929.792          43.000  
R01  19298966.558 1 103164034.629 2     -2988.668          48.000    19298070.940 9               9     -2107.018          10.000  
R24  19429243.690 1 103896895.000 2     -2075.720          51.000    19429247.071 1  80808707.306 2     -1614.471          48.000  
R17  19122940.296 1 102330724.978 2      1121.736          51.000    19122942.492 2  79590582.653 3       872.002          46.000  
G12  22171493.231 1 116511980.290 3      -996.058          40.000    22171498.041 1  90788575.834 2      -776.743          42.000  
G17  21497005.839 1 112967512.943 3     -3600.938          42.000    21497012.268 1  88026667.753 2     -2806.144          42.000  
G19  19312108.950 1 101485815.469 1     -2643.552          46.000                                                                  
G20  20814109.265 1 109378889.683 2      1352.764          44.000                                                                  
J02  36155768.659 1 189999840.461 4     -1024.339          41.000    36155778.977 1 148051868.196 2      -797.314          43.000  
J04  36483153.466 1 191720267.459 2     -1129.367          44.000    36483156.408 1 149392429.967 2      -880.448          46.000  
C29  23793075.702 1 123896788.847 3      2046.423          42.000                                                                  
C32  20970196.465 1 109197316.831 1       -79.694          50.000                                                                  
R18  22255056.980 2 118799005.324 4      2461.846          43.000    22255068.081 4  92399264.869 4      1914.436          43.000  
R03  22017597.371 2 117861921.83828      3658.703          43.000    22017623.872 8  91670494.45736      2845.481          41.000  
J07  36249943.045 1 190494726.142 3      -755.880          37.000    36249947.833 1 148437476.155 2      -589.629          46.000  
J03  37878501.524 1 199052869.967 1      -391.693          47.000    37878503.441 1 155106138.325 2      -305.048          47.000  
E11  24469981.477 1 128590631.572 3       616.564          40.000    24469986.549 1  98530516.176 2       472.442          47.000  
E16  24539883.856 1 128957953.721 2     -2259.490          42.000    24539894.439 1  98811962.068 1     -1731.365          51.000  
E19  23555167.406 1 123783246.167 3      -139.309          38.000    23555174.977 1  94846932.578 2      -107.307          46.000  
E24  25323352.599 1 133075103.375 4     -3206.808          40.000    25323365.564 1 101966690.101 2     -2456.820          49.000  
S28  37800622.902 1 198643614.69625      -738.453          38.000  
E10  22974942.853 1 120734147.982 2      -274.162          47.000    22974949.330 1  92510611.654 1      -210.145          51.000  
E04  25056426.100 1 131672413.698 2      2055.483          42.000    25056441.154 1 100891916.454 1      1575.297          48.000  
E12  23241537.603 1 122135096.165 2     -1193.571          43.000    23241541.385 1  93584055.073 1      -914.218          48.000  
G25  23495525.487 1 123469813.935 3       412.444          40.000    23495536.930 2  96210288.957 8       320.990          33.000  
E06  26605657.630 8 139813673.78217      2279.460          33.000                                                                  
E25  24902639.858 1 130864245.022 3     -1094.871          41.000    24902651.149 1 100272648.915 2      -838.162          49.000  
E29                                                                  26278891.989 8 105814208.09217     -1765.932          39.000  
E33                                                                  26069176.759 4               9     -1963.476          32.000  
G05                                                                  23982813.741 8               9      2018.671          37.000  
> 2025 04 25 07 09 48.9970000  0 44                     
S29  37324367.204 1 196140873.228 3      -739.365          41.000  
S37  36250083.394 1 190495473.343 3      -758.938          40.000  
G04  22193768.222 4 116629034.75727     -2389.537          41.000    22193772.264 4  90879785.082 6     -1860.357          40.000  
G06  19772975.488 1 103907686.098 3      -842.333          48.000    19772979.372 1  80967045.105 3      -656.428          46.000  
G09  20464094.871 1 107539546.249 3      -602.979          40.000    20464098.792 1  83797072.052 3      -470.210          42.000  
G11  20532920.655 1 107901230.997 2       821.603          45.000    20532922.701 1  84078907.216 2       640.059          46.000  
C07  34915872.840 1 181816113.210 2     -1287.695          45.000    34915868.978 1 140591730.499 2      -995.905          47.000  
C08  35977973.834 1 187346756.680 2      -459.310          42.000    35977971.062 1 144868385.758 1      -355.181          48.000  
C10  35283017.261 1 183727924.811 2      -923.953          45.000    35283016.460 1 142070085.805 1      -714.153          47.000  
C27  21786671.947 1 113448905.425 3     -2534.573          44.000                                                                  
C30  20638826.928 1 107471786.150 1        98.215          51.000                                                                  
C13  37033499.029 1 192843149.907 3      -303.541          42.000    37033506.712 1 149118589.522 2      -234.760          47.000  
R02  18662656.771 1  99587515.446 1      1154.755          53.000    18662661.643 1  77456996.703 1       897.869          48.000  
R16  22390812.886 2 119607701.382 2     -1367.357          48.000    22390822.982 2  93028305.059 3     -1063.697          44.000  
R15  22551865.069 2 120510327.51415     -3767.475          41.000    22551880.965 2  93730345.688 5     -2930.657          41.000  
R01  19299525.650 1 103167023.042 2     -2988.454          48.000                                                                  
R24  19429632.070 2 103898971.696 3     -2077.486          51.000    19429635.377 2  80810322.451 3     -1614.760          46.000  
R17  19122730.429 2 102329601.566 3      1124.594          51.000    19122732.673 1  79589708.897 3       874.829          49.000  
G12  22171682.549 1 116512975.138 3      -993.704          40.000    22171687.339 1  90789351.006 2      -774.429          41.000  
G17  21497691.426 1 112971115.971 3     -3605.479          43.000    21497697.902 1  88029475.296 2     -2809.181          42.000  
G19  19312612.184 1 101488460.004 1     -2646.141          46.000                                                                  
G20  20813851.804 1 109377536.542 2      1353.242          44.000                                                                  
J02  36155963.726 1 190000865.594 3     -1026.130          41.000    36155974.140 1 148052667.043 2      -799.671          45.000  
J04  36483368.668 1 191721398.414 2     -1131.960          44.000    36483371.523 1 149393311.228 2      -882.270          46.000  
C29  23792682.292 1 123894740.194 2      2051.093          42.000                                                                  
C32  20970211.726 1 109197397.382 1       -81.358          50.000                                                                  
R18  22254595.309 2 118796540.808 3      2467.210          42.000    22254604.945 4  92397348.115 4      1917.673          42.000  
R03  22016914.024 2 117858263.639 7      3655.651          44.000    22016940.195 8  91667648.76316      2843.845          42.000  
J07  36250087.192 1 190495483.698 3      -758.748          37.000    36250092.003 1 148438066.433 1      -591.561          46.000  
J03  37878576.011 1 199053261.710 2      -391.693          47.000    37878578.049 1 155106443.592 3      -305.347          47.000  
E11  24469863.733 1 128590013.240 3       619.532          40.000    24469868.782 1  98530042.399 2       474.756          47.000  
E16  24540313.842 1 128960212.580 2     -2258.466          42.000    24540324.285 1  98813692.877 1     -1730.579          51.000  
E19  23555194.200 1 123783386.996 4      -143.203          36.000    23555201.741 1  94847040.458 3      -108.426          45.000  
E24  25323962.937 1 133078310.518 4     -3207.857          41.000    25323975.908 1 101969147.509 2     -2457.859          49.000  
S28  37800763.362 1 198644353.00824      -738.602          38.000  
E10  22974994.779 1 120734421.054 2      -272.032          47.000    22975001.334 1  92510820.892 2      -208.468          51.000  
E04  25056035.468 1 131670360.098 2      2051.589          43.000    25056050.244 1 100890342.920 2      1572.121          47.000  
E12  23241764.628 1 122136289.140 3     -1192.600          43.000    23241768.583 1  93584969.176 3      -913.744          47.000  
G25  23495446.554 1 123469399.236 3       416.576          40.000    23495457.948 2  96209965.715 7       324.550          33.000  
E06  26605225.314 8 139811402.662 7      2274.809          34.000                                                                  
E25  24902847.815 1 130865338.082 2     -1092.059          41.000    24902859.142 1 100273486.460 1      -836.506          49.000  
E29                                                                  26279329.573 4 105815973.319 7     -1764.831          39.000  
E33                                                                  26069665.262 8               9     -1970.381          38.000  
G05                                                                  23982319.009 8  98203586.89117      2017.729          32.000  
> 2025 04 25 07 09 49.9970000  0 44                     
S29  37324507.889 1 196141612.587 3      -739.359          40.000  
S37  36250228.119 1 190496233.471 3      -761.272          40.000  
G04  22194222.099 4 116631424.18125     -2390.437          40.000    22194227.250 4  90881647.023 6     -1862.802          40.000  
G06  19773135.769 1 103908528.272 2      -841.729          48.000    19773139.545 1  80967701.345 2      -656.138          45.000  
G09  20464210.142 1 107540151.826 3      -606.583          43.000    20464214.013 1  83797543.886 3      -472.944          44.000  
G11  20532764.141 1 107900408.437 2       823.612          44.000    20532766.192 1  84078266.266 2       641.837          46.000  
C07  34916120.264 1 181817401.252 2     -1288.605          45.000    34916116.327 1 140592726.482 1      -996.313          48.000  
C08  35978061.926 1 187347215.870 2      -458.513          42.000    35978059.214 1 144868740.838 1      -354.790          48.000  
C10  35283194.627 1 183728848.376 1      -923.618          45.000    35283193.807 1 142070799.978 1      -714.296          47.000  
C27  21787158.881 1 113451440.692 3     -2537.154          47.000                                                                  
C30  20638807.987 1 107471687.763 1        98.647          51.000                                                                  
C13  37033557.318 1 192843452.946 2      -302.872          42.000    37033564.908 1 149118823.856 1      -234.250          47.000  
R02  18662440.614 1  99586362.448 1      1151.237          52.000    18662445.582 1  77456099.912 1       895.459          48.000  
R16  22391068.546 2 119609067.187 2     -1364.243          47.000    22391078.669 2  93029367.353 3     -1060.988          42.000  
R15  22552570.418 4               9     -3764.032          35.000    22552585.866 8  93733251.07938     -2926.509          37.000  
R01  19300084.785 1 103170011.924 2     -2989.135          48.000                                                                  
R24  19430020.879 1 103901050.615 3     -2080.013          50.000    19430024.092 2  80811939.424 3     -1617.556          47.000  
R17  19122520.065 1 102328475.930 2      1127.002          52.000    19122522.241 1  79588833.418 2       876.195          48.000  
G12  22171871.300 1 116513967.461 2      -991.060          41.000    22171876.142 1  90790124.233 2      -772.416          41.000  
G17  21498377.942 1 112974723.273 3     -3610.076          43.000    21498384.423 1  88032286.157 2     -2812.651          41.000  
G19  19313115.938 1 101491107.521 1     -2649.302          46.000                                                                  
G20  20813594.202 1 109376182.824 2      1353.863          44.000                                                                  
J02  36156159.430 1 190001894.068 3     -1030.079          41.000    36156169.837 1 148053468.429 2      -802.709          43.000  
J04  36483584.392 1 191722532.079 2     -1135.069          44.000    36483587.279 1 149394194.610 2      -884.667          45.000  
C29  23792288.131 1 123892687.721 2      2053.887          42.000                                                                  
C32  20970227.621 1 109197479.903 1       -83.536          50.000                                                                  
R18  22254132.853 2 118794072.024 3      2470.662          43.000    22254142.795 4  92395427.915 3      1921.589          43.000  
R03  22016231.101 2 117854608.557 5      3654.401          42.000    22016257.201 4  91664806.145 4      2841.197          42.000  
J07  36250231.868 1 190496243.848 3      -761.531          37.000    36250236.551 1 148438658.766 2      -593.380          45.000  
J03  37878650.737 1 199053654.164 2      -392.841          47.000    37878652.718 1 155106749.393 2      -306.097          46.000  
E11  24469745.709 1 128589392.034 3       622.667          40.000    24469750.798 1  98529566.427 2       477.126          47.000  
E16  24540743.550 1 128962470.452 2     -2257.399          42.000    24540753.963 1  98815422.942 1     -1729.777          51.000  
E19  23555221.454 1 123783530.284 4      -144.308          38.000    23555228.986 1  94847150.296 3      -110.752          46.000  
E24  25324573.279 1 133081518.444 3     -3208.167          41.000    25324586.485 1 101971605.529 1     -2458.386          49.000  
S28  37800903.765 1 198645091.02524      -738.088          38.000  
E29  26279759.170 8 138101066.37417     -2301.979          38.000    26279767.884 2 105817738.410 6     -1765.802          45.000  
E10  22975046.567 1 120734692.442 1      -270.604          47.000    22975053.048 1  92511028.830 1      -207.262          51.000  
E04  25055645.244 1 131668310.606 3      2047.106          42.000    25055660.323 1 100888772.552 1      1568.640          48.000  
E12  23241991.662 1 122137481.812 2     -1192.390          43.000    23241995.674 1  93585883.051 2      -913.790          48.000  
E33  26070146.049 8               9     -2565.668          31.000    26070152.904 4               9     -1964.967          38.000  
G25  23495366.907 1 123468980.802 3       420.374          40.000    23495378.251 2  96209639.712 5       327.011          33.000  
E06  26604786.571 4 139809129.246 6      2271.811          33.000                                                                  
E25  24903055.331 1 130866428.619 3     -1089.192          41.000    24903066.497 1 100274322.081 1      -834.879          49.000  
G05                                                                  23981824.581 8  98201562.528 8      2017.453          35.000  
> 2025 04 25 07 09 50.9970000  0 44                     
S29  37324648.645 1 196142352.281 2      -739.677          40.000  
S37  36250373.261 1 190496996.245 3      -764.127          40.000  
G04  22194676.670 4 116633813.98123     -2390.165          40.000    22194681.822 4  90883509.185 4     -1862.396          41.000  
G06  19773295.887 1 103909369.676 1      -841.168          48.000    19773299.699 1  80968356.975 1      -655.432          45.000  
G09  20464325.853 1 107540759.746 2      -609.268          43.000    20464329.717 1  83798017.581 2      -474.446          44.000  
G11  20532607.117 1 107899583.428 1       825.697          45.000    20532609.221 1  84077623.403 1       643.474          46.000  
C07  34916367.841 1 181818689.956 2     -1288.928          46.000    34916363.833 1 140593722.989 1      -996.576          48.000  
C08  35978150.004 1 187347674.635 2      -458.898          42.000    35978147.358 1 144869095.571 1      -354.453          48.000  
C10  35283371.824 1 183729771.525 1      -922.865          45.000    35283371.136 1 142071513.818 1      -713.722          47.000  
C27  21787646.280 1 113453978.861 2     -2539.172          47.000                                                                  
C30  20638788.988 1 107471588.588 1        99.431          51.000                                                                  
C13  37033615.456 1 192843755.642 2      -302.607          42.000    37033623.084 1 149119057.925 1      -234.203          47.000  
R02  18662225.157 1  99585212.262 1      1149.168          52.000    18662229.934 1  77455205.321 1       893.843          48.000  
R16  22391323.632 1 119610429.604 2     -1361.674          48.000    22391333.730 2  93030426.996 3     -1058.771          43.000  
R15  22553274.338 8               9     -3764.055          36.000    22553291.042 8  93736182.71028     -2926.917          37.000  
R01  19300643.933 1 103173001.086 2     -2989.372          48.000                                                                  
R24  19430410.125 1 103903131.456 2     -2081.720          50.000    19430413.186 1  80813557.890 2     -1619.297          47.000  
R17  19122309.287 1 102327347.988 1      1128.840          51.000    19122311.399 1  79587956.131 2       877.927          48.000  
G12  22172059.584 1 116514957.314 2      -989.045          41.000    22172064.463 1  90790895.570 2      -770.847          41.000  
G17  21499065.113 1 112978334.635 2     -3612.627          42.000    21499071.755 1  88035100.237 2     -2815.306          41.000  
G19  19313620.348 1 101493757.876 1     -2651.686          46.000                                                                  
G20  20813336.498 1 109374828.556 2      1354.792          44.000                                                                  
J02  36156355.765 1 190002925.702 3     -1032.876          41.000    36156366.115 1 148054272.291 2      -804.449          43.000  
J04  36483800.664 1 191723668.296 1     -1137.361          44.000    36483803.501 1 149395079.957 1      -885.880          45.000  
C29  23791893.274 1 123890631.369 2      2057.775          42.000                                                                  
C32  20970243.928 1 109197564.251 1       -85.160          50.000                                                                  
R18  22253669.500 2 118791598.961 3      2474.766          43.000    22253679.011 2  92393504.465 3      1923.873          43.000  
R03  22015548.754 2 117850956.768 3      3651.186          48.000    22015577.341 4  91661965.872 3      2838.869          46.000  
J07  36250376.930 1 190497006.602 3      -763.956          37.000    36250381.621 1 148439253.121 2      -595.270          45.000  
J03  37878725.436 1 199054047.123 1      -393.121          47.000    37878727.467 1 155107055.594 1      -306.403          46.000  
E11  24469626.942 1 128588768.020 3       625.133          40.000    24469632.038 1  98529088.288 2       478.877          47.000  
E16  24541172.860 1 128964727.413 2     -2256.672          42.000    24541183.261 1  98817152.264 1     -1728.965          50.000  
E19  23555249.185 1 123783676.033 3      -146.378          38.000    23555256.694 1  94847261.964 2      -112.289          46.000  
E24  25325184.019 1 133084727.243 3     -3209.070          41.000    25325196.995 1 101974064.211 1     -2458.994          49.000  
S28  37801044.121 1 198645828.83224      -738.287          38.000  
E29  26280196.047 4 138103369.754 5     -2303.319          37.000    26280205.778 2 105819503.270 4     -1765.322          44.000  
E10  22975097.778 1 120734962.006 1      -269.051          47.000    22975104.300 1  92511235.379 1      -206.053          51.000  
E04  25055256.344 1 131666265.120 2      2044.142          42.000    25055270.967 1 100887205.246 1      1566.152          48.000  
E12  23242218.475 1 122138674.007 2     -1191.991          43.000    23242222.371 1  93586796.542 1      -913.346          47.000  
E33  26070631.839 8               9     -2571.977          39.000    26070642.793 8 104975674.94218     -1969.478          41.000  
G25  23495286.595 1 123468558.712 3       422.743          39.000    23495297.799 2  96209310.757 5       330.397          33.000  
E06  26604358.491 4 139806859.624 5      2268.565          37.000                                                                  
E25  24903262.333 1 130867516.730 2     -1087.184          41.000    24903273.574 1 100275155.813 1      -832.765          49.000  
G05                                                                  23981330.947 8  98199544.275 6      2018.218          34.000  
> 2025 04 25 07 09 51.9970000  0 44                     
S29  37324789.402 1 196143092.179 3      -740.114          40.000  
S37  36250518.878 1 190497761.207 3      -766.446          40.000  
G04  22195131.182 4 116636204.37923     -2390.321          40.000    22195138.340 4  90885371.838 3     -1862.583          42.000  
G06  19773455.849 1 103910210.398 1      -840.428          48.000    19773459.686 1  80969012.082 2      -654.801          45.000  
G09  20464441.970 1 107541369.882 2      -611.216          43.000    20464445.818 1  83798493.018 2      -476.295          44.000  
G11  20532449.588 1 107898756.145 2       828.055          44.000    20532451.838 1  84076978.776 1       645.160          46.000  
C07  34916615.446 1 181819979.137 2     -1289.929          45.000    34916611.383 1 140594719.873 1      -997.430          48.000  
C08  35978237.857 1 187348132.803 2      -458.360          42.000    35978235.358 1 144869449.862 1      -354.425          48.000  
C10  35283548.929 1 183730694.259 2      -923.064          44.000    35283548.335 1 142072227.329 1      -713.755          47.000  
C27  21788134.178 1 113456519.745 2     -2541.970          47.000                                                                  
C30  20638769.822 1 107471488.677 1        99.984          51.000                                                                  
C13  37033673.433 1 192844057.944 3      -302.176          42.000    37033681.102 1 149119291.686 2      -233.936          47.000  
R02  18662010.044 1  99584064.669 1      1146.033          53.000    18662014.893 1  77454312.749 1       891.400          46.000  
R16  22391578.025 2 119611789.043 3     -1357.765          46.000    22391588.192 2  93031484.297 2     -1055.967          41.000  
R15  22553979.385 9               9     -3757.259          30.000    22553997.717 9               9     -2923.252          30.000  
R01  19301203.176 1 103175990.611 2     -2989.591          48.000                                                                  
R24  19430799.546 1 103905214.161 2     -2083.718          51.000    19430802.608 1  80815177.741 2     -1620.486          46.000  
R17  19122098.239 1 102326217.994 2      1130.865          52.000    19122100.287 1  79587077.243 2       879.509          47.000  
G12  22172247.462 1 116515944.961 3      -987.150          41.000    22172252.495 1  90791665.175 3      -769.083          43.000  
G17  21499753.139 1 112981949.800 2     -3616.628          42.000    21499759.737 1  88037917.235 2     -2818.337          42.000  
G19  19314125.196 1 101496410.762 1     -2654.354          46.000                                                                  
G20  20813078.680 1 109373473.719 3      1354.910          44.000                                                                  
J02  36156552.604 1 190003960.138 2     -1036.152          41.000    36156562.982 1 148055078.381 2      -807.708          44.000  
J04  36484017.318 1 191724806.738 1     -1139.480          44.000    36484020.133 1 149395967.070 2      -887.905          46.000  
C29  23791497.831 1 123888571.586 2      2061.795          42.000                                                                  
C32  20970260.500 1 109197650.224 1       -86.964          50.000                                                                  
R18  22253205.425 2 118789122.064 3      2478.535          44.000    22253215.110 2  92391577.940 2      1927.770          42.000  
R03  22014867.099 2 117847307.805 3      3647.391          47.000    22014893.820 4  91659127.852 3      2837.092          44.000  
J07  36250522.515 1 190497771.582 3      -766.559          37.000    36250527.122 1 148439849.216 2      -597.248          46.000  
J03  37878800.352 1 199054440.512 1      -393.719          47.000    37878802.372 1 155107362.134 1      -306.805          47.000  
E11  24469507.671 1 128588141.343 3       627.529          40.000    24469512.709 1  98528608.115 2       480.867          47.000  
E16  24541602.216 1 128966983.410 3     -2256.066          42.000    24541612.734 1  98818880.881 2     -1728.390          51.000  
E19  23555277.101 1 123783824.047 3      -149.003          38.000    23555284.798 1  94847375.356 2      -114.032          46.000  
E24  25325794.727 1 133087936.719 3     -3210.266          41.000    25325807.731 1 101976523.425 2     -2460.112          48.000  
S28  37801184.588 1 198646566.40724      -737.224          38.000  
E29  26280634.984 4 138105672.922 5     -2302.401          39.000    26280644.702 1 105821267.994 3     -1764.427          45.000  
E10  22975148.689 1 120735229.890 2      -267.456          47.000    22975155.240 1  92511440.651 1      -204.927          51.000  
E04  25054867.711 1 131664223.260 2      2040.172          42.000    25054882.421 1 100885640.740 1      1563.134          47.000  
E12  23242445.322 1 122139865.798 2     -1191.842          43.000    23242449.034 1  93587709.723 1      -912.978          47.000  
E33  26071119.552 4 137004682.946 5     -2572.048          41.000    26071131.793 2 104977645.630 5     -1970.624          44.000  
G25  23495205.606 1 123468133.375 3       426.270          39.000    23495216.493 2  96208979.367 5       331.808          34.000  
E06  26603927.771 4 139804593.358 4      2264.541          38.000                                                                  
E25  24903468.991 1 130868602.596 3     -1085.437          42.000    24903480.291 1 100275987.873 1      -831.900          49.000  
G05                                                                  23980839.642 9               9      2024.115          24.000  
> 2025 04 25 07 09 52.9970000  0 44                     
S29  37324930.270 1 196143832.179 3      -740.529          40.000  
S37  36250664.811 1 190498528.114 3      -767.698          40.000  
G04  22195586.959 2 116638595.33223     -2391.187          40.000    22195592.168 2  90887234.930 3     -1863.487          41.000  
G06  19773615.709 1 103911050.644 1      -840.169          48.000    19773619.594 1  80969666.827 2      -654.726          46.000  
G09  20464558.540 1 107541982.139 2      -613.420          43.000    20464562.307 1  83798970.099 2      -477.935          44.000  
G11  20532291.754 1 107897926.972 2       829.821          45.000    20532293.980 1  84076332.673 1       646.505          46.000  
C07  34916863.074 1 181821268.789 2     -1290.015          45.000    34916859.015 1 140595717.107 1      -997.626          48.000  
C08  35978325.831 1 187348590.509 2      -457.612          42.000    35978323.328 1 144869803.801 1      -353.839          48.000  
C10  35283726.134 1 183731616.680 2      -922.221          45.000    35283725.443 1 142072940.603 1      -713.117          47.000  
C27  21788622.590 1 113459063.051 2     -2544.498          46.000                                                                  
C30  20638750.513 1 107471388.262 1       100.658          50.000                                                                  
C13  37033731.486 1 192844359.870 3      -302.259          42.000    37033739.140 1 149119525.124 2      -233.507          46.000  
R02  18661795.417 1  99582919.486 1      1143.907          53.000    18661800.320 1  77453422.056 1       889.567          46.000  
R16  22391832.017 2 119613145.837 3     -1355.266          46.000    22391842.177 2  93032539.591 3     -1053.684          42.000  
R15  22554681.504 8 120525379.10538     -3760.813          42.000    22554699.706 9  93742036.82038     -2924.716          35.000  
R01  19301762.557 1 103178980.631 2     -2990.163          48.000                                                                  
R24  19431189.353 1 103907298.526 2     -2085.127          51.000    19431192.395 1  80816798.915 1     -1621.680          46.000  
R17  19121886.788 1 102325086.300 2      1132.722          51.000    19121888.882 1  79586197.047 1       880.854          46.000  
G12  22172434.989 1 116516930.710 2      -984.901          41.000    22172440.119 1  90792433.291 2      -767.564          42.000  
G17  21500441.731 1 112985568.262 2     -3620.390          42.000    21500448.254 1  88040736.786 2     -2820.802          42.000  
G19  19314630.440 1 101499066.004 1     -2656.608          46.000                                                                  
G20  20812820.785 1 109372118.367 2      1355.657          44.000                                                                  
J02  36156749.885 1 190004997.009 2     -1038.563          41.000    36156760.373 1 148055886.280 2      -808.961          44.000  
J04  36484234.383 1 191725947.200 1     -1141.567          44.000    36484237.150 1 149396855.744 1      -889.511          45.000  
C29  23791101.761 1 123886508.723 2      2064.125          41.000                                                                  
C32  20970277.298 1 109197737.761 1       -88.380          50.000                                                                  
R18  22252740.742 2 118786641.706 3      2481.822          42.000    22252750.483 2  92389648.799 3      1930.892          39.000  
R03  22014185.766 2 117843661.096 3      3645.566          47.000    22014212.044 4  91656291.603 3      2835.643          45.000  
J07  36250668.363 1 190498538.488 3      -767.556          37.000    36250673.183 1 148440446.810 2      -598.575          46.000  
J03  37878875.247 1 199054834.355 1      -394.147          46.000    37878877.277 1 155107669.031 1      -307.300          46.000  
E11  24469387.880 1 128587512.370 3       629.987          40.000    24469393.050 1  98528126.174 2       482.698          47.000  
E16  24542031.354 1 128969238.585 2     -2255.106          42.000    24542041.782 1  98820608.881 1     -1727.684          50.000  
E19  23555305.654 1 123783974.091 3      -151.083          38.000    23555313.391 1  94847490.350 1      -115.780          45.000  
E24  25326405.773 1 133091146.704 3     -3210.159          41.000    25326418.500 1 101978983.018 2     -2460.117          48.000  
S28  37801324.862 1 198647303.76023      -737.712          38.000  
E29  26281072.395 4 138107975.951 4     -2303.567          37.000    26281083.062 1 105823032.697 3     -1764.966          44.000  
E10  22975199.559 1 120735496.410 1      -265.933          47.000    22975206.084 1  92511644.861 1      -203.667          51.000  
E04  25054479.638 1 131662184.517 2      2037.061          42.000    25054494.451 1 100884078.592 1      1560.875          48.000  
E12  23242672.102 1 122141057.270 2     -1191.250          43.000    23242675.824 1  93588622.689 1      -912.887          47.000  
E33  26071609.313 4 137007256.620 4     -2574.708          39.000    26071621.238 1 104979617.675 3     -1972.842          44.000  
G25  23495124.123 1 123467705.241 3       429.066          39.000    23495134.814 2  96208645.721 6       334.539          33.000  
E06  26603497.621 4 139802329.771 3      2261.906          41.000                                                                  
E25  24903675.237 1 130869686.489 3     -1082.810          41.000    24903686.561 1 100276818.365 2      -830.056          49.000  
G05                                                                  23980351.696 9               9      2041.039          22.000  
> 2025 04 25 07 09 53.9970000  0 44                     
S29  37325071.159 1 196144572.342 3      -740.598          40.000  
S37  36250811.157 1 190499297.005 3      -770.139          40.000  
G04  22196041.966 2 116640986.74923     -2391.025          40.000    22196047.186 1  90889098.398 3     -1863.884          39.000  
G06  19773775.492 1 103911890.458 1      -839.674          48.000    19773779.308 1  80970321.218 1      -654.230          43.000  
G09  20464675.344 1 107542596.417 2      -615.123          43.000    20464679.175 1  83799448.772 2      -479.648          42.000  
G11  20532133.640 1 107897095.981 2       831.541          45.000    20532135.857 1  84075685.152 2       647.701          43.000  
C07  34917110.736 1 181822559.002 1     -1290.582          45.000    34917106.798 1 140596714.774 1      -997.711          46.000  
C08  35978413.695 1 187349047.900 2      -457.564          42.000    35978411.164 1 144870157.494 1      -353.738          46.000  
C10  35283903.174 1 183732538.901 1      -922.102          45.000    35283902.570 1 142073653.735 1      -713.139          44.000  
C27  21789111.439 1 113461608.746 2     -2546.994          46.000                                                                  
C30  20638731.353 1 107471287.429 1       100.875          51.000                                                                  
C13  37033789.378 1 192844661.434 2      -301.253          42.000    37033796.978 1 149119758.350 2      -233.150          45.000  
R02  18661581.185 1  99581776.711 1      1141.572          52.000    18661586.129 1  77452533.222 1       887.974          45.000  
R16  22392085.641 2 119614500.117 3     -1353.074          47.000    22392095.634 2  93033592.914 4     -1052.950          40.000  
R15  22555383.700 8               9     -3762.436          40.000    22555403.163 8               9     -2926.009          35.000  
R01  19302322.027 1 103181971.178 2     -2991.658          47.000                                                                  
R24  19431579.449 1 103909384.575 2     -2086.984          51.000    19431582.492 1  80818421.395 2     -1623.206          45.000  
R17  19121674.968 1 102323953.035 2      1133.585          51.000    19121677.076 1  79585315.604 2       881.780          44.000  
G12  22172622.234 1 116517914.687 3      -983.591          41.000    22172627.347 1  90793200.058 3      -767.141          39.000  
G17  21501130.885 1 112989189.922 2     -3623.022          42.000    21501137.416 1  88043558.857 2     -2823.201          40.000  
G19  19315136.087 1 101501723.593 2     -2658.564          46.000                                                                  
G20  20812562.753 1 109370762.641 2      1355.925          44.000                                                                  
J02  36156947.619 1 190006036.235 2     -1040.349          41.000    36156958.114 1 148056696.072 2      -810.475          41.000  
J04  36484451.793 1 191727089.671 1     -1143.360          44.000    36484454.509 1 149397745.985 1      -890.880          43.000  
C29  23790705.116 1 123884442.951 2      2065.939          42.000                                                                  
C32  20970294.438 1 109197826.901 1       -89.900          50.000                                                                  
R18  22252275.476 2 118784158.092 3      2484.209          46.000    22252285.202 2  92387717.055 3      1932.902          39.000  
R03  22013505.003 2 117840016.735 3      3643.908          47.000    22013530.943 4  91653457.165 3      2833.851          44.000  
J07  36250814.747 1 190499307.373 3      -770.029          37.000    36250819.452 1 148441045.927 2      -600.023          43.000  
J03  37878950.226 1 199055228.687 1      -394.812          46.000    37878952.229 1 155107976.300 1      -307.513          44.000  
E11  24469267.777 1 128586881.266 3       631.783          40.000    24469272.883 1  98527642.603 2       484.066          46.000  
E16  24542460.462 1 128971493.082 2     -2254.445          42.000    24542470.826 1  98822336.370 2     -1727.184          49.000  
E19  23555334.616 1 123784126.183 3      -152.999          38.000    23555342.290 1  94847606.880 2      -117.146          44.000  
E24  25327016.666 1 133094357.359 4     -3210.969          40.000    25327029.467 1 101981443.120 2     -2460.443          47.000  
S28  37801465.062 1 198648040.963 4      -737.711          38.000  
E29  26281509.747 4 138110279.013 5     -2303.951          35.000    26281520.745 1 105824797.327 3     -1765.340          39.000  
E10  22975250.060 1 120735761.649 1      -264.672          47.000    22975256.431 1  92511848.111 1      -202.901          49.000  
E04  25054092.136 1 131660148.847 2      2034.255          42.000    25054107.002 1 100882518.811 1      1558.718          46.000  
E12  23242898.765 1 122142248.542 2     -1191.145          43.000    23242902.459 1  93589535.478 1      -912.714          46.000  
E33  26072100.995 2 137009831.985 3     -2575.736          41.000    26072112.104 1 104981591.035 2     -1974.384          43.000  
G25  23495042.183 1 123467274.362 3       431.530          39.000    23495052.771 2  96208310.000 6       336.716          32.000  
E06  26603067.648 2 139800068.790 3      2260.368          40.000                                                                  
E25  24903881.221 1 130870768.585 2     -1081.823          41.000    24903892.525 1 100277647.505 1      -828.665          48.000  
G05                                                                  23979858.432 9               9      2014.722          23.000  
> 2025 04 25 07 09 54.9970000  0 44                     
S29  37325212.121 1 196145312.797 3      -740.048          38.000  
S37  36250957.809 1 190500067.743 3      -771.977          40.000  
G04  22196497.167 2 116643378.80226     -2391.610          36.000    22196502.381 2  90890962.257 6     -1862.695          36.000  
G06  19773935.113 1 103912729.744 1      -839.076          48.000    19773939.019 1  80970975.217 2      -653.964          45.000  
G09  20464792.657 1 107543212.568 3      -616.709          43.000    20464796.449 1  83799928.916 2      -481.024          44.000  
G11  20531975.210 1 107896263.311 2       833.647          45.000    20531977.402 1  84075036.310 2       649.548          45.000  
C07  34917358.614 1 181823849.709 1     -1291.071          45.000    34917354.661 1 140597712.853 1      -998.450          47.000  
C08  35978501.378 1 187349504.992 2      -457.000          42.000    35978498.936 1 144870510.925 1      -353.296          47.000  
C10  35284080.299 1 183733460.868 1      -921.832          45.000    35284079.677 1 142074366.654 1      -712.767          46.000  
C27  21789600.770 1 113464156.591 2     -2548.627          47.000                                                                  
C30  20638711.791 1 107471186.096 1       101.573          51.000                                                                  
C13  37033847.328 1 192844962.908 2      -301.512          42.000    37033854.841 1 149119991.468 2      -233.051          46.000  
R02  18661367.473 1  99580636.166 1      1139.318          52.000    18661372.286 1  77451646.141 1       886.090          46.000  
R16  22392338.792 2 119615852.342 3     -1351.069          45.000    22392348.786 2  93034644.687 4     -1050.865          40.000  
R15  22556089.170 8               9     -3758.913          39.000    22556105.006 9               9     -2925.537          34.000  
R01  19302881.541 1 103184962.039 2     -2990.937          48.000                                                                  
R24  19431969.824 1 103911472.110 2     -2088.237          50.000    19431972.854 1  80820045.030 2     -1624.035          47.000  
R17  19121462.853 1 102322818.148 2      1136.051          52.000    19121464.903 1  79584432.931 2       882.910          46.000  
G12  22172809.216 1 116518897.165 4      -981.819          41.000    22172814.282 1  90793965.577 3      -765.349          40.000  
G17  21501820.676 1 112992814.682 2     -3626.296          42.000    21501827.273 1  88046383.333 2     -2825.772          41.000  
G19  19315642.234 1 101504383.382 1     -2661.156          46.000                                                                  
G20  20812304.749 1 109369406.668 2      1356.015          44.000                                                                  
J02  36157145.771 1 190007077.848 2     -1042.727          41.000    36157156.310 1 148057507.726 2      -812.672          43.000  
J04  36484669.486 1 191728233.992 2     -1145.435          44.000    36484672.256 1 149398637.666 2      -892.452          45.000  
C29  23790307.886 1 123882374.427 3      2070.101          42.000                                                                  
C32  20970311.795 1 109197917.456 1       -91.149          50.000                                                                  
R18  22251809.579 2 118781671.425 4      2488.584          45.000    22251819.374 2  92385783.039 4      1935.224          42.000  
R03  22012824.581 2 117836374.933 4      3639.882          43.000    22012850.832 2  91650624.712 4      2831.714          40.000  
J07  36250961.437 1 190500078.116 3      -771.858          37.000    36250966.079 1 148441646.493 2      -601.208          45.000  
J03  37879025.293 1 199055623.322 1      -394.794          47.000    37879027.310 1 155108283.807 1      -307.709          45.000  
E11  24469147.449 1 128586248.123 3       634.369          40.000    24469152.220 1  98527157.478 2       485.860          47.000  
E16  24542889.243 1 128973747.099 3     -2253.679          42.000    24542899.778 1  98824063.468 1     -1727.101          51.000  
E19  23555363.995 1 123784280.055 4      -154.914          38.000    23555371.568 1  94847724.803 2      -118.777          46.000  
E24  25327627.753 1 133097568.736 4     -3211.764          40.000    25327640.535 1 101983903.785 3     -2461.221          48.000  
S28  37801605.425 1 198648778.196 5      -737.128          39.000  
E29  26281952.249 9               9     -2303.295          26.000    26281960.022 8               9     -1760.571          30.000  
E10  22975300.207 1 120736025.607 1      -263.336          47.000    22975306.617 1  92512050.365 1      -201.793          51.000  
E04  25053705.219 1 131658116.139 2      2031.163          42.000    25053720.234 1 100880961.303 1      1556.379          48.000  
E12  23243125.357 1 122143439.465 2     -1190.728          43.000    23243129.184 1  93590448.004 1      -912.195          48.000  
E33  26072590.496 2 137012409.016 5     -2577.760          37.000    26072602.043 2 104983565.552 5     -1974.012          43.000  
G25  23494959.762 1 123466841.085 3       434.706          39.000    23494970.171 2  96207972.381 7       338.518          32.000  
E06  26602636.821 2 139797810.666 4      2257.257          41.000                                                                  
E25  24904086.953 1 130871849.135 3     -1079.890          41.000    24904098.183 1 100278475.441 1      -827.167          49.000  
G05                                                                  23979364.067 9               9      2020.527          25.000  
> 2025 04 25 07 09 55.9970000  0 44                     
S29  37325353.026 1 196146053.640 4      -740.898          40.000  
S37  36251104.859 1 190500840.256 3      -772.937          40.000  
G04  22196953.151 8               9     -2393.014          30.000    22196959.145 8               7     -1867.737          29.000  
G06  19774094.785 1 103913568.840 1      -839.193          48.000    19774098.634 1  80971629.051 2      -653.501          47.000  
G09  20464910.391 1 107543830.618 2      -619.135          43.000    20464914.117 1  83800410.480 2      -482.094          45.000  
G11  20531816.507 1 107895429.302 2       834.648          45.000    20531818.662 1  84074386.443 2       650.284          47.000  
C07  34917606.662 1 181825141.046 1     -1291.296          45.000    34917602.730 1 140598711.395 1      -998.749          49.000  
C08  35978589.153 1 187349961.965 2      -456.935          42.000    35978586.705 1 144870864.292 1      -353.239          49.000  
C10  35284257.518 1 183734382.839 1      -921.797          45.000    35284256.761 1 142075079.575 1      -712.740          48.000  
C27  21790090.353 1 113466706.578 2     -2550.961          46.000                                                                  
C30  20638692.281 1 107471084.589 1       101.610          51.000                                                                  
C13  37033905.170 1 192845264.348 3      -301.315          43.000    37033912.672 1 149120224.552 2      -232.903          47.000  
R02  18661154.230 1  99579497.904 1      1137.360          52.000    18661159.038 1  77450760.845 1       884.471          49.000  
R16  22392591.689 2 119617202.759 3     -1350.056          47.000    22392601.573 2  93035694.911 4     -1049.466          44.000  
R15  22556794.669 9               9     -3764.355          32.000    22556809.071 9               7     -2924.163          36.000  
R01  19303441.149 1 103187953.524 2     -2991.909          48.000                                                                  
R24  19432360.491 1 103913561.254 2     -2090.218          50.000    19432363.559 1  80821669.924 2     -1625.752          49.000  
R17  19121250.627 1 102321682.108 2      1136.228          51.000    19121252.616 1  79583549.311 2       884.276          49.000  
G12  22172995.889 1 116519878.425 3      -981.366          41.000    22173000.834 1  90794730.205 3      -764.431          42.000  
G17  21502511.022 1 112996442.287 2     -3628.825          43.000    21502517.638 1  88049210.008 2     -2827.099          43.000  
G19  19316148.722 1 101507045.338 1     -2662.828          46.000                                                                  
G20  20812046.694 1 109368050.558 2      1356.625          44.000                                                                  
J02  36157344.410 1 190008121.620 3     -1044.874          40.000    36157354.999 1 148058321.060 2      -813.871          44.000  
J04  36484887.501 1 191729380.085 2     -1146.556          44.000    36484890.359 1 149399530.730 2      -893.523          46.000  
C29  23789910.181 1 123880303.660 3      2071.604          42.000                                                                  
C32  20970329.490 1 109198009.565 1       -92.640          50.000                                                                  
R18  22251343.205 2 118779182.113 4      2490.836          42.000    22251353.072 2  92383846.911 3      1937.196          44.000  
R03  22012144.558 2 117832735.014 6      3641.634          42.000    22012170.993 2  91647793.794 7      2832.999          41.000  
J07  36251108.486 1 190500850.622 3      -772.762          37.000    36251113.053 1 148442248.476 2      -602.504          47.000  
J03  37879100.572 1 199056018.472 1      -395.203          47.000    37879102.443 1 155108591.719 1      -307.977          47.000  
E11  24469026.433 1 128585613.351 3       635.459          40.000    24469031.596 1  98526671.081 2       487.029          47.000  
E16  24543317.965 1 128976000.741 3     -2253.335          42.000    24543328.683 1  98825790.276 1     -1726.335          50.000  
E19  23555393.687 1 123784435.750 3      -156.415          38.000    23555401.254 1  94847844.086 2      -119.783          46.000  
E24  25328238.683 1 133100780.854 5     -3212.415          40.000    25328251.925 1 101986364.978 3     -2461.192          49.000  
S28  37801745.772 1 198649515.506 5      -738.592          36.000  
E10  22975350.304 1 120736288.624 1      -262.707          47.000    22975356.705 1  92512251.894 1      -201.270          51.000  
E04  25053318.859 1 131656086.121 2      2028.963          42.000    25053333.876 1 100879405.844 2      1554.876          48.000  
E12  23243351.981 1 122144630.313 2     -1191.185          43.000    23243355.708 1  93591360.463 2      -912.647          47.000  
E33  26073081.227 4 137014987.533 7     -2579.868          34.000    26073092.802 2 104985541.238 6     -1975.343          40.000  
G25  23494876.898 1 123466405.753 3       436.268          40.000    23494887.370 2  96207633.109 8       340.458          32.000  
E06  26602207.393 4 139795554.746 7      2255.430          39.000                                                                  
E25  24904292.410 1 130872928.385 3     -1078.903          41.000    24904303.577 1 100279302.403 2      -826.689          49.000  
E29                                                                  26282398.852 8               9     -1766.559          27.000  
G05                                                                  23978873.474 9               9      2017.767          26.000  
> 2025 04 25 07 09 56.9970000  0 44                     
S29  37325493.952 1 196146794.174 5      -741.185          40.000  
S37  36251251.946 1 190501613.623 3      -774.522          40.000  
G04  22197408.550 8               9     -2395.306          36.000    22197413.734 8               9     -1863.917          36.000  
G06  19774254.553 1 103914407.692 1      -839.015          48.000    19774258.367 1  80972282.708 2      -653.854          46.000  
G09  20465028.250 1 107544450.127 3      -620.775          43.000    20465031.987 1  83800893.230 2      -483.772          44.000  
G11  20531657.620 1 107894594.134 2       835.535          45.000    20531659.718 1  84073735.674 1       650.701          46.000  
C07  34917854.676 1 181826432.440 2     -1291.687          46.000    34917850.651 1 140599709.966 1      -998.932          48.000  
C08  35978676.817 1 187350418.408 2      -456.387          42.000    35978674.416 1 144871217.250 2      -353.071          49.000  
C10  35284434.481 1 183735304.426 2      -921.911          45.000    35284433.746 1 142075792.220 1      -712.809          48.000  
C27  21790580.327 1 113469258.006 2     -2552.428          47.000                                                                  
C30  20638672.680 1 107470982.788 1       101.649          51.000                                                                  
C13  37033963.020 1 192845565.206 3      -300.891          42.000    37033970.422 1 149120457.202 2      -232.418          48.000  
R02  18660941.177 1  99578361.150 1      1135.915          52.000    18660946.142 1  77449876.702 2       883.398          48.000  
R16  22392844.339 2 119618551.919 3     -1348.416          45.000    22392854.127 2  93036744.352 5     -1049.438          43.000  
R15  22557501.365 9               9     -3756.048          32.000    22557517.742 9               9     -2967.872          27.000  
R01  19304000.788 1 103190945.633 2     -2992.239          48.000                                                                  
R24  19432751.360 1 103915651.537 2     -2091.015          51.000    19432754.509 1  80823295.704 2     -1626.141          49.000  
R17  19121038.120 1 102320545.134 2      1137.002          52.000    19121040.134 1  79582665.012 2       884.346          49.000  
G12  22173182.401 1 116520858.629 3      -980.275          40.000    22173187.424 1  90795493.971 3      -763.454          42.000  
G17  21503201.719 1 113000071.747 3     -3630.506          43.000    21503208.320 1  88052038.201 2     -2829.649          42.000  
G19  19316655.678 1 101509708.699 2     -2664.371          46.000                                                                  
G20  20811788.589 1 109366694.012 2      1356.313          44.000                                                                  
J02  36157543.220 1 190009166.460 3     -1045.344          41.000    36157553.806 1 148059135.215 3      -814.434          45.000  
J04  36485105.804 1 191730527.166 1     -1148.015          44.000    36485108.642 1 149400424.559 1      -894.498          46.000  
C29  23789512.088 1 123878230.996 3      2073.739          42.000                                                                  
C32  20970347.345 1 109198102.590 1       -93.752          50.000                                                                  
R18  22250876.416 2 118776690.672 4      2492.968          41.000    22250886.366 2  92381909.191 4      1937.717          42.000  
R03  22011464.841 2 117829096.394 6      3638.046          45.000    22011491.281 2  91644964.29227      2830.159          46.000  
J07  36251255.723 1 190501623.986 3      -774.294          37.000    36251260.319 1 148442851.083 2      -603.162          46.000  
J03  37879175.807 1 199056413.717 1      -395.740          47.000    37879177.709 1 155108899.703 2      -308.435          47.000  
E11  24468905.502 1 128584977.099 3       636.876          40.000    24468910.415 1  98526183.575 2       488.033          47.000  
E16  24543746.767 1 128978253.815 3     -2253.123          42.000    24543757.319 1  98827516.644 2     -1726.204          51.000  
E19  23555423.600 1 123784592.856 4      -158.413          38.000    23555431.090 1  94847964.455 3      -121.388          46.000  
E24  25328850.184 1 133103992.987 5     -3212.049          40.000    25328863.106 1 101988826.217 3     -2461.327          48.000  
S28  37801885.912 1 198650252.057 5      -736.835          38.000  
E10  22975400.155 1 120736550.796 1      -262.149          47.000    22975406.618 1  92512452.779 1      -200.862          51.000  
E04  25052932.929 1 131654057.753 3      2027.324          42.000    25052948.049 1 100877851.681 2      1553.065          48.000  
E12  23243578.567 1 122145821.005 2     -1191.020          43.000    23243582.431 1  93592272.809 2      -912.267          48.000  
E33  26073571.515 8               9     -2580.705          24.000    26073585.244 4               9     -1978.686          28.000  
G25  23494793.736 1 123465969.097 3       437.560          40.000    23494804.306 2               9       340.360          32.000  
E06  26601778.809 2 139793300.392 7      2254.115          32.000                                                                  
E25  24904497.361 1 130874006.517 3     -1077.916          41.000    24904508.809 1 100280128.501 1      -825.765          49.000  
E29                                                                  26282835.309 8               9     -1763.533          36.000  
G05                                                                  23978383.648 9               9      2006.894          24.000  
> 2025 04 25 07 09 57.9970000  0 44                     
S29  37325634.830 1 196147534.633 4      -740.670          40.000  
S37  36251399.263 1 190502387.715 3      -774.163          40.000  
G04  22197862.880 8               7     -2396.387          31.000    22197868.944 4  90896567.21318     -1866.998          36.000  
G06  19774414.305 1 103915246.738 1      -839.135          48.000    19774418.011 1  80972936.520 2      -654.067          46.000  
G09  20465146.370 1 107545071.161 3      -622.424          43.000    20465150.098 1  83801377.133 2      -484.783          44.000  
G11  20531498.499 1 107893758.413 2       836.063          45.000    20531500.648 1  84073084.443 2       651.378          46.000  
C07  34918102.588 1 181827724.157 2     -1292.114          46.000    34918098.746 1 140600708.809 2      -999.231          48.000  
C08  35978764.468 1 187350874.695 2      -456.532          42.000    35978761.999 1 144871570.078 1      -352.882          48.000  
C10  35284611.491 1 183736225.980 2      -921.523          44.000    35284610.729 1 142076504.837 1      -713.030          47.000  
C27  21791070.563 1 113471810.775 2     -2553.006          46.000                                                                  
C30  20638653.178 1 107470881.157 1       101.368          51.000                                                                  
C13  37034020.655 1 192845865.916 3      -300.848          41.000    37034028.171 1 149120689.732 2      -232.490          47.000  
R02  18660728.406 1  99577225.965 1      1134.346          52.000    18660733.524 1  77448993.791 2       882.175          48.000  
R16  22393096.719 2 119619900.609 3     -1348.667          48.000    22393106.707 2  93037793.291 4     -1048.076          44.000  
R15  22558211.190 9               9     -3741.256          27.000                                                                  
R01  19304560.769 2 103193938.693 2     -2993.680          48.000                                                                  
R24  19433142.467 1 103917743.098 2     -2092.110          51.000    19433145.789 1  80824922.482 2     -1627.550          48.000  
R17  19120825.642 1 102319407.855 1      1137.512          51.000    19120827.668 1  79581780.472 2       884.481          48.000  
G12  22173368.921 1 116521838.514 3      -979.897          40.000    22173373.882 1  90796257.529 3      -763.582          41.000  
G17  21503892.721 1 113003702.797 2     -3632.159          42.000    21503899.332 1  88054867.543 2     -2830.245          42.000  
G19  19317162.807 1 101512373.452 1     -2665.581          46.000                                                                  
G20  20811530.478 1 109365337.372 3      1356.881          44.000                                                                  
J02  36157742.285 1 190010212.316 3     -1046.335          41.000    36157752.865 1 148059950.165 2      -815.362          44.000  
J04  36485324.303 1 191731675.150 2     -1148.785          44.000    36485327.162 1 149401319.100 2      -895.125          46.000  
C29  23789113.852 1 123876157.208 3      2075.035          43.000                                                                  
C32  20970365.344 1 109198196.698 1       -94.804          50.000                                                                  
R18  22250409.404 2 118774197.988 4      2492.867          44.000    22250419.345 2  92379970.378 4      1939.265          43.000  
R03  22010785.106 2 117825458.558 6      3636.742          47.000    22010811.764 2  91642134.97625      2828.256          45.000  
J07  36251402.964 1 190502398.070 3      -774.006          37.000    36251407.599 1 148443454.268 2      -603.263          46.000  
J03  37879251.032 1 199056809.268 1      -395.673          47.000    37879252.948 1 155109207.933 1      -308.594          47.000  
E11  24468784.351 1 128584340.059 3       637.444          40.000    24468789.275 1  98525695.463 2       488.107          47.000  
E16  24544175.515 1 128980506.686 3     -2252.578          42.000    24544186.077 1  98829242.856 1     -1725.633          50.000  
E19  23555453.794 1 123784751.299 4      -159.154          38.000    23555461.255 1  94848085.876 2      -122.112          46.000  
E24  25329461.445 1 133107205.422 4     -3213.383          40.000    25329474.390 1 101991287.674 2     -2461.798          48.000  
S28  37802025.970 2 198650988.497 5      -736.193          36.000  
E10  22975450.162 1 120736812.653 1      -261.849          47.000    22975456.393 1  92512653.418 1      -200.734          51.000  
E04  25052547.258 1 131652030.720 3      2026.159          42.000    25052562.204 1 100876298.493 2      1552.625          48.000  
E12  23243805.171 1 122147011.916 2     -1191.043          43.000    23243808.983 1  93593185.353 1      -912.919          48.000  
G25  23494710.540 1 123465531.655 3       437.622          40.000    23494721.136 2  96206952.080 8       341.556          32.000  
E06  26601350.266 2 139791046.774 7      2252.344          37.000                                                                  
E25  24904702.443 1 130875084.126 3     -1077.278          42.000    24904713.676 1 100280954.220 2      -825.744          49.000  
E29                                                                  26283276.699 9               9     -1776.675          28.000  
E33                                                                  26074074.532 8 104989493.22618     -1976.982          38.000  
G05                                                                  23977891.941 9               9      2016.214          23.000  
> 2025 04 25 07 09 58.9970000  0 44                     
S29  37325775.640 2 196148274.833 5      -739.593          40.000  
S37  36251546.649 1 190503162.168 3      -774.480          40.000  
G04  22198318.341 8               9     -2391.746          31.000    22198324.870 8               9     -1866.739          32.000  
G06  19774573.926 1 103916085.868 1      -839.284          48.000    19774577.729 1  80973590.371 2      -653.709          46.000  
G09  20465264.660 1 107545693.227 3      -622.671          43.000    20465268.409 1  83801861.875 2      -485.300          44.000  
G11  20531339.508 1 107892922.298 2       836.064          45.000    20531341.657 1  84072432.944 2       651.193          46.000  
C07  34918350.645 1 181829015.958 2     -1292.047          46.000    34918346.812 1 140601707.700 2      -998.822          48.000  
C08  35978852.139 1 187351330.770 2      -455.842          42.000    35978849.583 1 144871922.755 2      -352.700          48.000  
C10  35284788.385 1 183737147.466 2      -921.466          44.000    35284787.658 1 142077217.366 2      -712.732          47.000  
C27  21791560.904 1 113474364.431 2     -2554.105          47.000                                                                  
C30  20638633.672 1 107470779.602 1       101.321          51.000                                                                  
C13  37034078.364 1 192846166.358 3      -300.691          42.000    37034085.910 1 149120922.072 2      -232.844          47.000  
R02  18660515.836 1  99576091.915 1      1133.511          52.000    18660521.093 1  77448111.744 2       881.573          48.000  
R16  22393349.096 2 119621249.131 3     -1349.395          48.000    22393359.087 2  93038842.182 5     -1049.982          42.000  
R15  22558916.774 9               9     -3765.387          35.000                                                                  
R01  19305120.775 1 103196932.463 2     -2994.086          48.000                                                                  
R24  19433533.757 1 103919835.461 2     -2092.808          51.000    19433537.091 1  80826549.861 2     -1627.658          48.000  
R17  19120613.234 1 102318270.392 1      1137.429          52.000    19120615.224 1  79580895.808 2       884.103          48.000  
G12  22173555.341 1 116522818.242 4      -979.859          41.000    22173560.231 1  90797020.933 3      -763.470          41.000  
G17  21504583.914 1 113007334.826 3     -3632.540          42.000    21504590.561 1  88057697.700 2     -2830.423          42.000  
G19  19317670.079 1 101515039.162 1     -2666.320          46.000                                                                  
G20  20811272.292 1 109363980.665 2      1356.906          44.000                                                                  
J02  36157941.259 1 190011258.610 3     -1046.317          41.000    36157951.966 1 148060765.450 3      -815.123          44.000  
J04  36485542.770 1 191732823.589 2     -1148.416          44.000    36485545.636 1 149402213.987 2      -895.171          46.000  
C29  23788715.347 1 123874082.657 3      2074.625          43.000                                                                  
C32  20970383.506 1 109198291.523 1       -95.350          50.000                                                                  
R18  22249942.217 2 118771704.247 4      2494.176          43.000    22249952.195 2  92378030.891 4      1939.294          42.000  
R03  22010105.671 2 117821821.250 6      3637.036          45.000    22010132.323 2  91639305.590 5      2827.459          44.000  
J07  36251550.227 1 190503172.544 3      -774.447          37.000    36251555.013 1 148444057.764 2      -603.858          46.000  
J03  37879326.310 1 199057204.883 1      -395.856          47.000    37879328.228 1 155109516.192 2      -308.508          47.000  
E11  24468662.870 1 128583702.438 3       637.171          40.000    24468667.844 1  98525206.856 2       488.661          47.000  
E16  24544604.053 1 128982759.477 3     -2252.875          42.000    24544614.687 1  98830969.035 3     -1726.082          50.000  
E19  23555484.195 1 123784910.685 3      -159.552          38.000    23555491.730 1  94848208.024 2      -122.445          46.000  
E24  25330072.801 1 133110417.796 5     -3210.965          39.000    25330085.848 1 101993749.110 3     -2459.792          48.000  
S28  37802166.104 2 198651724.720 7      -737.484          37.000  
E10  22975499.944 1 120737074.216 1      -261.441          47.000    22975506.173 1  92512853.847 1      -200.545          51.000  
E04  25052161.883 1 131650004.469 3      2025.641          42.000    25052176.624 1 100874745.921 2      1552.412          48.000  
E12  23244031.735 1 122148202.907 2     -1191.269          43.000    23244035.643 1  93594097.912 1      -912.675          48.000  
E33  26074556.859 9               9     -2570.385          23.000    26074565.148 8               9     -1978.080          28.000  
G25  23494627.216 1 123465093.993 3       437.756          40.000    23494637.819 2  96206610.985 7       340.957          35.000  
E06  26600921.732 2 139788793.716 6      2252.051          35.000                                                                  
E25  24904907.439 1 130876161.494 3     -1077.528          41.000    24904918.756 1 100281779.721 2      -825.538          49.000  
E29                                                                  26283713.926 9               9     -1762.676          27.000  
G05                                                                  23977396.720 9               9      2027.520          22.000  
> 2025 04 25 07 09 59.9970000  0 44                     
S29  37325916.311 1 196149014.711 4      -740.337          40.000  
S37  36251693.904 1 190503936.201 3      -773.643          40.000  
G04  22198774.411 8               9     -2396.568          30.000    22198783.038 9               9     -1867.684          28.000  
G06  19774733.593 1 103916925.128 2      -839.923          48.000    19774737.467 1  80974244.346 2      -654.646          46.000  
G09  20465383.168 1 107546315.794 3      -622.706          43.000    20465386.951 1  83802347.002 3      -485.569          44.000  
G11  20531180.467 1 107892086.132 2       835.771          45.000    20531182.583 1  84071781.397 2       650.909          46.000  
C07  34918598.652 1 181830307.544 2     -1291.919          45.000    34918594.852 1 140602706.452 2      -998.871          48.000  
C08  35978939.698 1 187351786.612 2      -455.966          42.000    35978937.138 1 144872275.257 2      -353.080          48.000  
C10  35284965.349 1 183738068.750 2      -921.405          45.000    35284964.543 1 142077929.770 2      -712.489          47.000  
C27  21792051.410 1 113476918.143 2     -2553.436          47.000                                                                  
C30  20638614.048 1 107470678.188 1       100.991          51.000                                                                  
C13  37034136.154 1 192846466.512 3      -301.026          42.000    37034143.596 1 149121154.155 2      -232.396          47.000  
R02  18660303.402 1  99574958.303 1      1133.338          52.000    18660308.543 1  77447230.061 2       881.534          48.000  
R16  22393601.627 2 119622598.262 3     -1350.565          48.000    22393611.640 2  93039891.452 4     -1050.114          44.000  
R15  22559613.397 9               9     -3751.025          31.000    22559637.458 9               9     -2927.685          37.000  
R01  19305680.959 2 103199926.860 3     -2994.420          49.000                                                                  
R24  19433925.001 1 103921928.051 3     -2092.699          50.000    19433928.379 2  80828177.395 3     -1627.047          48.000  
R17  19120400.467 1 102317133.096 2      1136.887          51.000    19120402.616 1  79580011.245 2       883.954          48.000  
G12  22173741.899 1 116523798.393 4      -981.203          41.000    22173746.739 1  90797784.704 3      -764.636          41.000  
G17  21505275.065 1 113010966.851 3     -3631.738          43.000    21505281.734 1  88060527.857 2     -2830.177          42.000  
G19  19318177.244 1 101517705.122 2     -2666.099          46.000                                                                  
G20  20811014.108 1 109362623.896 2      1356.259          44.000                                                                  
J02  36158140.300 1 190012304.575 3     -1045.898          41.000    36158151.057 1 148061580.491 3      -815.243          44.000  
J04  36485761.391 1 191733971.752 2     -1148.078          44.000    36485764.008 1 149403108.664 2      -894.441          46.000  
C29  23788316.981 1 123872007.989 4      2074.354          44.000                                                                  
C32  20970401.700 1 109198386.595 1       -95.532          50.000                                                                  
R18  22249474.951 2 118769210.404 4      2492.936          44.000    22249485.019 2  92376091.221 4      1938.505          43.000  
R03  22009426.148 2 117818183.675 8      3636.390          42.000    22009452.749 2  91636476.409 6      2829.489          43.000  
J07  36251697.631 1 190503946.598 3      -774.034          37.000    36251702.308 1 148444660.904 2      -602.983          46.000  
J03  37879401.556 1 199057600.184 2      -395.148          47.000    37879403.449 1 155109824.237 2      -308.362          46.000  
E11  24468541.496 1 128583064.574 3       637.149          40.000    24468546.536 1  98524718.151 2       488.093          47.000  
E16  24545032.520 1 128985012.271 3     -2253.482          42.000    24545043.537 1  98832695.195 2     -1726.648          50.000  
E19  23555514.552 1 123785070.372 4      -158.644          38.000    23555522.049 1  94848330.412 2      -122.314          46.000  
E24  25330683.877 2 133113630.077 5     -3213.694          40.000    25330697.060 1 101996210.464 4     -2462.105          48.000  
S28  37802306.033 2 198652460.412 7      -735.448          39.000  
E10  22975549.520 1 120737335.724 1      -261.856          47.000    22975555.988 1  92513054.236 2      -200.869          51.000  
E04  25051776.231 1 131647977.921 3      2026.688          42.000    25051790.950 1 100873193.131 2      1553.196          48.000  
E12  23244258.379 1 122149393.864 3     -1190.705          42.000    23244262.491 1  93595010.463 2      -912.176          47.000  
G25  23494544.092 1 123464656.838 4       435.978          39.000    23494554.660 2  96206270.391 6       339.532          34.000  
E06  26600493.129 2 139786539.942 7      2254.909          37.000                                                                  
E25  24905112.436 1 130877239.042 3     -1078.135          42.000    24905124.002 1 100282605.394 2      -826.302          49.000  
E29                                                                  26284150.852 9               9     -1766.854          27.000  
E33                                                                  26075059.673 9               9     -1983.888          28.000  
G05                                                                  23976898.158 9               9      2025.841          21.000  
> 2025 04 25 07 10 00.9970000  0 44                     
S29  37326057.196 1 196149754.474 4      -739.530          40.000  
S37  36251841.107 1 190504709.583 3      -773.354          40.000  
G04  22199231.909 9               9     -2400.371          28.000    22199239.382 9               9     -1863.860          28.000  
G06  19774893.407 1 103917764.917 2      -840.102          48.000    19774897.312 1  80974898.743 2      -654.732          46.000  
G09  20465501.642 1 107546938.533 3      -622.677          43.000    20465505.448 1  83802832.240 3      -484.956          45.000  
G11  20531021.585 1 107891250.965 2       834.578          45.000    20531023.562 1  84071130.610 2       650.248          46.000  
C07  34918846.609 1 181831599.188 2     -1291.608          45.000    34918842.910 1 140603705.222 2      -998.871          47.000  
C08  35979027.264 1 187352242.760 2      -456.391          42.000    35979024.738 1 144872627.975 2      -353.254          48.000  
C10  35285142.279 1 183738990.380 2      -921.664          45.000    35285141.566 1 142078642.430 2      -712.895          47.000  
C27  21792541.698 1 113479471.390 3     -2553.323          46.000                                                                  
C30  20638594.743 1 107470577.446 1       100.370          51.000                                                                  
C13  37034193.796 1 192846766.928 3      -300.672          42.000    37034201.380 1 149121386.471 2      -232.207          47.000  
R02  18660090.983 1  99573824.918 1      1133.315          52.000    18660096.052 1  77446348.539 2       881.196          48.000  
R16  22393854.519 2 119623949.332 4     -1352.224          47.000    22393864.618 2  93040942.241 4     -1050.605          43.000  
R15  22560320.157 9               9     -3760.791          35.000    22560342.463 9               7     -2922.412          34.000  
R01  19306241.261 2 103202922.094 3     -2995.681          48.000                                                                  
R24  19434316.314 1 103924020.609 3     -2092.469          50.000    19434319.666 2  80829804.971 4     -1626.912          47.000  
R17  19120187.966 1 102315996.813 2      1135.532          51.000    19120190.031 1  79579127.446 2       883.223          48.000  
G12  22173928.732 1 116524780.102 4      -982.630          39.000    22173933.695 1  90798549.649 3      -765.150          41.000  
G17  21505966.091 1 113014598.105 3     -3630.593          43.000    21505972.693 1  88063357.404 3     -2829.492          42.000  
G19  19318684.540 1 101520371.058 2     -2665.550          46.000                                                                  
G20  20810756.013 1 109361267.778 2      1355.878          44.000                                                                  
J02  36158339.240 1 190013349.707 3     -1044.439          41.000    36158349.876 1 148062394.881 3      -814.664          44.000  
J04  36485979.712 1 191735119.277 2     -1147.225          44.000    36485982.413 1 149404002.822 2      -893.768          46.000  
C29  23787918.748 1 123869934.430 3      2073.171          43.000                                                                  
C32  20970420.142 1 109198481.852 1       -95.465          50.000                                                                  
R18  22249008.075 2 118766717.660 4      2491.642          45.000    22249017.975 2  92374152.410 5      1938.589          41.000  
R03  22008746.546 2               9      3639.008          44.000    22008772.989 4  91633643.72038      2830.105          40.000  
J07  36251844.851 1 190504719.945 3      -773.243          37.000    36251849.430 1 148445263.513 2      -602.380          45.000  
J03  37879476.740 1 199057995.276 1      -394.855          47.000    37879478.645 1 155110132.097 2      -307.794          46.000  
E11  24468420.187 1 128582427.689 3       636.072          40.000    24468425.341 1  98524230.133 2       487.527          47.000  
E16  24545461.580 1 128987265.893 3     -2253.989          42.000    24545472.239 1  98834421.975 2     -1726.637          50.000  
E19  23555544.957 1 123785229.902 5      -158.807          37.000    23555552.479 1  94848452.606 3      -121.787          45.000  
E24  25331295.389 1 133116842.343 5     -3212.914          40.000    25331308.388 1 101998671.794 3     -2461.633          48.000  
S28  37802446.111 2 198653196.396 5      -737.772          37.000  
E10  22975599.404 1 120737597.911 1      -262.511          47.000    22975605.891 1  92513255.118 1      -201.158          51.000  
E04  25051390.341 1 131645950.444 2      2027.977          42.000    25051405.191 1 100871639.633 2      1553.758          48.000  
E12  23244485.056 1 122150585.127 2     -1191.447          43.000    23244489.051 1  93595923.251 2      -912.863          47.000  
G25  23494461.189 1 123464221.451 3       433.929          39.000    23494471.855 2  96205931.116 6       338.832          33.000  
E06  26600064.107 2 139784285.354 6      2254.569          36.000                                                                  
E25  24905317.786 1 130878317.937 3     -1079.181          42.000    24905329.231 1 100283432.087 2      -827.457          49.000  
E29                                                                  26284589.964 8               9     -1766.573          37.000  
E33                                                                  26075547.700 9               9     -1974.620          32.000  
G05                                                                  23976405.985 9               9      1994.464          19.000  
> 2025 04 25 07 10 01.9970000  0 44                     
S29  37326198.081 1 196150494.306 4      -740.195          39.000  
S37  36251988.159 1 190505482.338 3      -772.885          40.000  
G06  19775053.294 1 103918605.216 1      -840.707          48.000    19775057.128 1  80975553.505 2      -655.056          46.000  
G09  20465620.204 1 107547561.455 3      -623.000          43.000    20465623.954 1  83803317.641 2      -485.538          44.000  
G11  20530862.820 1 107890416.672 2       833.674          45.000    20530864.829 1  84070480.514 2       649.596          46.000  
C07  34919094.750 1 181832890.877 2     -1291.937          45.000    34919090.975 1 140604704.033 2      -998.993          47.000  
C08  35979114.959 1 187352699.216 2      -456.740          42.000    35979112.337 1 144872980.922 2      -353.184          48.000  
C10  35285319.287 1 183739912.295 2      -922.453          45.000    35285318.557 1 142079355.295 2      -712.763          47.000  
C27  21793031.926 1 113482024.358 3     -2553.138          46.000                                                                  
C30  20638575.531 1 107470477.337 1        99.504          51.000                                                                  
C13  37034251.627 1 192847067.673 3      -301.055          42.000    37034259.064 1 149121619.021 2      -232.770          47.000  
R02  18659878.719 1  99572691.833 1      1132.803          52.000    18659883.766 1  77445467.261 2       881.097          48.000  
R16  22394107.660 2 119625302.192 3     -1353.449          47.000    22394117.893 2  93041994.557 4     -1052.750          44.000  
R15  22561024.823 9               9     -3793.417          31.000                                                                  
R01  19306801.783 2 103205918.140 3     -2996.675          48.000                                                                  
R24  19434707.672 1 103926113.226 2     -2092.720          50.000    19434711.046 2  80831432.572 3     -1627.742          48.000  
R17  19119975.859 1 102314861.399 2      1134.801          51.000    19119977.858 1  79578244.349 2       882.530          48.000  
G12  22174115.879 1 116525763.301 3      -984.115          41.000    22174120.738 1  90799315.778 3      -766.349          41.000  
G17  21506656.955 1 113018228.824 3     -3630.644          43.000    21506663.585 1  88066186.509 3     -2829.176          42.000  
G19  19319191.856 1 101523037.068 2     -2666.401          46.000                                                                  
G20  20810498.026 1 109359912.278 2      1355.254          44.000                                                                  
J02  36158538.022 1 190014394.249 3     -1044.042          41.000    36158548.553 1 148063208.825 3      -814.577          44.000  
J04  36486197.950 1 191736266.232 2     -1146.721          44.000    36486200.622 1 149404896.574 2      -893.485          45.000  
C29  23787520.747 1 123867862.021 3      2071.001          42.000                                                                  
C32  20970438.594 1 109198577.331 1       -95.944          50.000                                                                  
R18  22248541.269 2 118764225.913 4      2491.325          42.000    22248551.120 2  92372214.371 4      1937.492          44.000  
R03  22008066.786 2 117810906.619 6      3639.555          46.000    22008093.156 2  91630813.68426      2830.200          44.000  
J07  36251991.987 1 190505492.706 3      -772.774          37.000    36251996.497 1 148445865.675 2      -602.135          46.000  
J03  37879551.926 1 199058390.154 1      -394.763          47.000    37879553.803 1 155110439.786 2      -307.758          46.000  
E11  24468299.250 1 128581791.606 3       635.742          40.000    24468304.155 1  98523742.755 2       487.060          47.000  
E16  24545890.514 1 128989520.316 3     -2254.933          42.000    24545901.256 1  98836149.397 2     -1727.827          50.000  
E19  23555575.249 1 123785389.507 4      -160.089          38.000    23555582.799 1  94848574.918 3      -122.650          45.000  
E24  25331906.776 1 133120054.799 4     -3213.473          40.000    25331919.617 1 102001133.252 3     -2461.770          49.000  
S28  37802586.139 2 198653932.365 5      -735.872          38.000  
E10  22975649.458 1 120737860.664 1      -263.111          47.000    22975655.943 1  92513456.448 1      -201.500          51.000  
E04  25051004.344 1 131643922.196 2      2028.408          42.000    25051019.264 1 100870085.529 2      1554.539          48.000  
E12  23244711.779 1 122151776.608 2     -1191.683          43.000    23244715.708 1  93596836.202 1      -913.079          47.000  
E33  26076027.427 9               9     -2582.421          27.000    26076040.785 9               9     -1977.334          32.000  
G25  23494378.636 1 123463787.827 3       433.331          39.000    23494389.299 2  96205593.260 6       336.202          32.000  
E06  26599635.020 2 139782029.785 8      2256.507          34.000                                                                  
E25  24905523.365 1 130879398.146 3     -1081.097          42.000    24905534.676 1 100284259.757 2      -828.482          49.000  
E29                                                                  26285028.456 8               9     -1766.369          32.000  
G04                                                                  22199692.721 9               9     -1866.282          29.000  
G05                                                                  23975915.927 9               9      2014.227          20.000  
> 2025 04 25 07 10 02.9970000  0 44                     
S29  37326338.915 1 196151234.327 4      -740.172          40.000  
S37  36252135.049 1 190506254.506 3      -771.922          40.000  
G04  22200141.065 8               9     -2414.403          28.000    22200149.317 9               9     -1865.856          29.000  
G06  19775213.278 1 103919445.915 2      -841.258          48.000    19775217.197 1  80976208.578 2      -655.189          46.000  
G09  20465738.735 1 107548184.266 3      -622.219          43.000    20465742.434 1  83803802.952 3      -485.052          44.000  
G11  20530704.291 1 107889583.385 2       831.898          45.000    20530706.155 1  84069831.186 2       648.521          46.000  
C07  34919342.880 1 181834182.672 1     -1291.821          46.000    34919339.116 1 140605702.945 2      -999.170          48.000  
C08  35979202.766 1 187353156.139 2      -457.224          42.000    35979200.080 1 144873334.238 2      -353.677          48.000  
C10  35285496.557 1 183740834.639 2      -922.827          45.000    35285495.685 1 142080068.536 2      -713.623          47.000  
C27  21793522.140 1 113484576.647 2     -2551.542          47.000                                                                  
C30  20638556.345 1 107470377.851 1        98.805          51.000                                                                  
C13  37034309.385 1 192847368.885 2      -301.901          42.000    37034316.939 1 149121851.926 2      -233.080          47.000  
R02  18659666.344 1  99571558.959 1      1132.870          52.000    18659671.365 1  77444586.122 2       881.152          48.000  
R16  22394361.301 2 119626657.222 4     -1356.436          46.000    22394371.540 2  93043048.482 5     -1055.056          42.000  
R15  22561725.353 9 120563019.54838     -3760.380          42.000    22561741.409 9               9     -2926.173          39.000  
R01  19307362.340 1 103208914.727 2     -2996.531          48.000                                                                  
R24  19435099.018 1 103928205.588 2     -2092.399          50.000    19435102.395 2  80833059.960 3     -1627.000          48.000  
R17  19119763.878 2 102313726.849 4      1136.291          49.000    19119765.839 2  79577361.968 3       882.958          45.000  
G12  22174303.200 1 116526748.270 3      -986.356          41.000    22174308.264 1  90800083.283 3      -768.314          41.000  
G17  21507347.714 1 113021858.730 3     -3629.346          42.000    21507354.338 1  88069014.980 2     -2827.972          42.000  
G19  19319699.089 1 101525702.986 1     -2665.837          46.000                                                                  
G20  20810240.281 1 109358557.636 3      1353.698          44.000                                                                  
J02  36158736.667 1 190015438.095 4     -1043.358          41.000    36158747.198 1 148064022.173 3      -813.120          44.000  
J04  36486416.103 1 191737412.531 2     -1145.573          44.000    36486418.826 1 149405789.798 2      -892.945          46.000  
C29  23787123.096 1 123865790.795 3      2070.537          42.000                                                                  
C32  20970456.787 1 109198672.945 1       -95.672          50.000                                                                  
R18  22248074.792 2 118761735.518 4      2487.912          44.000    22248084.749 2  92370277.310 4      1936.835          42.000  
R03  22007386.889 2 117807267.546 5      3638.877          45.000    22007413.251 2  91627983.27425      2831.866          43.000  
J07  36252138.910 1 190506264.853 3      -771.553          37.000    36252143.404 1 148446467.361 2      -601.458          46.000  
J03  37879627.049 1 199058784.693 1      -394.470          47.000    37879628.784 1 155110747.198 2      -307.220          46.000  
E11  24468178.364 1 128581156.573 3       634.236          40.000    24468183.415 1  98523256.182 2       485.616          47.000  
E16  24546320.039 1 128991775.822 3     -2256.578          42.000    24546330.694 1  98837877.625 2     -1728.998          50.000  
E19  23555605.546 1 123785548.682 4      -158.731          38.000    23555613.052 1  94848696.863 2      -121.726          46.000  
E24  25332518.209 1 133123267.532 4     -3212.917          41.000    25332530.961 1 102003594.978 3     -2461.790          48.000  
S28  37802726.329 2 198654668.927 5      -737.884          38.000  
E10  22975699.535 1 120738124.043 1      -264.271          46.000    22975705.930 1  92513658.278 2      -202.848          50.000  
E04  25050618.295 1 131641892.952 3      2030.249          42.000    25050632.911 1 100868530.699 2      1555.502          48.000  
E12  23244938.645 1 122152968.177 2     -1191.653          43.000    23244942.463 1  93597749.235 2      -913.081          47.000  
E33  26076521.932 8               9     -2577.250          28.000    26076530.295 8               9     -1968.584          31.000  
G25  23494296.469 1 123463356.076 3       429.684          40.000    23494307.092 2               9       336.276          33.000  
E06  26599205.664 2 139779773.220 7      2258.322          37.000                                                                  
E25  24905729.160 1 130880479.863 3     -1082.795          42.000    24905740.479 1 100285088.584 1      -829.365          49.000  
E29                                                                  26285469.687 9               9     -1786.088          27.000  
G05                                                                  23975422.864 9               9      2021.507          23.000  
> 2025 04 25 07 10 03.9970000  0 44                     
S29  37326479.886 1 196151974.796 4      -740.360          38.000  
S37  36252281.879 1 190507025.803 3      -770.818          40.000  
G06  19775373.361 1 103920287.149 2      -841.572          48.000    19775377.231 1  80976864.107 3      -655.861          46.000  
G09  20465857.202 1 107548806.726 3      -622.854          43.000    20465860.709 1  83804287.933 3      -484.233          45.000  
G11  20530546.043 1 107888751.601 2       830.406          45.000    20530547.787 1  84069183.045 2       647.433          46.000  
C07  34919590.979 1 181835474.636 2     -1291.840          46.000    34919587.281 1 140606701.973 2      -998.865          48.000  
C08  35979290.574 1 187353613.817 2      -457.765          42.000    35979287.965 1 144873688.144 2      -353.917          48.000  
C10  35285673.756 1 183741757.641 2      -923.162          45.000    35285672.892 1 142080782.256 2      -713.881          47.000  
C27  21794012.038 1 113487127.918 3     -2550.813          46.000                                                                  
C30  20638537.422 1 107470279.190 1        98.293          51.000                                                                  
C13  37034367.298 1 192847670.900 3      -302.136          42.000    37034374.961 1 149122085.501 2      -234.015          47.000  
R02  18659454.001 1  99570426.060 1      1132.997          52.000    18659459.095 1  77443704.985 2       881.409          48.000  
R16  22394615.572 2 119628015.077 4     -1358.576          47.000    22394625.786 2  93044104.524 4     -1057.020          42.000  
R15  22562422.160 8               9     -3761.726          37.000    22562440.066 8               9     -2926.759          36.000  
R01  19307922.978 2 103211911.938 3     -2997.668          49.000                                                                  
R24  19435490.132 1 103930297.406 3     -2091.968          50.000    19435493.507 2  80834686.915 3     -1627.104          47.000  
R17  19119552.085 1 102312593.739 3      1132.731          52.000    19119554.185 2  79576480.619 3       880.888          48.000  
G12  22174491.135 1 116527735.621 4      -988.461          41.000    22174496.075 1  90800852.705 3      -770.464          41.000  
G17  21508038.228 1 113025487.348 3     -3627.928          42.000    21508044.808 1  88071842.475 2     -2826.694          42.000  
G19  19320206.333 1 101528368.572 1     -2665.244          46.000                                                                  
G20  20809982.636 1 109357204.125 3      1353.176          44.000                                                                  
J02  36158935.145 1 190016481.038 3     -1041.837          41.000    36158945.753 1 148064834.824 3      -811.983          44.000  
J04  36486634.060 1 191738557.838 2     -1144.563          44.000    36486636.729 1 149406682.248 2      -891.988          46.000  
C29  23786725.738 1 123863721.581 3      2068.188          43.000                                                                  
C32  20970475.152 1 109198768.560 1       -95.610          50.000                                                                  
R18  22247608.522 2 118759246.979 5      2487.403          43.000    22247618.577 2  92368341.874 4      1934.443          42.000  
R03  22006706.882 2 117803627.686 7      3640.482          46.000    22006733.320 2  91625152.44526      2831.241          42.000  
J07  36252285.837 1 190507036.156 3      -770.544          37.000    36252290.193 1 148447068.382 2      -600.721          46.000  
J03  37879702.002 1 199059178.807 2      -393.909          47.000    37879703.800 1 155111054.315 2      -306.763          46.000  
E11  24468057.766 1 128580523.131 3       632.706          40.000    24468062.878 1  98522770.811 2       484.639          47.000  
E16  24546749.520 1 128994032.778 3     -2257.764          42.000    24546760.097 1  98839606.979 2     -1729.928          50.000  
E19  23555635.626 1 123785707.071 5      -158.730          38.000    23555643.172 1  94848818.223 3      -121.021          46.000  
E24  25333129.789 1 133126480.867 5     -3213.236          39.000    25333142.495 1 102006057.129 3     -2462.148          46.000  
S28  37802866.632 2 198655405.970 7      -736.392          38.000  
E10  22975750.057 1 120738388.342 2      -264.838          47.000    22975756.309 1  92513860.762 2      -202.873          51.000  
E04  25050231.711 1 131639862.363 3      2031.397          42.000    25050246.431 1 100866974.802 2      1556.497          48.000  
E12  23245165.393 1 122154159.911 3     -1191.907          43.000    23245169.186 1  93598662.369 2      -913.086          48.000  
E33  26077010.031 8               9     -2581.433          28.000    26077021.385 8               9     -1975.746          31.000  
G25  23494214.795 1 123462926.958 3       427.810          39.000    23494225.480 2  96204922.391 7       333.496          30.000  
E06  26598775.882 1 139777515.488 5      2258.018          37.000                                                                  
E25  24905935.379 1 130881563.732 3     -1084.971          42.000    24905946.733 1 100285919.094 2      -831.372          49.000  
E29                                                                  26285908.148 9               9     -1795.015          25.000  
G04                                                                  22200604.262 9               9     -1865.718          30.000  
G05                                                                  23974930.183 9               9      2016.499          24.000  
> 2025 04 25 07 10 04.9970000  0 44                     
S29  37326620.803 1 196152715.377 4      -740.958          39.000  
S37  36252428.502 1 190507796.105 3      -770.045          40.000  
G06  19775533.669 1 103921129.105 2      -842.312          48.000    19775537.502 1  80977520.177 2      -656.442          46.000  
G09  20465975.629 1 107549428.824 3      -622.065          43.000    20465979.063 1  83804772.766 3      -484.714          44.000  
G11  20530388.097 1 107887921.325 2       829.250          45.000    20530389.828 1  84068536.077 2       646.335          46.000  
C07  34919839.107 1 181836766.695 1     -1292.175          45.000    34919835.449 1 140607701.068 2      -998.883          48.000  
C08  35979378.649 1 187354072.087 2      -457.990          41.000    35979376.008 1 144874042.529 2      -354.780          48.000  
C10  35285851.194 1 183742681.204 2      -923.775          45.000    35285850.201 1 142081496.403 2      -714.310          47.000  
C27  21794501.723 1 113489678.201 3     -2549.509          46.000                                                                  
C30  20638518.619 1 107470181.462 1        97.205          51.000                                                                  
C13  37034425.450 1 192847973.501 3      -302.477          42.000    37034433.029 1 149122319.474 2      -233.927          47.000  
R02  18659241.691 1  99569293.128 1      1132.906          52.000    18659246.875 1  77442823.822 2       881.218          47.000  
R16  22394870.302 2 119629375.745 4     -1361.262          47.000    22394880.627 2  93045162.871 4     -1059.756          42.000  
R15  22563127.476 9               9     -3763.336          38.000    22563143.492 9               9     -2928.101          34.000  
R01  19308483.864 2 103214909.943 2     -2998.344          48.000                                                                  
R24  19435881.154 1 103932388.842 3     -2091.596          50.000    19435884.606 2  80836313.597 3     -1626.744          47.000  
R17  19119340.597 1 102311462.120 2      1130.970          51.000    19119342.748 2  79575600.462 2       879.451          47.000  
G12  22174679.530 1 116528725.320 3      -990.867          42.000    22174684.371 1  90801623.821 3      -771.632          41.000  
G17  21508728.449 1 113029114.561 3     -3626.949          42.000    21508735.062 1  88074668.880 3     -2826.438          41.000  
G19  19320713.539 1 101531033.792 2     -2665.137          46.000                                                                  
G20  20809725.270 1 109355851.651 3      1352.040          44.000                                                                  
J02  36159133.416 1 190017522.746 3     -1041.321          41.000    36159144.099 1 148065646.560 3      -810.739          43.000  
J04  36486851.967 1 191739702.132 2     -1143.783          44.000    36486854.561 1 149407573.902 2      -891.194          45.000  
C29  23786328.614 1 123861654.292 4      2066.073          42.000                                                                  
C32  20970493.487 1 109198864.187 1       -95.665          50.000                                                                  
R18  22247142.605 2 118756760.454 5      2485.740          44.000    22247152.882 2  92366407.897 4      1932.856          41.000  
R03  22006026.761 4               9      3641.044          43.000    22006053.188 2  91622320.861 7      2831.541          42.000  
J07  36252432.423 1 190507806.472 3      -770.081          37.000    36252436.781 1 148447668.612 2      -599.796          46.000  
J03  37879776.948 1 199059572.617 1      -393.774          47.000    37879778.746 1 155111361.174 2      -306.812          46.000  
E11  24467937.565 1 128579891.249 3       631.265          40.000    24467942.707 1  98522286.630 2       483.587          47.000  
E16  24547179.287 1 128996290.996 3     -2258.665          42.000    24547189.794 1  98841337.325 2     -1730.770          50.000  
E19  23555665.482 1 123785864.896 4      -157.182          38.000    23555673.217 1  94848939.183 3      -120.853          45.000  
E24  25333741.111 1 133129694.328 5     -3212.969          39.000    25333753.899 1 102008519.366 3     -2461.912          46.000  
S28  37803007.015 2 198656143.404 7      -737.965          36.000  
E10  22975800.372 1 120738653.666 2      -265.750          47.000    22975806.782 1  92514064.081 1      -203.630          51.000  
E04  25049845.064 1 131637830.135 3      2033.071          41.000    25049859.700 1 100865417.694 2      1557.149          47.000  
E12  23245392.177 1 122155351.977 2     -1192.304          43.000    23245396.075 1  93599575.759 2      -913.581          47.000  
E33  26077503.566 9               9     -2591.957          26.000    26077510.211 8               9     -1973.116          31.000  
G25  23494133.615 1 123462500.476 3       424.827          41.000    23494144.227 4  96204590.057 8       331.461          32.000  
E06  26598345.945 2 139775256.117 6      2257.979          37.000                                                                  
E25  24906142.100 1 130882649.648 3     -1087.487          40.000    24906153.512 1 100286751.128 2      -832.542          48.000  
E29                                                                  26286348.510 9               9     -1768.898          26.000  
G04                                                                  22201062.366 9               9     -1865.618          31.000  
G05                                                                  23974438.303 9               9      2014.610          27.000  
> 2025 04 25 07 10 05.9970000  0 44                     
S29  37326761.699 1 196153456.108 4      -741.268          40.000  
S37  36252574.919 1 190508565.532 3      -768.723          40.000  
G06  19775694.103 1 103921971.995 2      -843.146          48.000    19775697.908 1  80978176.979 2      -657.402          45.000  
G09  20466094.027 1 107550051.154 3      -622.673          43.000    20466097.509 1  83805257.670 3      -485.072          43.000  
G11  20530230.299 1 107887092.686 2       827.660          44.000    20530232.245 1  84067890.385 2       645.159          45.000  
C07  34920087.250 1 181838058.952 1     -1292.389          46.000    34920083.597 1 140608700.317 2      -999.292          47.000  
C08  35979466.798 1 187354531.032 2      -459.306          41.000    35979464.131 1 144874397.395 2      -355.085          48.000  
C10  35286028.654 1 183743605.401 2      -924.575          45.000    35286027.643 1 142082211.042 2      -714.781          47.000  
C27  21794991.342 1 113492227.920 3     -2549.382          46.000                                                                  
C30  20638500.073 1 107470084.809 1        96.130          51.000                                                                  
C13  37034483.744 1 192848276.688 3      -302.890          42.000    37034491.266 1 149122553.944 3      -235.164          47.000  
R02  18659029.421 1  99568160.385 1      1132.589          52.000    18659034.610 1  77441942.813 2       880.806          45.000  
R16  22395125.554 2 119630739.312 4     -1364.108          45.000    22395135.905 2  93046223.457 5     -1062.208          41.000  
R15  22563835.615 9               9     -3768.310          34.000    22563847.835 9               9     -2928.450          26.000  
R01  19309044.906 1 103217909.151 2     -2999.704          48.000                                                                  
R24  19436272.336 1 103934480.282 3     -2091.182          50.000    19436275.581 2  80837940.265 2     -1626.730          46.000  
R17  19119129.499 1 102310332.185 2      1129.158          52.000    19119131.612 1  79574721.622 2       878.486          46.000  
G12  22174868.318 1 116529717.310 4      -992.972          42.000    22174873.205 1  90802396.853 4      -774.277          41.000  
G17  21509418.515 1 113032740.739 3     -3626.071          42.000    21509425.105 1  88077494.408 3     -2824.941          41.000  
G19  19321220.658 1 101533698.887 2     -2665.274          46.000                                                                  
G20  20809468.115 1 109354500.151 3      1351.313          44.000                                                                  
J02  36159331.454 1 190018563.453 4     -1039.733          41.000    36159342.118 1 148066457.523 3      -810.532          42.000  
J04  36487069.474 1 191740845.644 2     -1143.211          44.000    36487072.233 1 149408464.925 2      -890.385          44.000  
C29  23785932.026 1 123859588.982 4      2064.990          42.000                                                                  
C32  20970511.959 1 109198960.043 1       -96.021          50.000                                                                  
R18  22246677.244 2 118754276.040 5      2483.651          40.000    22246687.563 2  92364475.580 4      1932.265          41.000  
R03  22005346.557 2 117796342.33037      3640.688          46.000    22005372.909 2  91619488.564 6      2832.164          41.000  
J07  36252578.857 1 190508575.900 3      -768.827          37.000    36252583.214 1 148448268.176 2      -599.135          45.000  
J03  37879851.824 1 199059966.338 1      -393.738          47.000    37879853.631 1 155111667.982 2      -307.025          46.000  
E11  24467817.472 1 128579260.975 3       629.712          40.000    24467822.907 1  98521803.707 2       482.272          47.000  
E16  24547609.195 1 128998550.525 3     -2259.812          41.000    24547619.717 1  98843068.645 2     -1731.368          50.000  
E19  23555695.686 1 123786022.606 3      -157.707          38.000    23555703.146 1  94849060.031 3      -120.869          45.000  
E24  25334352.559 1 133132908.031 5     -3214.415          40.000    25334365.613 1 102010981.806 3     -2462.846          49.000  
S28  37803147.288 2 198656881.110 6      -738.425          38.000  
E10  22975851.162 1 120738920.212 1      -267.086          47.000    22975857.462 1  92514268.321 1      -204.633          51.000  
E04  25049457.954 1 131635796.685 2      2034.023          42.000    25049472.751 1 100863859.572 2      1558.484          47.000  
E12  23245619.081 1 122156544.656 2     -1192.808          43.000    23245622.946 1  93600489.659 2      -914.112          48.000  
G25  23494053.055 1 123462076.712 3       422.852          41.000    23494063.622 2  96204259.885 6       328.767          33.000  
E06  26597915.816 2 139772995.169 7      2260.878          35.000                                                                  
E25  24906349.183 1 130883737.572 4     -1088.508          42.000    24906360.595 1 100287584.743 2      -833.833          49.000  
E29                                                                  26286786.091 9               9     -1769.169          27.000  
E33                                                                  26078002.178 8               9     -1975.156          31.000  
G04                                                                  22201519.216 9               9     -1866.325          30.000  
G05                                                                  23973942.591 9               9      2016.864          27.000  
> 2025 04 25 07 10 06.9970000  0 44                     
S29  37326902.635 1 196154196.631 5      -739.849          40.000  
S37  36252721.162 1 190509333.878 3      -767.318          40.000  
G06  19775854.666 1 103922815.698 1      -844.081          48.000    19775858.448 1  80978834.397 2      -657.641          45.000  
G09  20466212.423 1 107550673.535 3      -622.587          43.000    20466216.088 1  83805742.649 3      -484.919          44.000  
G11  20530072.859 1 107886265.418 2       826.527          45.000    20530074.986 1  84067245.790 2       643.790          45.000  
C07  34920335.359 1 181839351.124 2     -1291.852          45.000    34920331.743 1 140609699.517 2      -999.127          47.000  
C08  35979554.999 1 187354990.296 2      -459.205          42.000    35979552.378 1 144874752.516 2      -354.843          48.000  
C10  35286206.168 1 183744529.930 2      -924.126          45.000    35286205.229 1 142082925.968 2      -715.041          47.000  
C27  21795480.862 1 113494776.930 2     -2548.652          47.000                                                                  
C30  20638481.679 1 107469989.049 1        95.341          51.000                                                                  
C13  37034542.004 1 192848580.171 3      -303.928          42.000    37034549.529 1 149122788.589 2      -234.956          46.000  
R02  18658817.042 1  99567027.612 1      1132.911          52.000    18658822.381 1  77441061.770 2       881.019          46.000  
R16  22395381.442 2 119632105.646 5     -1368.018          45.000    22395391.702 2  93047286.056 4     -1062.946          42.000  
R15  22564538.235 9               9     -3770.996          34.000    22564553.353 9               9     -2928.906          35.000  
R01  19309606.188 2 103220909.449 2     -3000.878          48.000                                                                  
R24  19436663.429 1 103936571.691 3     -2091.644          50.000    19436666.687 2  80839566.923 3     -1626.728          46.000  
R17  19118918.599 1 102309203.723 2      1128.157          51.000    19118920.641 1  79573843.915 2       877.807          47.000  
G12  22175057.402 1 116530711.298 4      -994.531          41.000    22175062.299 1  90803171.379 4      -775.595          41.000  
G17  21510108.256 1 113036365.617 3     -3624.316          43.000    21510114.978 1  88080319.023 3     -2824.134          41.000  
G19  19321727.758 1 101536363.630 2     -2664.671          46.000                                                                  
G20  20809211.045 1 109353149.339 3      1350.469          44.000                                                                  
J02  36159529.165 1 190019602.923 4     -1039.177          41.000    36159539.870 1 148067267.495 3      -809.930          42.000  
J04  36487286.812 1 191741988.162 2     -1142.229          44.000    36487289.613 1 149409355.224 2      -889.852          45.000  
C29  23785535.705 1 123857525.545 4      2063.478          42.000                                                                  
C32  20970530.466 1 109199055.943 1       -95.924          50.000                                                                  
R18  22246212.168 2 118751793.411 6      2482.162          42.000    22246222.560 2  92362544.691 5      1930.762          42.000  
R03  22004665.932 2 117792699.55825      3643.988          44.000    22004692.440 2  91616655.417 5      2833.677          42.000  
J07  36252725.009 1 190509344.267 3      -767.764          37.000    36252729.440 1 148448866.902 2      -598.593          45.000  
J03  37879926.778 1 199060359.837 1      -393.457          47.000    37879928.520 1 155111974.597 2      -306.793          46.000  
E11  24467697.867 1 128578632.060 4       628.816          40.000    24467703.037 1  98521321.817 2       481.668          47.000  
E16  24548039.659 1 129000811.033 4     -2259.864          40.000    24548049.874 1  98844800.749 2     -1732.509          49.000  
E19  23555725.523 1 123786180.074 4      -157.199          38.000    23555733.119 1  94849180.703 3      -120.149          45.000  
E24  25334964.125 1 133136121.594 4     -3213.209          41.000    25334977.033 1 102013444.155 3     -2461.902          48.000  
S28  37803287.719 2 198657618.916 6      -737.336          38.000  
E10  22975901.910 1 120739187.765 1      -267.876          47.000    22975908.472 1  92514473.325 1      -205.258          51.000  
E04  25049070.525 1 131633761.705 3      2035.510          42.000    25049085.606 1 100862300.303 2      1560.348          48.000  
E12  23245846.132 1 122157737.845 2     -1193.579          43.000    23245850.112 1  93601403.901 2      -914.407          48.000  
G25  23493972.920 1 123461655.563 3       419.521          39.000    23493983.506 2  96203931.702 7       326.423          33.000  
E06  26597485.092 2 139770732.691 7      2263.170          37.000                                                                  
E25  24906556.585 1 130884827.283 4     -1090.323          41.000    24906567.994 1 100288419.703 2      -834.970          50.000  
E29                                                                  26287227.273 9               9     -1776.200          26.000  
E33                                                                  26078491.898 8               9     -1974.821          27.000  
G04                                                                  22201975.638 9               9     -1870.940          30.000  
G05                                                                  23973446.668 9               9      2010.346          26.000  
> 2025 04 25 07 10 07.9970000  0 44                     
S29  37327043.473 1 196154936.938 5      -740.507          39.000  
S37  36252867.012 1 190510100.398 3      -765.124          40.000  
G04  22202429.025 9               9     -2392.157          28.000    22202430.167 8               9     -1870.063          31.000  
G06  19776015.471 1 103923660.530 3      -845.766          48.000    19776019.222 1  80979492.705 3      -658.719          46.000  
G09  20466330.795 1 107551295.550 3      -621.072          43.000    20466334.566 1  83806227.363 3      -484.470          44.000  
G11  20529915.844 1 107885440.211 2       823.470          44.000    20529917.926 1  84066602.762 2       641.808          46.000  
C07  34920583.476 1 181840643.070 2     -1291.846          46.000    34920579.788 1 140610698.539 2      -999.225          48.000  
C08  35979643.138 1 187355450.022 2      -460.538          42.000    35979640.657 1 144875108.016 2      -355.888          48.000  
C10  35286383.769 1 183745455.002 2      -925.621          45.000    35286382.911 1 142083641.285 2      -716.064          47.000  
C27  21795970.097 1 113497324.572 3     -2546.265          46.000                                                                  
C30  20638463.436 1 107469894.477 1        93.553          51.000                                                                  
C13  37034600.433 1 192848883.906 3      -304.527          42.000    37034607.875 1 149123023.449 2      -235.034          47.000  
R02  18658604.788 1  99565894.251 1      1134.100          53.000    18658609.991 1  77440180.259 2       882.018          47.000  
R16  22395637.907 2 119633475.567 4     -1372.451          47.000    22395648.228 2  93048351.564 5     -1067.190          42.000  
R15  22565241.170 8               9     -3766.453          42.000    22565258.165 8               9     -2931.456          37.000  
R01  19310167.706 2 103223911.011 3     -3002.027          47.000                                                                  
R24  19437054.331 1 103938662.652 3     -2090.184          50.000    19437057.751 2  80841193.238 3     -1626.205          46.000  
R17  19118708.117 1 102308077.461 3      1124.503          51.000    19118710.197 2  79572967.968 3       874.608          47.000  
G12  22175247.106 1 116531708.104 5      -998.574          41.000    22175252.092 1  90803948.139 3      -779.089          42.000  
G17  21510797.487 1 113039988.264 3     -3620.953          42.000    21510804.331 1  88083141.861 3     -2821.519          42.000  
G19  19322234.696 1 101539027.452 2     -2663.182          46.000                                                                  
G20  20808954.209 1 109351799.396 3      1348.943          43.000                                                                  
J02  36159726.530 1 190020640.215 4     -1035.685          41.000    36159737.180 1 148068075.724 3      -807.081          42.000  
J04  36487503.962 1 191743129.019 2     -1139.448          44.000    36487506.695 1 149410244.223 2      -888.114          45.000  
C29  23785139.966 1 123855464.840 3      2058.971          42.000                                                                  
C32  20970548.747 1 109199151.542 1       -95.411          49.000                                                                  
R18  22245747.655 2 118749313.774 5      2476.948          43.000    22245758.150 2  92360616.061 5      1926.743          41.000  
R03  22003985.059 2 117789054.81427      3645.840          45.000    22004011.595 2  91613820.631 5      2836.155          43.000  
J07  36252870.923 1 190510110.756 4      -764.967          37.000    36252875.317 1 148449464.192 2      -596.391          46.000  
J03  37880001.605 1 199060752.946 2      -392.725          47.000    37880003.422 1 155112280.918 2      -306.104          46.000  
E11  24467578.643 1 128578005.323 3       624.975          40.000    24467583.714 1  98520841.583 2       478.824          47.000  
E16  24548469.766 1 129003072.687 3     -2262.612          42.000    24548480.259 1  98846533.665 2     -1733.609          50.000  
E19  23555755.400 1 123786336.973 5      -155.867          38.000    23555762.827 1  94849300.907 3      -119.668          46.000  
E24  25335575.360 1 133139334.865 5     -3212.996          40.000    25335588.550 1 102015906.284 3     -2462.417          48.000  
S28  37803428.034 2 198658356.758 6      -738.374          36.000  
E10  22975953.248 1 120739456.883 1      -270.456          47.000    22975959.576 1  92514679.529 1      -207.215          51.000  
E04  25048683.050 1 131631724.155 2      2039.561          42.000    25048697.857 1 100860739.112 2      1562.415          48.000  
E12  23246073.240 1 122158931.683 2     -1193.702          43.000    23246077.258 1  93602318.673 2      -914.904          47.000  
G25  23493893.486 1 123461238.076 3       415.044          39.000    23493903.991 2  96203606.388 7       323.479          33.000  
E06  26597053.824 2 139768467.513 6      2267.583          39.000                                                                  
E25  24906764.328 1 130885919.492 3     -1094.540          41.000    24906775.756 1 100289256.621 2      -838.468          49.000  
E29                                                                  26287668.939 9               9     -1790.790          26.000  
E33                                                                  26078980.677 9               9     -1965.208          28.000  
G05                                                                  23972959.740 9               9      1998.169          27.000  
> 2025 04 25 07 10 08.9970000  0 44                     
S29  37327184.247 1 196155676.671 5      -739.027          39.000  
S37  36253012.277 1 190510864.025 3      -761.965          40.000  
G04  22202885.239 9               9     -2402.847          28.000    22202885.309 9               9     -1866.137          30.000  
G06  19776176.542 1 103924506.787 2      -847.016          48.000    19776180.320 1  80980152.131 2      -659.558          46.000  
G09  20466449.057 1 107551916.492 4      -620.791          42.000    20466452.758 1  83806711.216 4      -484.562          44.000  
G11  20529759.297 1 107884618.205 2       819.940          45.000    20529761.430 1  84065962.235 2       638.881          47.000  
C07  34920831.484 1 181841934.577 2     -1291.156          46.000    34920827.741 1 140611697.202 2      -998.193          48.000  
C08  35979731.444 1 187355910.387 3      -460.524          42.000    35979729.080 1 144875464.026 2      -356.219          48.000  
C10  35286561.559 1 183746380.708 2      -926.100          45.000    35286560.726 1 142084357.089 2      -716.196          47.000  
C27  21796458.872 1 113499869.663 3     -2544.180          45.000                                                                  
C30  20638445.779 1 107469801.504 1        92.051          51.000                                                                  
C13  37034658.827 1 192849188.098 3      -304.305          42.000    37034666.209 1 149123258.716 2      -236.207          47.000  
R02  18658392.138 1  99564759.381 2      1135.717          52.000    18658397.317 1  77439297.586 2       883.767          47.000  
R16  22395895.363 2 119634850.874 4     -1378.057          47.000    22395905.698 2  93049421.262 6     -1072.109          43.000  
R15  22565945.640 8               9     -3768.457          38.000    22565960.871 9               9     -2931.566          30.000  
R01  19310729.432 2 103226913.940 3     -3003.677          48.000                                                                  
R24  19437445.102 1 103940752.458 3     -2089.618          48.000    19437448.584 2  80842818.622 3     -1625.325          46.000  
R17  19118498.417 1 102306954.374 2      1121.473          51.000    19118500.356 1  79572094.439 3       872.307          47.000  
G12  22175437.514 1 116532708.980 4     -1002.849          41.000    22175442.564 1  90804727.980 3      -781.359          42.000  
G17  21511486.147 1 113043606.986 3     -3616.179          42.000    21511492.916 1  88085961.650 3     -2818.267          42.000  
G19  19322741.244 1 101541689.349 2     -2660.952          46.000                                                                  
G20  20808697.488 1 109350450.626 3      1347.973          44.000                                                                  
J02  36159923.327 1 190021673.975 4     -1031.510          40.000    36159933.939 1 148068881.268 3      -804.037          44.000  
J04  36487720.506 1 191744267.159 2     -1136.627          44.000    36487723.316 1 149411131.090 2      -886.186          46.000  
C29  23784745.044 1 123853408.587 3      2054.002          42.000                                                                  
C32  20970566.892 1 109199246.251 1       -94.061          50.000                                                                  
R18  22245284.010 2 118746838.803 6      2470.907          42.000    22245294.485 2  92358691.098 5      1922.739          42.000  
R03  22003303.450 4               9      3652.559          41.000    22003330.128 2  91610983.371 7      2838.683          41.000  
J07  36253016.161 1 190510874.390 3      -761.843          37.000    36253020.634 1 148450059.193 2      -593.397          47.000  
J03  37880076.372 1 199061145.392 1      -392.114          47.000    37880078.109 1 155112586.719 2      -305.536          47.000  
E11  24467460.057 1 128577381.869 3       621.715          40.000    24467465.189 1  98520363.894 2       476.064          47.000  
E16  24548900.337 1 129005336.160 4     -2264.695          42.000    24548911.031 1  98848268.001 2     -1735.400          50.000  
E19  23555785.084 1 123786492.295 5      -154.937          37.000    23555792.602 1  94849419.880 3      -117.464          45.000  
E24  25336186.429 2 133142547.495 5     -3213.138          38.000    25336199.994 1 102018367.919 3     -2461.928          47.000  
S28  37803568.513 2 198659094.504 7      -736.221          35.000  
E10  22976004.711 1 120739728.262 2      -272.575          47.000    22976011.373 1  92514887.476 1      -208.933          51.000  
E04  25048294.653 1 131629682.391 3      2043.843          42.000    25048309.368 1 100859174.648 2      1565.968          47.000  
E12  23246300.654 1 122160126.436 2     -1195.132          43.000    23246304.511 1  93603234.118 2      -915.560          47.000  
G25  23493815.036 1 123460826.044 3       408.632          41.000    23493825.561 2  96203285.269 7       319.198          32.000  
E06  26596621.942 2 139766198.224 6      2271.738          35.000                                                                  
E25  24906972.864 1 130887015.380 3     -1098.185          42.000    24906984.473 1 100290096.314 2      -841.539          49.000  
E29                                                                  26288104.959 9               9     -1761.080          27.000  
E33                                                                  26079471.708 8               9     -1970.132          32.000  
G05                                                                  23972467.560 9               9      2013.007          31.000  
> 2025 04 25 07 10 09.9970000  0 44                     
S29  37327324.902 1 196156415.984 5      -739.083          40.000  
S37  36253156.893 1 190511624.046 3      -758.099          40.000  
G06  19776337.910 1 103925354.829 2      -849.094          48.000    19776341.619 1  80980812.930 2      -661.063          47.000  
G09  20466566.872 1 107552535.744 3      -618.595          43.000    20466570.586 1  83807193.714 3      -481.805          45.000  
G11  20529603.634 1 107883800.130 2       816.281          45.000    20529605.642 1  84065324.795 2       635.718          47.000  
C07  34921079.520 1 181843225.555 2     -1290.784          45.000    34921075.655 1 140612695.482 2      -998.425          47.000  
C08  35979820.053 1 187356371.792 3      -461.895          42.000    35979817.618 1 144875820.808 2      -357.330          48.000  
C10  35286739.607 1 183747307.333 2      -927.334          45.000    35286738.718 1 142085073.627 2      -717.200          47.000  
C27  21796947.074 1 113502411.352 3     -2539.470          46.000                                                                  
C30  20638428.219 1 107469710.510 1        90.059          51.000                                                                  
C13  37034717.284 1 192849493.116 3      -305.641          42.000    37034724.770 1 149123494.550 2      -236.595          47.000  
R02  18658179.193 1  99563622.423 2      1138.258          52.000    18658184.149 1  77438413.291 2       885.392          48.000  
R16  22396153.975 2 119636233.020 4     -1385.665          48.000    22396164.384 2  93050496.251 6     -1077.772          42.000  
R15  22566652.098 8               9     -3777.512          34.000    22566666.138 9               9     -2930.615          34.000  
R01  19311291.461 2 103229918.364 3     -3005.440          48.000                                                                  
R24  19437835.694 1 103942840.547 3     -2086.738          50.000    19437839.173 2  80844442.676 3     -1622.867          48.000  
R17  19118289.340 1 102305835.289 2      1116.749          51.000    19118291.186 2  79571224.043 2       868.641          48.000  
G12  22175628.987 1 116533714.954 4     -1007.109          39.000    22175634.007 1  90805511.915 4      -785.618          42.000  
G17  21512173.867 1 113047220.740 3     -3611.133          42.000    21512180.607 1  88088777.540 3     -2814.362          42.000  
G19  19323247.222 1 101544348.671 2     -2657.510          46.000                                                                  
G20  20808441.143 1 109349103.488 3      1346.317          44.000                                                                  
J02  36160119.184 1 190022703.526 3     -1027.756          41.000    36160129.721 1 148069683.464 3      -800.453          45.000  
J04  36487936.438 1 191745401.865 2     -1133.118          44.000    36487939.230 1 149412015.257 2      -882.763          46.000  
C29  23784351.367 1 123851357.971 3      2047.350          43.000                                                                  
C32  20970584.823 1 109199339.761 1       -92.909          50.000                                                                  
R18  22244821.595 4 118744367.73235      2465.444          44.000    22244831.878 2  92356770.753 5      1917.936          44.000  
R03  22002621.496 8 117781755.53037      3655.480          42.000    22002647.828 2  91608142.945 7      2839.734          40.000  
J07  36253160.718 1 190511634.402 3      -757.907          37.000    36253165.233 1 148450651.415 2      -590.451          47.000  
J03  37880150.878 1 199061536.980 1      -391.071          47.000    37880152.585 1 155112891.864 2      -304.919          47.000  
E11  24467342.159 1 128576762.710 4       616.627          40.000    24467347.377 1  98519889.473 2       472.420          47.000  
E16  24549331.435 1 129007601.938 4     -2266.765          42.000    24549342.156 1  98850004.121 2     -1736.972          50.000  
E19  23555814.512 1 123786645.338 5      -151.346          38.000    23555821.773 1  94849537.220 3      -117.040          46.000  
E24  25336797.891 1 133145759.392 5     -3211.734          40.000    25336811.061 1 102020828.959 3     -2461.206          48.000  
S28  37803708.960 2 198659832.638 7      -737.592          38.000  
E10  22976056.922 1 120740002.547 1      -275.852          47.000    22976063.485 1  92515097.644 1      -211.417          51.000  
E04  25047904.829 1 131627635.332 3      2049.142          42.000    25047919.731 1 100857606.130 2      1570.637          48.000  
E12  23246528.253 1 122161322.201 2     -1196.158          44.000    23246532.216 1  93604150.361 2      -916.510          47.000  
G25  23493737.897 1 123460420.670 3       402.169          39.000    23493748.902 4  96202973.49518       313.236          33.000  
E06  26596189.081 2 139763923.452 6      2277.047          38.000                                                                  
E25  24907182.330 1 130888115.980 4     -1103.564          41.000    24907193.755 1 100290939.620 2      -845.156          49.000  
E29                                                                  26288545.029 9               9     -1773.578          32.000  
E33                                                                  26079960.230 8 105013192.33217     -1964.972          37.000  
G04                                                                  22203343.293 9               9     -1874.739          29.000  
G05                                                                  23971974.774 9               9      2007.182          30.000  
> 2025 04 25 07 10 10.9970000  0 44                     
S29  37327465.675 1 196157155.387 5      -740.119          39.000  
S37  36253300.847 1 190512380.430 3      -754.372          40.000  
G04  22203797.465 9               7     -2400.572          29.000    22203800.829 9               9     -1873.808          33.000  
G06  19776499.564 1 103926204.499 1      -850.656          48.000    19776503.387 1  80981475.019 2      -662.413          46.000  
G09  20466684.192 1 107553152.753 3      -616.281          43.000    20466687.971 1  83807674.511 2      -479.840          45.000  
G11  20529448.729 1 107882986.422 2       811.586          45.000    20529450.858 1  84064690.717 2       632.462          46.000  
C07  34921327.402 1 181844516.160 2     -1290.741          46.000    34921323.498 1 140613693.429 1      -997.552          47.000  
C08  35979908.856 1 187356834.563 2      -463.298          42.000    35979906.454 1 144876178.655 2      -358.431          48.000  
C10  35286917.794 1 183748235.143 2      -928.760          45.000    35286916.874 1 142085791.070 2      -718.092          47.000  
C27  21797434.446 1 113504949.208 3     -2536.010          47.000                                                                  
C30  20638411.148 1 107469621.545 1        87.997          51.000                                                                  
C13  37034776.112 1 192849799.363 3      -306.792          42.000    37034783.594 1 149123731.358 2      -237.050          47.000  
R02  18657965.584 1  99562483.283 2      1140.793          52.000    18657970.752 1  77437527.301 2       887.032          48.000  
R16  22396414.155 2 119637622.383 6     -1392.815          46.000    22396424.527 2  93051576.802 6     -1082.883          41.000  
R15  22567362.411 9               9     -3783.910          34.000    22567376.785 9               9     -2939.648          31.000  
R01  19311853.650 2 103232923.841 3     -3006.070          48.000                                                                  
R24  19438225.813 1 103944926.469 2     -2084.632          49.000    19438229.235 2  80846065.070 3     -1620.922          48.000  
R17  19118080.886 1 102304720.269 2      1112.641          51.000    19118082.787 2  79570356.825 3       865.304          48.000  
G12  22175821.483 1 116534726.712 4     -1014.167          41.000    22175826.535 1  90806300.289 3      -790.782          42.000  
G17  21512860.465 1 113050829.065 3     -3605.660          43.000    21512867.300 1  88091589.196 3     -2809.237          41.000  
G19  19323752.848 1 101547005.280 2     -2655.157          46.000                                                                  
G20  20808185.177 1 109347758.472 3      1344.168          44.000                                                                  
J02  36160314.250 1 190023728.687 4     -1023.625          40.000    36160324.846 1 148070482.288 3      -796.783          44.000  
J04  36488151.617 1 191746532.917 2     -1129.080          44.000    36488154.529 1 149412896.598 2      -879.805          46.000  
C29  23783958.780 1 123849313.395 4      2041.387          43.000                                                                  
C32  20970602.548 1 109199431.903 1       -91.572          50.000                                                                  
R18  22244360.258 2 118741905.23026      2458.777          45.000    22244370.552 2  92354855.449 5      1912.925          43.000  
R03  22001938.509 4               9      3658.034          41.000    22001964.767 2  91605299.464 8      2844.789          41.000  
J07  36253304.616 1 190512390.822 3      -754.739          37.000    36253309.148 1 148451240.834 2      -588.347          46.000  
J03  37880225.227 1 199061927.541 1      -390.149          46.000    37880226.894 1 155113196.192 2      -303.906          46.000  
E11  24467225.335 1 128576148.240 3       612.407          40.000    24467230.456 1  98519418.653 2       469.125          47.000  
E16  24549763.338 1 129009870.580 3     -2269.888          42.000    24549773.970 1  98851742.448 2     -1739.532          51.000  
E19  23555843.059 1 123786795.657 4      -148.460          38.000    23555850.259 1  94849652.389 3      -114.166          45.000  
E24  25337409.310 2 133148971.122 5     -3211.345          39.000    25337422.385 1 102023289.877 3     -2460.543          45.000  
S28  37803849.615 2               9      -738.162          35.000  
E10  22976109.905 1 120740279.808 2      -278.847          47.000    22976116.266 1  92515310.093 1      -213.684          51.000  
E04  25047514.134 1 131625582.618 3      2055.638          42.000    25047529.260 1 100856033.317 2      1574.885          48.000  
E12  23246755.952 1 122162518.760 2     -1197.028          43.000    23246759.910 1  93605067.195 2      -917.075          48.000  
E33  26080440.436 9 137053638.74918     -2565.186          30.000    26080448.070 4               9     -1965.575          34.000  
G25  23493662.165 1 123460022.537 3       394.071          38.000    23493673.050 4               9       306.324          33.000  
E06  26595755.324 2 139761643.488 7      2281.458          36.000                                                                  
E25  24907392.651 1 130889221.790 4     -1108.420          42.000    24907404.338 1 100291786.940 2      -849.358          49.000  
E29                                                                  26288983.528 8               9     -1768.043          32.000  
G05                                                                  23971483.058 9               9      2015.173          29.000  
> 2025 04 25 07 10 11.9970000  0 44                     
S29  37327606.460 1 196157894.836 4      -739.469          41.000  
S37  36253444.151 1 190513133.150 3      -751.340          40.000  
G04  22204254.410 8               9     -2405.893          29.000    22204258.243 9               9     -1874.345          33.000  
G06  19776661.520 1 103927055.820 1      -852.115          48.000    19776665.448 1  80982138.398 2      -663.918          46.000  
G09  20466801.103 1 107553767.362 3      -613.895          43.000    20466804.921 1  83808153.452 2      -478.246          44.000  
G11  20529294.805 1 107882177.186 2       807.529          44.000    20529296.935 1  84064060.143 2       628.997          46.000  
C07  34921575.137 1 181845806.369 2     -1289.795          46.000    34921571.195 1 140614691.116 2      -997.443          48.000  
C08  35979998.079 1 187357298.824 3      -464.811          42.000    35979995.613 1 144876537.633 2      -359.586          48.000  
C10  35287096.211 1 183749164.190 1      -929.405          45.000    35287095.292 1 142086509.479 2      -718.793          47.000  
C27  21797921.098 1 113507483.012 3     -2532.308          47.000                                                                  
C30  20638394.325 1 107469534.651 1        85.688          51.000                                                                  
C13  37034835.215 1 192850106.986 3      -307.883          42.000    37034842.681 1 149123969.273 2      -238.615          47.000  
R02  18657751.813 1  99561341.864 2      1142.444          52.000    18657756.731 1  77436639.542 1       888.473          48.000  
R16  22396675.617 2 119639019.286 4     -1399.918          50.000    22396686.007 2  93052663.362 5     -1088.818          45.000  
R15  22568066.316 9               9     -3779.705          41.000    22568081.157 9               9     -2940.150          37.000  
R01  19312416.160 1 103235930.424 2     -3007.219          49.000                                                                  
R24  19438615.446 1 103947010.075 2     -2082.557          50.000    19438618.864 1  80847685.691 2     -1620.099          48.000  
R17  19117873.372 1 102303609.482 2      1108.900          52.000    19117875.201 1  79569492.860 2       862.420          49.000  
G12  22176015.156 1 116535744.423 4     -1019.969          42.000    22176020.198 1  90807093.261 3      -794.852          41.000  
G17  21513546.038 1 113054431.862 3     -3601.061          43.000    21513552.884 1  88094396.579 2     -2805.939          42.000  
G19  19324257.843 1 101549658.970 2     -2652.408          46.000                                                                  
G20  20807929.697 1 109346415.722 3      1341.433          44.000                                                                  
J02  36160508.470 1 190024749.424 3     -1019.109          41.000    36160519.096 1 148071277.732 3      -793.666          44.000  
J04  36488366.190 1 191747660.157 2     -1125.669          44.000    36488369.098 1 149413774.984 2      -877.577          45.000  
C29  23783567.344 1 123847275.177 3      2035.401          43.000                                                                  
C32  20970620.054 1 109199522.586 1       -90.167          50.000                                                                  
R18  22243900.105 2 118739449.36525      2452.587          44.000    22243910.554 2  92352945.409 5      1907.981          43.000  
R03  22001254.893 4               9      3658.629          43.000    22001281.080 2  91602452.957 8      2847.433          39.000  
J07  36253447.908 1 190513143.515 4      -751.101          37.000    36253452.387 1 148451827.328 2      -585.120          46.000  
J03  37880299.308 1 199062316.992 1      -389.014          47.000    37880301.004 1 155113499.654 1      -302.905          46.000  
E11  24467109.230 1 128575538.705 4       607.962          40.000    24467114.486 1  98518951.599 2       465.523          47.000  
E16  24550195.756 1 129012142.335 3     -2272.790          41.000    24550206.192 1  98853483.130 1     -1741.838          50.000  
E19  23555870.957 1 123786943.112 4      -146.814          38.000    23555878.294 1  94849765.352 2      -111.966          45.000  
E24  25338020.297 1 133152182.608 4     -3211.019          40.000    25338033.467 1 102025750.630 2     -2460.724          49.000  
S28  37803990.298 2 198661310.26536      -739.735          37.000  
E10  22976163.071 1 120740560.139 1      -281.609          47.000    22976169.580 1  92515524.890 1      -215.711          51.000  
E04  25047122.611 1 131623524.193 3      2060.296          43.000    25047137.218 1 100854456.079 2      1579.321          48.000  
E12  23246983.859 1 122163716.066 2     -1197.364          43.000    23246987.704 1  93605984.631 1      -917.740          47.000  
E33  26080928.778 8               7     -2561.542          28.000    26080937.176 8               9     -1964.702          34.000  
G25  23493587.891 1 123459631.896 3       387.441          38.000    23493598.689 2  96202358.866 7       301.437          33.000  
E06  26595320.183 2 139759358.015 7      2287.539          33.000                                                                  
E25  24907604.238 1 130890333.138 3     -1112.887          42.000    24907615.733 1 100292638.485 1      -852.903          50.000  
E29                                                                  26289423.499 8 105856613.86818     -1774.751          35.000  
G05                                                                  23970990.146 9  98157196.80718      2017.366          32.000  
> 2025 04 25 07 10 12.9970000  0 44                     
S29  37327747.137 1 196158634.228 4      -738.590          40.000  
S37  36253586.853 1 190513883.600 3      -750.241          40.000  
G04  22204711.081 8               9     -2399.852          33.000    22204717.181 8               9     -1872.623          35.000  
G06  19776823.718 1 103927908.020 1      -852.610          48.000    19776827.555 1  80982802.448 2      -664.231          45.000  
G09  20466917.749 1 107554380.757 3      -613.160          43.000    20466921.669 1  83808631.447 2      -478.392          45.000  
G11  20529141.219 1 107881370.420 2       806.309          45.000    20529143.449 1  84063431.507 2       628.132          45.000  
C07  34921822.861 1 181847096.299 1     -1289.679          46.000    34921818.879 1 140615688.576 1      -997.150          48.000  
C08  35980087.179 1 187357763.743 3      -464.367          42.000    35980084.877 1 144876897.152 2      -359.296          48.000  
C10  35287274.809 1 183750093.862 1      -929.480          45.000    35287273.825 1 142087228.329 2      -718.566          47.000  
C27  21798407.246 1 113510014.511 3     -2530.682          47.000                                                                  
C30  20638377.870 1 107469448.888 1        85.347          51.000                                                                  
C13  37034894.423 1 192850415.281 3      -308.000          42.000    37034901.941 1 149124207.669 2      -238.646          47.000  
R02  18657537.619 1  99560199.345 2      1142.808          52.000    18657542.591 1  77435750.899 2       889.048          48.000  
R16  22396937.938 2 119640420.726 4     -1402.450          48.000    22396948.216 2  93053753.272 4     -1089.989          42.000  
R15  22568772.106 8 120600675.18638     -3781.295          47.000    22568784.970 8  93800593.37038     -2939.903          44.000  
R01  19312978.818 2 103238937.693 3     -3007.144          48.000                                                                  
R24  19439004.801 1 103949092.392 3     -2082.142          50.000    19439008.217 1  80849305.248 2     -1619.581          48.000  
R17  19117666.260 1 102302501.013 2      1108.146          52.000    19117667.960 1  79568630.726 2       861.653          49.000  
G12  22176209.534 1 116536765.595 4     -1021.404          41.000    22176214.627 1  90807889.010 3      -796.074          41.000  
G17  21514230.984 1 113058031.411 3     -3598.742          42.000    21514237.868 1  88097201.433 3     -2804.401          42.000  
G19  19324762.603 1 101552311.127 2     -2652.008          46.000                                                                  
G20  20807674.410 1 109345074.224 3      1341.728          44.000                                                                  
J02  36160702.224 1 190025767.555 3     -1017.996          41.000    36160712.829 1 148072071.025 3      -792.609          44.000  
J04  36488580.203 1 191748785.109 1     -1124.288          44.000    36488583.263 1 149414651.568 2      -875.964          45.000  
C29  23783176.600 1 123845240.433 3      2034.448          44.000                                                                  
C32  20970637.329 1 109199612.542 1       -90.174          50.000                                                                  
R18  22243440.694 2 118736997.254 6      2451.923          43.000    22243451.209 2  92351038.194 6      1907.593          41.000  
R03  22000570.585 2 117770776.31638      3663.572          42.000    22000596.774 2  91599604.557 7      2848.611          39.000  
J07  36253590.654 1 190513893.968 4      -750.323          37.000    36253595.139 1 148452412.092 2      -584.067          46.000  
J03  37880373.256 1 199062705.635 1      -388.635          47.000    37880374.917 1 155113802.500 2      -302.826          46.000  
E11  24466993.892 1 128574931.846 3       606.572          40.000    24466998.969 1  98518486.583 2       465.009          47.000  
E16  24550628.427 1 129014415.812 3     -2273.719          42.000    24550638.786 1  98855225.149 1     -1742.643          50.000  
E19  23555898.556 1 123787088.881 4      -145.662          39.000    23555906.073 1  94849877.052 2      -111.656          46.000  
E24  25338631.565 1 133155394.021 5     -3210.714          40.000    25338644.586 1 102028211.342 2     -2460.734          49.000  
S28  37804131.137 2 198662050.32826      -738.699          38.000  
E10  22976216.812 1 120740842.087 1      -281.990          47.000    22976223.365 1  92515740.927 1      -216.061          51.000  
E04  25046729.995 1 131621462.417 3      2062.208          42.000    25046745.048 1 100852876.290 2      1580.117          48.000  
E12  23247211.899 1 122164913.707 2     -1197.813          43.000    23247215.642 1  93606902.293 1      -917.842          48.000  
E33  26081415.856 9               9     -2567.371          26.000    26081422.991 9               9     -1962.646          27.000  
G25  23493514.386 1 123459245.570 5       386.425          39.000    23493525.231 2               9       299.802          33.000  
E06  26594884.439 2 139757069.235 7      2289.377          33.000                                                                  
E25  24907816.469 1 130891447.654 3     -1115.018          43.000    24907827.550 1 100293492.489 1      -854.379          48.000  
E29                                                                  26289864.991 8               9     -1767.045          28.000  
G05                                                                  23970500.660 8               9      2014.982          28.000  
> 2025 04 25 07 10 13.9970000  0 44                     
S29  37327887.772 1 196159373.632 4      -739.220          40.000  
S37  36253729.577 1 190514633.780 3      -751.094          40.000  
G04  22205169.618 8               9     -2402.872          30.000    22205173.868 9               9     -1880.566          26.000  
G06  19776985.924 1 103928760.306 1      -852.591          48.000    19776989.665 1  80983466.558 2      -664.242          46.000  
G09  20467034.505 1 107554994.467 3      -614.863          43.000    20467038.499 1  83809109.624 2      -478.877          44.000  
G11  20528987.761 1 107880563.822 2       807.327          45.000    20528989.900 1  84062802.988 2       628.623          46.000  
C07  34922070.534 1 181848386.238 2     -1290.271          46.000    34922066.624 1 140616686.042 1      -997.797          48.000  
C08  35980176.606 1 187358228.783 3      -464.664          42.000    35980174.124 1 144877256.770 2      -360.167          48.000  
C10  35287453.336 1 183751023.580 2      -929.686          44.000    35287452.484 1 142087947.263 2      -718.809          47.000  
C27  21798893.366 1 113512545.923 3     -2532.238          47.000                                                                  
C30  20638361.536 1 107469363.348 1        85.370          51.000                                                                  
C13  37034953.651 1 192850723.692 3      -308.256          42.000    37034961.104 1 149124446.133 2      -238.525          47.000  
R02  18657323.676 1  99559057.394 2      1141.044          52.000    18657328.555 1  77434862.758 2       886.983          48.000  
R16  22397200.466 2 119641823.005 3     -1402.236          49.000    22397210.824 2  93054844.075 5     -1090.634          44.000  
R15  22569480.120 4 120604456.18126     -3779.839          46.000    22569497.740 8  93803534.12027     -2939.448          43.000  
R01  19313541.446 1 103241945.476 2     -3008.136          48.000                                                                  
R24  19439394.189 1 103951174.752 2     -2083.077          50.000    19439397.554 1  80850924.857 2     -1620.328          47.000  
R17  19117459.224 1 102301392.772 2      1108.388          52.000    19117460.914 1  79567768.735 2       862.267          48.000  
G12  22176403.998 1 116537787.621 4     -1022.320          41.000    22176409.122 1  90808685.339 3      -796.063          39.000  
G17  21514915.969 1 113061630.966 4     -3600.829          42.000    21514922.865 1  88100006.258 3     -2806.303          41.000  
G19  19325267.389 1 101554963.588 2     -2653.781          46.000                                                                  
G20  20807419.224 1 109343733.050 3      1341.027          44.000                                                                  
J02  36160896.001 1 190026785.548 4     -1019.647          39.000    36160906.578 1 148072864.255 3      -794.002          44.000  
J04  36488794.247 1 191749909.815 2     -1125.035          44.000    36488797.257 1 149415527.985 2      -877.168          45.000  
C29  23782785.710 1 123843205.853 3      2035.473          42.000                                                                  
C32  20970654.601 1 109199702.777 1       -90.964          50.000                                                                  
R18  22242981.244 2 118734545.216 5      2452.216          44.000    22242991.961 2  92349131.008 5      1908.106          43.000  
R03  21999886.285 2 117767114.14726      3661.590          45.000    21999912.541 2  91596756.186 6      2847.554          44.000  
J07  36253733.254 1 190514644.150 4      -751.128          37.000    36253737.962 1 148452996.676 2      -585.133          46.000  
J03  37880447.125 1 199063093.949 2      -388.385          47.000    37880448.772 1 155114105.083 2      -302.771          46.000  
E11  24466878.600 1 128574325.040 3       607.794          40.000    24466883.372 1  98518021.662 2       465.279          47.000  
E16  24551061.058 1 129016689.747 3     -2274.825          42.000    24551071.597 1  98856967.462 2     -1742.398          50.000  
E19  23555926.374 1 123787234.722 4      -147.373          38.000    23555933.840 1  94849988.798 2      -112.248          46.000  
E24  25339242.839 1 133158605.584 4     -3211.893          40.000    25339255.771 1 102030672.089 2     -2461.272          49.000  
S28  37804271.985 2 198662790.51025      -739.283          37.000  
E10  22976270.419 1 120741124.046 1      -281.461          47.000    22976276.848 1  92515956.982 1      -215.577          51.000  
E04  25046337.847 1 131619400.402 3      2060.736          42.000    25046352.575 1 100851296.321 2      1579.262          48.000  
E12  23247439.605 1 122166111.222 2     -1197.472          43.000    23247443.554 1  93607819.884 1      -917.803          48.000  
G25  23493440.994 1 123458859.921 5       387.499          37.000    23493451.802 2  96201757.388 8       301.307          32.000  
E06  26594448.077 4 139754766.95418      2290.002          32.000                                                                  
E25  24908028.598 1 130892562.751 3     -1114.756          41.000    24908039.861 1 100294346.890 1      -854.244          48.000  
E29                                                                  26290306.914 9               9     -1776.528          28.000  
E33                                                                  26081914.007 9               9     -1956.792          27.000  
G05                                                                  23970010.165 9               9      2012.803          26.000  
> 2025 04 25 07 10 14.9970000  0 44                     
S29  37328028.582 1 196160113.021 3      -739.019          41.000  
S37  36253872.641 1 190515385.859 3      -753.263          40.000  
G06  19777147.953 1 103929611.953 2      -851.373          48.000    19777151.707 1  80984130.213 2      -663.791          46.000  
G09  20467151.672 1 107555610.174 4      -616.782          43.000    20467155.708 1  83809589.421 2      -481.460          43.000  
G11  20528833.892 1 107879755.197 2       809.810          44.000    20528836.023 1  84062172.884 2       631.375          46.000  
C07  34922318.300 1 181849676.555 1     -1290.710          46.000    34922314.427 1 140617683.783 1      -997.839          48.000  
C08  35980265.789 1 187358693.250 3      -463.787          42.000    35980263.202 1 144877615.916 2      -358.774          48.000  
C10  35287631.730 1 183751952.880 2      -929.046          45.000    35287630.961 1 142088665.842 2      -718.144          47.000  
C27  21799380.032 1 113515079.739 2     -2535.747          47.000                                                                  
C30  20638344.859 1 107469277.177 1        86.444          51.000                                                                  
C13  37035012.773 1 192851031.620 3      -308.145          43.000    37035020.215 1 149124684.196 2      -237.110          47.000  
R02  18657110.167 1  99557917.798 1      1138.046          53.000    18657114.999 1  77433976.394 2       884.852          48.000  
R16  22397462.532 2 119643222.583 3     -1397.563          48.000    22397472.806 2  93055932.580 5     -1086.951          44.000  
R15  22570185.530 4 120608236.081 7     -3779.015          43.000    22570206.245 8               9     -2940.942          38.000  
R01  19314104.150 1 103244953.686 3     -3008.667          47.000                                                                  
R24  19439783.808 1 103953258.769 3     -2085.385          51.000    19439787.287 2  80852545.726 2     -1621.978          48.000  
R17  19117251.766 1 102300282.626 2      1111.622          52.000    19117253.486 2  79566905.349 3       864.294          48.000  
G12  22176598.160 1 116538807.529 4     -1019.254          42.000    22176603.225 1  90809480.024 3      -793.095          41.000  
G17  21515601.579 1 113065233.755 3     -3605.228          43.000    21515608.448 1  88102813.621 2     -2809.520          41.000  
G19  19325772.523 1 101557618.306 2     -2656.483          46.000                                                                  
G20  20807163.919 1 109342391.252 3      1343.087          43.000                                                                  
J02  36161090.127 1 190027805.872 4     -1022.789          41.000    36161100.754 1 148073659.297 3      -796.097          44.000  
J04  36489008.718 1 191751036.499 2     -1128.366          44.000    36489011.484 1 149416405.896 2      -879.350          45.000  
C29  23782394.170 1 123841168.046 3      2040.029          42.000                                                                  
C32  20970672.311 1 109199794.503 1       -92.934          50.000                                                                  
R18  22242521.240 2 118732089.568 6      2458.208          42.000    22242531.940 2  92347221.112 6      1910.821          42.000  
R03  21999202.452 2 117763454.237 4      3658.305          45.000    21999228.704 2  91593909.730 4      2844.537          43.000  
J07  36253876.342 1 190515396.227 4      -753.189          37.000    36253881.046 1 148453582.758 2      -587.642          45.000  
J03  37880521.097 1 199063482.637 1      -389.325          47.000    37880522.763 1 155114407.967 2      -303.119          46.000  
E11  24466762.539 1 128573715.865 3       610.443          40.000    24466767.462 1  98517554.889 2       467.682          47.000  
E16  24551493.564 1 129018962.715 3     -2272.379          41.000    24551504.009 1  98858709.070 2     -1740.561          52.000  
E19  23555954.471 1 123787382.560 4      -149.648          38.000    23555961.978 1  94850102.104 2      -114.999          46.000  
E24  25339853.926 1 133161817.642 3     -3212.606          40.000    25339866.958 1 102033133.224 2     -2461.323          49.000  
S28  37804412.757 2 198663530.24226      -739.354          38.000  
E10  22976323.811 1 120741404.532 2      -279.500          47.000    22976330.342 1  92516171.894 1      -214.301          51.000  
E04  25045946.240 1 131617341.507 3      2056.506          43.000    25045960.645 1 100849718.769 2      1575.601          47.000  
E12  23247667.426 1 122167308.348 2     -1196.639          42.000    23247671.267 1  93608737.188 2      -917.469          46.000  
G25  23493367.040 2 123458471.439 5       390.381          39.000    23493377.723 2               9       305.103          35.000  
E06  26594015.228 8 139752480.805 8      2284.219          35.000                                                                  
E25  24908240.630 1 130893675.739 3     -1111.302          42.000    24908251.592 1 100295199.717 1      -851.050          48.000  
E29                                                                  26290747.315 9               9     -1769.238          27.000  
E33                                                                  26082396.259 8 105023001.17517     -1962.381          37.000  
G04                                                                  22205631.453 9               9     -1874.088          30.000  
G05                                                                  23969520.371 9               9      2018.661          25.000  
> 2025 04 25 07 10 15.9970000  0 44                     
S29  37328169.335 1 196160852.605 5      -737.994          39.000  
S37  36254016.266 1 190516141.062 3      -756.145          40.000  
G06  19777309.826 1 103930462.959 1      -850.340          48.000    19777313.691 1  80984793.333 2      -663.095          46.000  
G09  20467269.524 1 107556229.024 4      -619.807          42.000    20467273.493 1  83810071.655 2      -483.440          41.000  
G11  20528679.417 1 107878943.637 2       813.242          45.000    20528681.447 1  84061540.503 2       633.545          46.000  
C07  34922566.344 1 181850967.649 2     -1291.376          46.000    34922562.359 1 140618682.125 2      -998.291          48.000  
C08  35980354.860 1 187359157.038 2      -463.201          42.000    35980352.235 1 144877974.548 2      -358.569          49.000  
C10  35287810.044 1 183752881.705 2      -928.419          44.000    35287809.325 1 142089384.096 2      -718.221          47.000  
C27  21799867.187 1 113517617.373 3     -2539.634          46.000                                                                  
C30  20638328.188 1 107469190.187 1        87.483          51.000                                                                  
C13  37035071.704 1 192851338.852 5      -305.678          43.000    37035079.284 1 149124921.860 3      -236.487          46.000  
R02  18656897.279 1  99556781.611 1      1134.521          53.000    18656902.151 1  77433092.701 2       881.944          48.000  
R16  22397723.650 2 119644617.815 3     -1392.297          47.000    22397733.953 2  93057017.775 4     -1083.451          43.000  
R15  22570893.055 8 120612013.860 7     -3777.437          40.000    22570911.052 8               9     -2938.588          40.000  
R01  19314666.980 1 103247962.389 3     -3008.839          49.000                                                                  
R24  19440174.025 1 103955345.474 3     -2087.676          50.000    19440177.499 2  80854168.728 3     -1623.573          47.000  
R17  19117043.725 1 102299169.942 2      1114.621          51.000    19117045.597 2  79566039.911 3       866.400          48.000  
G12  22176791.609 1 116539824.202 4     -1014.961          41.000    22176796.640 1  90810272.277 3      -790.270          41.000  
G17  21516288.126 1 113068841.640 3     -3610.219          42.000    21516294.884 1  88105624.937 2     -2813.399          42.000  
G19  19326278.359 1 101560276.517 2     -2659.985          46.000                                                                  
G20  20806908.442 1 109341048.599 4      1343.409          44.000                                                                  
J02  36161285.012 1 190028829.951 3     -1025.634          41.000    36161295.575 1 148074457.313 3      -799.213          44.000  
J04  36489223.747 1 191752166.377 2     -1131.299          44.000    36489226.533 1 149417286.339 2      -881.848          45.000  
C29  23782001.962 1 123839125.612 3      2045.270          42.000                                                                  
C32  20970690.261 1 109199888.505 1       -95.147          50.000                                                                  
R18  22242060.177 2 118729628.753 5      2463.453          43.000    22242070.892 2  92345307.147 8      1916.381          40.000  
R03  21998519.535 2 117759797.886 5      3655.111          47.000    21998545.600 2  91591065.949 5      2841.590          43.000  
J07  36254020.046 1 190516151.421 4      -756.119          37.000    36254024.667 1 148454171.209 2      -589.576          45.000  
J03  37880595.223 1 199063872.237 1      -390.094          47.000    37880596.839 1 155114711.537 2      -303.906          46.000  
E11  24466645.853 1 128573103.220 4       614.100          40.000    24466650.928 1  98517085.432 2       470.860          47.000  
E16  24551925.872 1 129021234.246 4     -2270.386          42.000    24551936.532 1  98860449.636 3     -1739.802          51.000  
E19  23555983.275 1 123787533.619 4      -152.913          38.000    23555990.815 1  94850217.867 2      -117.456          45.000  
E24  25340465.309 1 133165030.426 4     -3212.600          39.000    25340478.340 1 102035595.015 3     -2461.236          46.000  
S28  37804553.499 2 198664269.66626      -740.634          37.000  
E10  22976376.780 1 120741682.976 2      -277.167          47.000    22976383.374 1  92516385.258 1      -212.507          51.000  
E04  25045555.451 1 131615287.501 3      2052.030          42.000    25045569.956 1 100848144.971 2      1571.879          48.000  
E12  23247895.238 1 122168505.262 2     -1196.582          43.000    23247899.100 1  93609654.260 2      -916.829          48.000  
G25  23493292.392 1 123458078.404 4       394.808          38.000    23493302.899 2  96201147.25316       308.682          34.000  
E06  26593580.298 4 139750198.767 7      2279.998          35.000                                                                  
E25  24908451.794 1 130894785.620 3     -1108.505          41.000    24908462.866 1 100296050.117 2      -849.172          49.000  
E29                                                                  26291184.767 8 105863706.09618     -1775.827          35.000  
E33                                                                  26082884.158 8               9     -1965.510          33.000  
G04                                                                  22206086.347 9  90930211.01318     -1874.027          26.000  
G05                                                                  23969026.827 9               9      2013.235          31.000  
> 2025 04 25 07 10 16.9970000  0 44                     
S29  37328309.868 1 196161591.341 4      -738.165          40.000  
S37  36254160.430 1 190516898.723 3      -759.198          40.000  
G06  19777471.553 1 103931312.932 2      -849.698          48.000    19777475.473 1  80985455.636 2      -662.305          45.000  
G09  20467387.874 1 107556851.008 3      -623.291          42.000    20467391.744 1  83810556.319 2      -486.095          43.000  
G11  20528524.230 1 107878128.350 2       816.891          45.000    20528526.300 1  84060905.229 2       636.427          46.000  
C07  34922814.284 1 181852258.696 2     -1291.351          45.000    34922810.343 1 140619680.449 1      -998.328          47.000  
C08  35980443.706 1 187359619.123 2      -461.294          42.000    35980440.979 1 144878331.857 2      -356.813          47.000  
C10  35287988.208 1 183753809.231 2      -927.151          44.000    35287987.413 1 142090101.298 2      -716.881          46.000  
C27  21800355.328 1 113520158.710 2     -2544.102          46.000                                                                  
C30  20638311.272 1 107469101.822 1        88.759          51.000                                                                  
C13  37035130.342 1 192851644.499 3      -304.714          42.000    37035137.973 1 149125158.172 3      -236.012          46.000  
R02  18656684.900 1  99555648.276 1      1131.650          52.000    18656689.758 1  77432211.216 2       880.057          47.000  
R16  22397983.907 2 119646007.959 3     -1387.747          46.000    22397994.143 2  93058098.974 4     -1079.033          42.000  
R15  22571597.643 8               9     -3774.336          38.000    22571616.812 9               9     -2937.061          35.000  
R01  19315229.970 1 103250971.698 2     -3010.390          48.000                                                                  
R24  19440564.854 1 103957434.891 3     -2091.540          50.000    19440568.203 1  80855793.850 2     -1626.313          46.000  
R17  19116835.188 1 102298054.118 2      1117.246          50.000    19116837.110 1  79565172.051 2       868.762          47.000  
G12  22176984.284 1 116540836.583 3     -1010.305          41.000    22176989.241 1  90811061.218 3      -788.166          41.000  
G17  21516975.593 1 113072454.300 4     -3615.236          41.000    21516982.420 1  88108439.964 3     -2816.495          41.000  
G19  19326784.811 1 101562937.729 2     -2663.089          45.000                                                                  
G20  20806652.547 1 109339703.916 3      1345.685          44.000                                                                  
J02  36161480.497 1 190029857.174 4     -1028.687          39.000    36161490.997 1 148075257.709 4      -800.806          42.000  
J04  36489439.299 1 191753299.046 2     -1134.517          44.000    36489442.131 1 149418168.943 2      -884.349          44.000  
C29  23781608.686 1 123837077.671 3      2050.159          43.000                                                                  
C32  20970708.502 1 109199984.281 1       -97.082          50.000                                                                  
R18  22241598.146 2 118727161.971 4      2469.174          45.000    22241608.817 2  92343388.528 5      1920.695          42.000  
R03  21997836.871 2 117756144.419 6      3651.447          45.000    21997862.998 2  91588224.395 6      2841.460          43.000  
J07  36254164.133 1 190516909.075 4      -758.935          37.000    36254168.906 1 148454761.543 2      -590.945          45.000  
J03  37880669.492 1 199064262.366 1      -390.735          46.000    37880671.051 1 155115015.538 2      -304.633          45.000  
E11  24466528.396 1 128572486.181 3       618.980          40.000    24466533.557 1  98516612.646 2       474.225          46.000  
E16  24552357.568 1 129023503.279 3     -2267.832          42.000    24552368.108 1  98862188.229 2     -1737.651          49.000  
E19  23556012.536 1 123787687.962 5      -156.442          38.000    23556020.140 1  94850336.127 3      -120.017          44.000  
E24  25341076.528 1 133168242.855 4     -3211.893          41.000    25341089.550 1 102038056.458 3     -2461.076          48.000  
S28  37804693.856 2 198665007.37326      -736.581          37.000  
E10  22976429.210 1 120741958.862 1      -274.975          47.000    22976435.738 1  92516596.643 1      -210.725          50.000  
E04  25045165.313 1 131613237.980 3      2047.630          42.000    25045179.814 1 100846574.562 2      1568.432          47.000  
E12  23248122.798 1 122169701.658 2     -1196.546          43.000    23248126.686 1  93610570.991 2      -916.927          46.000  
G25  23493216.516 1 123457679.968 4       400.400          36.000    23493227.006 2  96200836.801 6       313.428          30.000  
E06  26593147.009 4 139747920.630 8      2274.956          33.000                                                                  
E25  24908661.849 1 130895891.174 3     -1103.461          41.000    24908673.346 1 100296897.267 2      -845.725          48.000  
E29                                                                  26291626.224 8 105865483.29018     -1773.664          32.000  
E33                                                                  26083374.653 8               9     -1967.447          30.000  
G04                                                                  22206549.109 9               9     -1874.350          29.000  
G05                                                                  23968524.961 8  98147102.79718      2015.289          34.000  
> 2025 04 25 07 10 17.9970000  0 44                     
S29  37328450.231 1 196162328.682 3      -736.901          40.000  
S37  36254305.058 1 190517658.332 3      -760.622          39.000  
G06  19777633.318 1 103932162.917 1      -850.122          48.000    19777637.279 1  80986117.965 2      -662.741          46.000  
G09  20467506.966 1 107557476.903 3      -627.443          43.000    20467510.835 1  83811044.027 2      -489.303          44.000  
G11  20528368.498 1 107877310.229 2       819.216          44.000    20528370.625 1  84060267.713 2       638.203          46.000  
C07  34923062.175 1 181853549.781 1     -1291.156          45.000    34923058.338 1 140620678.817 2      -998.358          46.000  
C08  35980532.057 1 187360079.592 2      -459.966          42.000    35980529.465 1 144878687.922 1      -355.692          47.000  
C10  35288166.169 1 183754735.653 2      -925.881          44.000    35288165.284 1 142090817.681 2      -716.025          46.000  
C27  21800844.115 1 113522704.034 2     -2546.932          48.000                                                                  
C30  20638294.261 1 107469012.872 1        89.059          51.000                                                                  
C13  37035188.584 1 192851948.123 3      -302.787          42.000    37035196.264 1 149125392.944 2      -233.685          46.000  
R02  18656472.955 1  99554517.844 1      1129.152          52.000    18656477.805 1  77431331.991 2       878.164          44.000  
R16  22398243.308 2 119647393.810 3     -1383.923          48.000    22398253.617 2  93059176.849 3     -1076.185          39.000  
R15  22572304.436 9               9     -3771.289          33.000    22572323.464 9               9     -2934.378          27.000  
R01  19315793.276 1 103253982.715 2     -3012.164          48.000                                                                  
R24  19440956.222 1 103959527.774 3     -2094.814          50.000    19440959.582 1  80857421.603 2     -1628.809          43.000  
R17  19116626.396 1 102296936.433 2      1118.695          51.000    19116628.223 1  79564302.721 2       869.745          44.000  
G12  22177176.190 1 116541845.233 3     -1007.370          40.000    22177181.147 1  90811847.141 3      -784.390          41.000  
G17  21517663.854 1 113076071.377 3     -3619.064          43.000    21517670.719 1  88111258.483 2     -2819.860          41.000  
G19  19327291.859 1 101565601.969 2     -2665.638          46.000                                                                  
G20  20806396.301 1 109338357.212 3      1347.415          44.000                                                                  
J02  36161676.408 1 190030886.677 3     -1029.972          42.000    36161686.868 1 148076059.957 3      -803.348          43.000  
J04  36489655.394 1 191754434.437 2     -1136.546          44.000    36489658.145 1 149419053.636 2      -885.713          45.000  
C29  23781214.386 1 123835025.225 3      2053.936          42.000                                                                  
C32  20970727.291 1 109200082.124 1       -98.739          50.000                                                                  
R18  22241135.138 2 118724690.142 3      2473.996          46.000    22241145.819 2  92341466.040 4      1924.089          39.000  
R03  21997154.508 2 117752492.644 6      3650.168          45.000    21997180.787 2  91585384.284 4      2839.310          40.000  
J07  36254308.637 1 190517668.689 4      -760.465          36.000    36254313.463 1 148455353.466 2      -592.163          45.000  
J03  37880743.923 1 199064653.637 2      -391.901          47.000    37880745.614 1 155115320.410 2      -305.322          45.000  
E11  24466410.400 1 128571865.600 3       622.064          40.000    24466415.513 1  98516137.115 2       476.745          47.000  
E16  24552788.612 1 129025769.684 3     -2265.445          42.000    24552799.365 1  98863924.820 1     -1735.658          50.000  
E19  23556042.609 1 123787846.245 3      -160.042          38.000    23556050.182 1  94850457.386 2      -123.067          46.000  
E24  25341687.638 1 133171454.441 4     -3211.260          41.000    25341700.733 1 102040517.277 2     -2460.394          49.000  
S28  37804833.849 1 198665743.22425      -734.117          37.000  
E10  22976481.402 1 120742233.162 1      -273.662          47.000    22976487.974 1  92516806.830 1      -209.853          51.000  
E04  25044775.605 1 131611192.404 3      2043.352          41.000    25044790.562 1 100845007.156 2      1566.302          48.000  
E12  23248350.624 1 122170898.641 2     -1197.311          43.000    23248354.559 1  93611488.168 2      -917.662          48.000  
G25  23493139.976 1 123457277.402 4       403.976          38.000    23493150.405 4  96200523.060 8       315.221          32.000  
E06  26592712.605 4 139745645.102 6      2274.387          40.000                                                                  
E25  24908871.547 1 130896992.999 3     -1100.175          41.000    24908882.924 1 100297741.546 2      -843.368          48.000  
E29                                                                  26292067.321 9               7     -1778.497          29.000  
E33                                                                  26083862.859 8               9     -1972.990          31.000  
G04                                                                  22207005.102 8               7     -1877.368          33.000  
G05                                                                  23968034.221 8  98145085.408 7      2018.688          35.000  
> 2025 04 25 07 10 18.9970000  0 44                     
S29  37328590.045 1 196163063.198 4      -732.617          39.000  
S37  36254449.826 1 190518418.745 3      -760.463          39.000  
G06  19777795.101 1 103933013.158 2      -850.898          48.000    19777799.005 1  80986780.489 2      -663.066          44.000  
G09  20467626.905 1 107558106.976 3      -632.764          42.000    20467630.597 1  83811534.962 3      -493.015          44.000  
G11  20528212.254 1 107876489.059 2       822.372          44.000    20528214.433 1  84059627.845 2       640.996          46.000  
C07  34923309.945 1 181854840.027 2     -1290.094          45.000    34923306.098 1 140621676.513 2      -997.559          47.000  
C08  35980620.069 1 187360537.429 3      -456.342          41.000    35980617.415 1 144879041.945 2      -352.960          48.000  
C10  35288343.716 1 183755660.235 2      -923.665          44.000    35288342.854 1 142091532.633 2      -714.594          48.000  
C27  21801333.684 1 113525253.260 2     -2551.213          47.000                                                                  
C30  20638277.044 1 107468923.196 1        89.749          51.000                                                                  
C13  37035246.256 1 192852248.622 3      -299.140          42.000    37035253.977 1 149125625.271 2      -230.565          47.000  
R02  18656261.552 1  99553389.633 1      1126.871          52.000    18656266.403 1  77430454.472 2       876.820          46.000  
R16  22398501.919 2 119648775.564 3     -1379.821          46.000    22398512.270 2  93060251.540 4     -1073.542          41.000  
R15  22573011.404 9               9     -3762.158          33.000    22573028.517 9               9     -2929.002          27.000  
R01  19316357.044 2 103256996.043 3     -3014.743          48.000                                                                  
R24  19441348.346 1 103961624.302 3     -2098.621          50.000    19441351.657 1  80859052.270 3     -1632.333          46.000  
R17  19116417.143 1 102295817.186 2      1119.461          51.000    19116419.029 1  79563432.211 2       870.476          46.000  
G12  22177367.201 1 116542849.550 4     -1001.388          40.000    22177372.256 1  90812629.760 3      -781.128          41.000  
G17  21518353.037 1 113079692.138 3     -3622.620          43.000    21518359.689 1  88114079.835 2     -2822.910          41.000  
G19  19327799.240 1 101568268.521 2     -2667.814          46.000                                                                  
G20  20806139.395 1 109337007.315 3      1351.404          44.000                                                                  
J02  36161872.553 1 190031917.215 3     -1030.040          39.000    36161882.990 1 148076862.965 3      -803.065          43.000  
J04  36489871.794 1 191755571.805 2     -1138.313          44.000    36489874.580 1 149419939.915 2      -886.873          44.000  
C29  23780819.399 1 123832968.159 3      2058.471          43.000                                                                  
C32  20970746.384 1 109200181.565 1      -100.576          50.000                                                                  
R18  22240671.222 2 118722213.455 3      2479.233          45.000    22240681.834 2  92339539.737 3      1928.139          41.000  
R03  21996472.294 2 117748841.216 4      3651.897          47.000    21996498.589 2  91582544.342 4      2839.971          45.000  
J07  36254453.315 1 190518429.116 4      -760.213          36.000    36254458.129 1 148455946.017 2      -592.695          45.000  
J03  37880818.612 1 199065045.878 2      -393.207          47.000    37880820.265 1 155115626.054 2      -306.238          45.000  
E11  24466291.547 1 128571241.123 4       626.382          40.000    24466296.538 1  98515658.646 2       479.776          48.000  
E16  24553219.574 1 129028032.395 3     -2260.520          43.000    24553229.958 1  98865658.579 1     -1731.917          50.000  
E19  23556073.722 1 123788008.789 4      -164.683          38.000    23556081.170 1  94850581.975 2      -126.750          45.000  
E24  25342298.422 1 133174663.684 4     -3207.465          41.000    25342311.579 1 102042976.300 2     -2457.781          49.000  
S28  37804973.275 1 198666475.788 5      -731.008          39.000  
E10  22976533.257 1 120742505.940 2      -272.222          47.000    22976539.713 1  92517015.847 2      -208.795          51.000  
E04  25044387.038 1 131609149.688 3      2041.271          42.000    25044401.918 1 100843441.959 2      1564.441          49.000  
E12  23248578.866 1 122172096.557 2     -1198.641          44.000    23248582.396 1  93612406.009 2      -918.025          49.000  
G25  23493062.607 2 123456870.806 8       408.248          32.000    23493073.073 4  96200206.275 7       317.650          32.000  
E06  26592279.505 4 139743371.075 5      2274.353          38.000                                                                  
E25  24909080.159 1 130898090.525 4     -1095.583          41.000    24909091.763 1 100298582.476 2      -839.279          49.000  
E29                                                                  26292509.768 9               9     -1775.727          29.000  
E33                                                                  26084353.405 9               9     -1976.458          30.000  
G04                                                                  22207463.980 8  90935852.36917     -1878.164          38.000  
G05                                                                  23967538.541 4  98143065.443 6      2020.917          34.000  
> 2025 04 25 07 10 19.9970000  0 44                     
S29  37328729.176 1 196163794.788 3      -730.052          40.000  
S37  36254594.569 1 190519179.710 3      -762.033          39.000  
G04  22207915.054 8               9     -2416.781          39.000    22207922.346 8               9     -1884.316          40.000  
G06  19777957.107 1 103933864.648 2      -851.869          48.000    19777960.911 1  80987443.991 3      -663.986          46.000  
G09  20467747.711 1 107558741.662 4      -636.984          43.000    20467751.450 1  83812029.481 4      -496.064          44.000  
G11  20528055.692 1 107875665.932 2       823.951          44.000    20528057.751 1  84058986.457 2       641.996          46.000  
C07  34923557.567 1 181856129.704 2     -1289.734          45.000    34923553.767 1 140622673.769 2      -997.290          48.000  
C08  35980707.604 1 187360993.046 2      -455.660          41.000    35980704.880 1 144879394.229 2      -351.422          49.000  
C10  35288520.907 1 183756583.497 2      -922.927          44.000    35288520.151 1 142092246.530 2      -713.721          48.000  
C27  21801824.145 1 113527806.416 2     -2554.982          48.000                                                                  
C30  20638259.848 1 107468833.732 2        89.121          51.000                                                                  
C13  37035303.367 1 192852546.057 2      -296.327          43.000    37035311.161 1 149125855.298 2      -229.334          47.000  
R02  18656050.579 1  99552263.715 2      1124.382          53.000    18656055.317 1  77429578.775 2       874.803          48.000  
R16  22398760.039 2 119650154.079 3     -1376.937          47.000    22398770.357 2  93061323.708 3     -1070.043          43.000  
R15  22573716.430 9               9     -3758.652          28.000    22573734.056 9               9     -2926.501          27.000  
R01  19316921.400 2 103260012.799 4     -3018.083          48.000                                                                  
R24  19441741.225 2 103963725.052 4     -2102.788          50.000    19441744.587 2  80860686.204 4     -1635.134          49.000  
R17  19116207.875 1 102294697.648 2      1119.969          52.000    19116209.860 1  79562561.440 2       870.896          49.000  
G12  22177557.562 1 116543850.378 3      -999.219          41.000    22177562.751 1  90813409.617 3      -778.800          43.000  
G17  21519042.713 1 113083315.969 2     -3625.437          43.000    21519049.149 1  88116903.580 2     -2824.917          43.000  
G19  19328307.110 1 101570937.453 2     -2670.440          46.000                                                                  
G20  20805881.898 1 109335654.551 2      1353.767          44.000                                                                  
J02  36162068.652 1 190032948.124 3     -1030.794          40.000    36162079.194 1 148077666.308 2      -803.930          45.000  
J04  36490088.605 1 191756711.131 2     -1140.318          44.000    36490091.381 1 149420827.694 2      -888.751          45.000  
C29  23780423.761 1 123830907.624 3      2062.334          44.000                                                                  
C32  20970765.766 1 109200282.897 1      -102.499          50.000                                                                  
R18  22240206.571 2 118719732.991 3      2482.322          44.000    22240217.012 2  92337610.521 3      1930.031          45.000  
R03  21995790.068 2 117745189.290 4      3651.520          46.000    21995816.362 2  91579704.024 3      2840.903          46.000  
J07  36254598.177 1 190519190.073 4      -761.588          36.000    36254602.885 1 148456538.940 2      -593.295          46.000  
J03  37880893.607 1 199065439.700 2      -394.647          47.000    37880895.174 1 155115932.928 2      -307.379          47.000  
E11  24466171.930 1 128570613.804 3       628.378          40.000    24466177.173 1  98515177.970 2       481.596          48.000  
E16  24553649.497 1 129030291.694 3     -2258.182          42.000    24553659.881 1  98867389.740 1     -1730.145          50.000  
E19  23556105.398 1 123788176.072 5      -170.070          36.000    23556112.893 1  94850710.127 4      -130.989          44.000  
E24  25342908.654 1 133177870.357 3     -3206.146          40.000    25342921.729 1 102045433.329 2     -2456.457          49.000  
S28  37805112.116 1 198667204.896 4      -728.688          38.000  
E10  22976585.203 1 120742778.310 2      -271.956          47.000    22976591.571 1  92517224.520 2      -208.302          51.000  
E04  25043998.902 1 131607109.177 3      2038.874          41.000    25044013.819 1 100841878.506 2      1562.156          49.000  
E12  23248807.224 1 122173296.357 2     -1200.386          44.000    23248810.870 1  93613325.362 2      -919.779          48.000  
G25  23492984.740 2 123456461.494 7       410.421          33.000    23492995.219 2  96199887.342 6       320.250          36.000  
E06  26591848.434 2 139741097.586 5      2272.417          38.000                                                                  
E25  24909288.501 1 130899184.454 3     -1092.328          41.000    24909300.058 1 100299420.668 2      -836.920          48.000  
E29                                                                  26292950.429 8 105870815.83317     -1783.150          43.000  
E33                                                                  26084845.109 9               9     -1969.874          30.000  
G05                                                                  23967046.567 9               9      2010.254          30.000  
> 2025 04 25 07 10 20.9970000  0 44                     
S29  37328868.143 1 196164525.132 3      -729.849          39.000  
S37  36254739.487 1 190519941.443 3      -762.082          39.000  
G04  22208374.798 4 116705798.45136     -2418.304          41.000    22208381.712 4  90939618.007 6     -1883.552          43.000  
G06  19778119.237 1 103934716.464 1      -851.588          48.000    19778122.895 1  80988107.731 2      -663.279          46.000  
G09  20467869.011 1 107559379.134 3      -638.761          42.000    20467872.749 1  83812526.248 2      -497.684          45.000  
G11  20527898.731 1 107874841.157 2       825.789          44.000    20527900.861 1  84058343.765 2       643.733          46.000  
C07  34923805.175 1 181857419.145 1     -1289.020          45.000    34923801.362 1 140623670.858 1      -996.942          48.000  
C08  35980794.938 1 187361447.312 2      -453.509          42.000    35980792.058 1 144879745.531 1      -350.654          49.000  
C10  35288698.088 1 183757505.882 2      -921.853          44.000    35288697.254 1 142092959.785 2      -713.111          48.000  
C27  21802315.038 1 113530362.245 2     -2556.663          48.000                                                                  
C30  20638242.761 1 107468744.051 1        90.155          51.000                                                                  
C13  37035360.175 1 192852841.903 2      -294.942          43.000    37035367.979 1 149126084.082 2      -228.056          47.000  
R02  18655840.065 1  99551139.730 1      1123.254          53.000    18655844.655 1  77428704.571 1       873.539          48.000  
R16  22399017.688 2 119651530.474 4     -1375.628          47.000    22399028.010 2  93062394.192 5     -1069.997          42.000  
R15  22574421.514 9               9     -3761.309          28.000    22574437.892 9               9     -2922.726          27.000  
R01  19317486.057 1 103263031.244 2     -3018.833          48.000                                                                  
R24  19442134.547 1 103965828.365 3     -2103.943          51.000    19442137.842 1  80862322.091 2     -1636.136          48.000  
R17  19115998.522 1 102293577.280 2      1121.241          52.000    19116000.483 1  79561690.068 2       871.900          48.000  
G12  22177747.585 1 116544848.981 3      -998.611          42.000    22177752.727 1  90814187.737 3      -777.719          41.000  
G17  21519732.888 1 113086942.498 3     -3627.114          44.000    21519739.290 1  88119729.445 2     -2826.728          42.000  
G19  19328815.429 1 101573608.265 2     -2671.462          46.000                                                                  
G20  20805624.228 1 109334300.245 2      1355.283          44.000                                                                  
J02  36162265.042 1 190033980.093 3     -1031.918          40.000    36162275.599 1 148078470.399 2      -804.629          44.000  
J04  36490305.612 1 191757851.946 2     -1141.451          44.000    36490308.368 1 149421716.626 2      -889.424          45.000  
C29  23780027.544 1 123828844.381 2      2064.419          42.000                                                                  
C32  20970785.485 1 109200385.574 1      -103.074          50.000                                                                  
R18  22239741.355 2 118717249.675 3      2484.237          45.000    22239751.811 2  92335679.007 4      1932.425          44.000  
R03  21995107.801 2 117741537.975 3      3650.927          47.000    21995134.153 2  91576864.180 3      2839.878          46.000  
J07  36254743.157 1 190519951.816 4      -761.964          36.000    36254747.895 1 148457132.526 2      -593.783          46.000  
J03  37880968.670 1 199065834.210 1      -394.592          47.000    37880970.286 1 155116240.356 2      -307.562          46.000  
E11  24466051.966 1 128569984.268 3       630.968          40.000    24466057.260 1  98514695.593 2       483.298          47.000  
E16  24554078.924 1 129032549.167 3     -2256.921          42.000    24554089.374 1  98869119.482 2     -1729.050          50.000  
E19  23556137.638 1 123788346.009 4      -170.660          38.000    23556145.249 1  94850840.342 3      -131.005          45.000  
E24  25343518.761 1 133181076.006 3     -3205.292          40.000    25343531.762 1 102047889.603 2     -2456.043          49.000  
S28  37805250.616 1 198667932.190 4      -726.280          38.000  
E29  26293380.020 8 138172644.38418     -2326.333          33.000    26293394.059 4               9     -1784.375          37.000  
E10  22976636.807 1 120743049.873 2      -270.892          47.000    22976643.295 1  92517432.604 1      -207.508          51.000  
E04  25043610.915 1 131605070.830 3      2037.468          42.000    25043625.713 1 100840316.677 1      1560.800          48.000  
E12  23249035.589 1 122174496.815 2     -1200.360          44.000    23249039.310 1  93614245.200 2      -919.860          48.000  
G25  23492906.478 2 123456050.013 8       412.169          29.000    23492916.865 2  96199566.705 8       321.099          32.000  
E06  26591415.131 2 139738825.441 4      2270.777          40.000                                                                  
E25  24909496.385 1 130900276.132 3     -1090.867          41.000    24909507.805 1 100300257.120 1      -835.867          48.000  
E33                                                                  26085335.806 4 105034837.94018     -1980.555          41.000  
G05                                                                  23966553.439 9               9      2021.106          20.000  
> 2025 04 25 07 10 21.9970000  0 44                     
S29  37329006.928 1 196165254.261 5      -728.146          40.000  
S37  36254884.515 1 190520703.908 4      -764.120          38.000  
G04  22208837.353 4 116708217.93228     -2426.290          32.000    22208841.918 4  90941503.360 6     -1890.761          33.000  
G06  19778281.342 1 103935568.455 2      -852.119          48.000    19778284.968 1  80988771.637 2      -664.210          45.000  
G09  20467990.795 1 107560018.929 3      -640.784          43.000    20467994.549 1  83813024.820 2      -499.513          45.000  
G11  20527741.597 1 107874014.965 3       826.654          45.000    20527743.666 1  84057700.007 3       643.732          46.000  
C07  34924052.884 1 181858708.438 2     -1289.014          45.000    34924049.008 1 140624667.820 2      -996.729          47.000  
C08  35980881.971 1 187361900.520 2      -452.374          42.000    35980879.143 1 144880096.002 3      -349.994          49.000  
C10  35288875.127 1 183758427.609 2      -921.545          44.000    35288874.233 1 142093672.514 2      -712.636          48.000  
C27  21802806.303 1 113532920.151 2     -2558.783          48.000                                                                  
C30  20638225.466 1 107468654.211 1        89.760          51.000                                                                  
C13  37035416.702 1 192853136.484 4      -294.090          43.000    37035424.605 1 149126311.869 4      -227.527          48.000  
R02  18655629.693 1  99550017.429 2      1121.453          51.000    18655634.330 1  77427831.702 2       871.888          46.000  
R16  22399274.922 2 119652904.968 3     -1373.546          46.000    22399285.216 2  93063463.279 6     -1067.433          40.000  
R15  22575128.909 9               9     -3748.165          28.000    22575141.889 9               9     -2921.218          27.000  
R01  19318050.942 1 103266051.057 2     -3020.590          49.000                                                                  
R24  19442528.224 1 103967933.675 2     -2106.055          51.000    19442531.574 1  80863959.561 2     -1638.062          48.000  
R17  19115788.990 1 102292456.108 2      1121.703          51.000    19115790.964 1  79560818.038 2       872.047          47.000  
G12  22177937.336 1 116545845.807 4      -996.700          40.000    22177942.441 1  90814964.477 4      -776.296          42.000  
G17  21520423.380 1 113090571.122 2     -3628.966          43.000    21520429.685 1  88122556.960 2     -2828.563          42.000  
G19  19329323.903 1 101576280.702 2     -2673.551          45.000                                                                  
G20  20805366.236 1 109332944.766 4      1355.892          44.000                                                                  
J02  36162461.683 1 190035012.917 5     -1033.950          41.000    36162472.223 1 148079275.122 3      -804.555          45.000  
J04  36490522.857 1 191758993.915 3     -1143.269          42.000    36490525.674 1 149422606.495 2      -890.643          44.000  
C29  23779630.824 1 123826778.866 3      2066.334          43.000                                                                  
C32  20970805.457 1 109200489.392 3      -103.854          50.000                                                                  
R18  22239275.587 2 118714763.638 4      2486.801          44.000    22239286.176 2  92333745.522 4      1934.180          43.000  
R03  21994425.808 2 117737887.124 4      3651.278          46.000    21994452.048 2  91574024.801 3      2838.582          44.000  
J07  36254888.297 1 190520714.274 4      -763.972          37.000    36254892.948 1 148457726.635 2      -594.645          46.000  
J03  37881043.859 1 199066229.209 1      -395.172          47.000    37881045.443 1 155116548.130 2      -307.990          46.000  
E11  24465931.959 1 128569352.865 4       632.146          40.000    24465937.224 1  98514211.817 3       484.182          47.000  
E16  24554508.336 1 129034805.181 4     -2256.110          43.000    24554518.892 1  98870848.107 3     -1728.368          50.000  
E19  23556170.422 1 123788518.353 3      -173.392          38.000    23556177.982 1  94850972.396 2      -132.772          45.000  
E24  25344128.900 1 133184280.888 4     -3204.621          41.000    25344141.534 1 102050345.262 3     -2454.838          50.000  
S28  37805388.813 2 198668658.100 5      -725.287          38.000  
E10  22976688.510 1 120743320.692 2      -270.842          47.000    22976694.759 1  92517640.121 2      -207.567          50.000  
E04  25043223.311 1 131603034.193 3      2036.058          42.000    25043238.185 1 100838756.139 2      1560.191          48.000  
E12  23249263.926 1 122175697.680 2     -1200.768          44.000    23249267.828 1  93615165.353 2      -920.486          48.000  
E33  26085816.867 8 137081891.97915     -2587.945          40.000    26085828.054 2 105036820.034 5     -1983.046          45.000  
G25  23492827.574 2               9       413.976          30.000    23492838.178 2               9       322.522          31.000  
E06  26590983.162 1 139736554.119 4      2270.699          40.000                                                                  
E25  24909703.654 1 130901365.925 3     -1089.523          42.000    24909715.205 1 100301092.180 3      -834.540          49.000  
E29                                                                  26293836.552 8               9     -1787.431          26.000  
G05                                                                  23966067.629 9               9      1989.261          17.000  
> 2025 04 25 07 10 22.9970000  0 43                     
S29  37329145.516 1 196165982.646 4      -727.770          40.000  
S37  36255029.710 1 190521467.059 4      -763.705          40.000  
G06  19778443.525 1 103936420.654 2      -851.983          48.000    19778447.082 1  80989435.670 3      -663.823          45.000  
G09  20468112.891 1 107560660.944 4      -642.723          42.000    20468116.711 1  83813525.116 3      -501.696          44.000  
G11  20527584.080 1 107873187.537 2       828.256          45.000    20527586.125 1  84057055.243 2       645.378          46.000  
C07  34924300.311 1 181859997.762 2     -1289.709          45.000    34924296.656 1 140625664.795 2      -996.985          48.000  
C08  35980968.811 1 187362352.986 2      -452.387          42.000    35980966.036 1 144880445.856 2      -349.433          49.000  
C10  35289051.988 1 183759348.787 2      -920.889          44.000    35289051.156 1 142094384.830 2      -712.039          47.000  
C27  21803297.972 1 113535480.145 2     -2561.241          48.000                                                                  
C30  20638208.218 1 107468564.285 1        90.195          51.000                                                                  
C13  37035473.086 1 192853430.064 3      -293.414          43.000    37035480.966 1 149126538.873 3      -226.423          47.000  
R02  18655419.585 1  99548896.826 2      1119.635          52.000    18655424.275 1  77426960.100 2       870.852          48.000  
R16  22399531.915 2 119654277.927 3     -1371.998          47.000    22399542.213 2  93064531.195 4     -1067.204          42.000  
R15  22575830.707 9               9     -3762.891          32.000    22575844.198 9               9     -2914.941          32.000  
R01  19318616.190 2 103269072.164 3     -3021.410          48.000                                                                  
R24  19442922.368 2 103970040.979 3     -2108.802          49.000    19442925.699 2  80865598.559 3     -1639.974          47.000  
R17  19115579.429 1 102291334.314 2      1122.494          52.000    19115581.295 1  79559945.521 2       873.045          48.000  
G12  22178126.771 1 116546841.126 3      -994.283          43.000    22178131.826 1  90815740.046 3      -774.728          42.000  
G17  21521114.336 1 113094201.957 4     -3631.643          44.000    21521120.752 1  88125386.175 3     -2830.985          42.000  
G19  19329832.766 1 101578954.767 2     -2674.966          46.000                                                                  
G20  20805108.099 1 109331588.322 3      1357.708          44.000                                                                  
J02  36162658.430 1 190036046.634 5     -1034.663          40.000    36162668.907 1 148080080.641 4      -806.108          45.000  
J04  36490740.396 1 191760137.101 2     -1143.787          44.000    36490743.232 1 149423497.300 2      -891.537          45.000  
C29  23779233.756 1 123824711.234 3      2068.865          43.000                                                                  
C32  20970825.608 1 109200594.477 2      -105.574          50.000                                                                  
R18  22238809.410 2 118712275.352 4      2489.137          42.000    22238820.033 2  92331810.133 3      1936.823          44.000  
R03  21993744.017 2 117734237.251 6      3647.726          43.000    21993770.164 2  91571186.020 4      2838.035          43.000  
J07  36255033.638 1 190521477.458 4      -764.396          37.000    36255038.157 1 148458321.344 2      -595.360          46.000  
J03  37881119.013 1 199066624.710 1      -395.508          47.000    37881120.752 1 155116856.324 2      -308.179          46.000  
E11  24465811.316 1 128568719.799 4       634.174          40.000    24465816.746 1  98513726.732 2       485.852          47.000  
E16  24554937.279 1 129037060.017 4     -2254.415          42.000    24554947.917 1  98872575.873 2     -1727.570          50.000  
E19  23556203.833 1 123788692.840 4      -174.904          38.000    23556211.142 1  94851106.081 2      -133.893          45.000  
E24  25344738.648 1 133187485.271 4     -3204.147          41.000    25344751.460 1 102052800.597 2     -2455.231          49.000  
S28  37805526.723 1 198669382.957 5      -724.289          38.000  
E10  22976739.923 1 120743590.864 2      -269.712          47.000    22976746.312 1  92517847.125 1      -206.573          51.000  
E04  25042836.237 1 131600999.354 4      2033.394          43.000    25042850.882 1 100837196.951 3      1559.189          48.000  
E12  23249492.639 1 122176898.989 2     -1201.399          44.000    23249496.371 1  93616085.822 2      -920.721          48.000  
E33  26086308.381 4 137084480.850 5     -2589.109          33.000    26086321.047 2 105038803.654 5     -1984.515          39.000  
G25  23492748.431 2               9       415.907          30.000    23492759.260 4               9       324.026          31.000  
E06  26590551.300 1 139734284.036 4      2269.917          39.000                                                                  
E25  24909911.093 1 130902454.142 3     -1087.730          42.000    24909922.282 1 100301925.999 2      -832.844          49.000  
E29                                                                  26294278.955 9               9     -1779.165          31.000  
G04                                                                  22209303.900 8  90943386.25417     -1886.601          33.000  
> 2025 04 25 07 10 23.9970000  0 44                     
S29  37329284.053 1 196166710.779 3      -728.957          39.000  
S37  36255175.249 1 190522231.566 3      -765.107          40.000  
G06  19778605.615 1 103937272.660 1      -852.206          48.000    19778609.219 1  80990099.567 2      -663.663          46.000  
G09  20468235.440 1 107561305.052 3      -645.659          43.000    20468239.344 1  83814026.968 2      -502.926          45.000  
G11  20527426.337 1 107872358.577 2       829.583          45.000    20527428.278 1  84056409.312 2       646.194          46.000  
C07  34924547.905 1 181861287.244 1     -1289.575          45.000    34924544.327 1 140626661.909 2      -997.101          48.000  
C08  35981055.641 1 187362804.759 2      -451.467          42.000    35981052.801 1 144880795.204 2      -348.976          48.000  
C10  35289228.862 1 183760269.557 2      -920.824          44.000    35289228.014 1 142095096.820 2      -711.792          47.000  
C27  21803789.941 1 113538042.192 2     -2563.225          48.000                                                                  
C30  20638190.753 1 107468474.031 1        90.555          51.000                                                                  
C13  37035529.350 1 192853722.951 3      -292.360          43.000    37035537.204 1 149126765.357 2      -225.667          47.000  
R02  18655209.944 1  99547778.115 1      1117.938          52.000    18655214.612 1  77426090.009 2       869.242          48.000  
R16  22399788.595 2 119655648.965 3     -1370.481          47.000    22399798.777 2  93065597.467 3     -1064.910          42.000  
R15  22576533.853 9 120642151.44137     -3741.691          29.000    22576547.765 9               9     -2912.459          28.000  
R01  19319181.481 1 103272094.072 2     -3022.320          48.000                                                                  
R24  19443316.792 1 103972149.849 3     -2110.054          50.000    19443320.082 1  80867238.786 2     -1640.897          48.000  
R17  19115369.630 1 102290211.300 2      1123.940          52.000    19115371.354 1  79559072.084 2       873.851          48.000  
G12  22178315.820 1 116547834.858 3      -993.153          42.000    22178321.063 1  90816514.411 2      -773.861          42.000  
G17  21521805.742 1 113097835.303 3     -3634.348          43.000    21521812.069 1  88128217.332 3     -2832.071          42.000  
G19  19330341.969 1 101581630.737 2     -2677.089          46.000                                                                  
G20  20804849.911 1 109330231.293 2      1357.051          44.000                                                                  
J02  36162855.491 1 190037081.980 4     -1035.787          40.000    36162866.018 1 148080887.405 3      -807.816          44.000  
J04  36490958.266 1 191761281.804 2     -1145.714          43.000    36490961.035 1 149424389.246 2      -892.194          45.000  
C29  23778836.189 1 123822641.078 3      2071.796          44.000                                                                  
C32  20970846.215 1 109200700.835 1      -107.041          50.000                                                                  
R18  22238342.729 2 118709784.205 4      2492.977          43.000    22238353.271 2  92329872.586 3      1938.969          43.000  
R03  21993062.419 2 117730588.674 7      3648.416          41.000    21993088.566 2  91568348.316 5      2836.939          41.000  
J07  36255179.091 1 190522241.926 4      -764.757          37.000    36255183.600 1 148458917.033 2      -596.062          46.000  
J03  37881194.343 1 199067020.596 1      -396.136          47.000    37881196.168 1 155117164.818 2      -308.984          46.000  
E11  24465690.546 1 128568084.812 3       635.897          40.000    24465695.939 1  98513240.198 2       487.049          47.000  
E16  24555366.271 1 129039313.956 3     -2253.284          42.000    24555376.752 1  98874302.883 2     -1726.477          49.000  
E19  23556237.462 1 123788869.302 3      -177.656          38.000    23556244.784 1  94851241.301 2      -135.989          45.000  
E24  25345348.377 1 133190689.775 4     -3204.957          41.000    25345361.310 1 102055255.970 2     -2455.578          48.000  
S28  37805664.511 2 198670107.177 5      -722.652          35.000  
E10  22976791.112 1 120743860.011 2      -268.715          47.000    22976797.532 1  92518053.359 1      -205.882          51.000  
E04  25042449.373 1 131598966.817 3      2031.228          42.000    25042464.194 1 100835639.594 2      1556.727          48.000  
E12  23249721.241 1 122178100.263 2     -1201.425          44.000    23249724.999 1  93617006.274 2      -920.562          48.000  
E33  26086801.766 8 137087068.40018     -2589.220          29.000    26086813.031 8               9     -1980.548          34.000  
G25  23492669.294 2               9       418.265          32.000    23492679.825 4  96198596.186 7       326.262          31.000  
E06  26590119.677 1 139732015.729 5      2267.699          36.000                                                                  
E25  24910117.858 1 130903540.677 3     -1085.829          42.000    24910129.093 1 100302758.560 2      -832.363          49.000  
E29                                                                  26294721.974 8               9     -1786.463          27.000  
G04                                                                  22209764.584 8               7     -1888.796          33.000  
G05                                                                  23965085.850 9               9      2030.568          15.000  
> 2025 04 25 07 10 24.9970000  0 44                     
S29  37329422.380 1 196167438.022 5      -727.775          39.000  
S37  36255320.862 1 190522997.127 4      -766.250          40.000  
G06  19778767.708 1 103938124.717 1      -852.284          48.000    19778771.379 1  80990763.517 2      -664.180          45.000  
G09  20468358.339 1 107561951.386 3      -647.415          43.000    20468362.311 1  83814530.615 2      -504.521          44.000  
G11  20527268.286 1 107871528.137 2       831.018          45.000    20527270.300 1  84055762.210 2       647.365          46.000  
C07  34924795.642 1 181862576.772 2     -1289.355          45.000    34924791.880 1 140627659.066 2      -997.162          47.000  
C08  35981142.205 1 187363255.726 2      -450.634          42.000    35981139.425 1 144881143.925 2      -348.656          48.000  
C10  35289405.697 1 183761189.799 2      -920.036          44.000    35289404.779 1 142095808.410 2      -711.294          46.000  
C27  21804282.359 1 113540606.494 2     -2565.698          48.000                                                                  
C30  20638173.395 1 107468383.584 1        90.292          51.000                                                                  
C13  37035585.444 1 192854014.845 3      -291.304          43.000    37035593.217 1 149126991.072 2      -225.256          46.000  
R02  18655000.662 1  99546661.308 1      1115.643          53.000    18655005.308 1  77425221.360 2       867.928          48.000  
R16  22400044.941 2 119657018.044 3     -1368.515          45.000    22400055.110 2  93066662.337 4     -1065.005          42.000  
R15  22577235.495 9               9     -3768.648          29.000    22577252.703 9               9     -2916.821          28.000  
R01  19319746.923 2 103275117.162 2     -3023.821          48.000                                                                  
R24  19443711.618 1 103974260.692 2     -2111.832          51.000    19443714.865 1  80868880.585 2     -1642.635          47.000  
R17  19115159.564 1 102289087.408 2      1124.240          52.000    19115161.351 1  79558197.943 2       874.066          48.000  
G12  22178504.652 1 116548826.882 3      -990.937          41.000    22178509.818 1  90817287.410 2      -772.598          42.000  
G17  21522497.667 1 113101471.232 2     -3637.316          43.000    21522503.972 1  88131050.482 2     -2834.018          42.000  
G19  19330851.518 1 101584308.556 2     -2678.760          46.000                                                                  
G20  20804591.526 1 109328873.219 2      1358.627          44.000                                                                  
J02  36163052.787 1 190038118.621 4     -1037.485          42.000    36163063.305 1 148081695.211 3      -808.716          45.000  
J04  36491176.383 1 191762427.953 2     -1146.985          43.000    36491179.209 1 149425282.367 2      -893.730          45.000  
C29  23778438.235 1 123820568.481 3      2073.641          43.000                                                                  
C32  20970867.000 1 109200808.497 1      -108.435          50.000                                                                  
R18  22237875.483 2 118707290.346 4      2494.395          43.000    22237886.009 2  92327932.956 4      1939.854          45.000  
R03  21992378.845 8 117726925.72637      3647.518          40.000    21992407.259 2  91565511.593 8      2835.044          41.000  
J07  36255324.739 1 190523007.483 4      -766.162          37.000    36255329.353 1 148459513.578 2      -596.797          46.000  
J03  37881269.775 1 199067416.997 1      -396.625          47.000    37881271.652 1 155117473.689 2      -309.039          46.000  
E11  24465569.496 1 128567447.915 3       637.396          40.000    24465574.694 1  98512752.181 2       488.545          47.000  
E16  24555794.865 1 129041566.709 3     -2251.985          42.000    24555805.494 1  98876029.030 2     -1725.853          50.000  
E19  23556271.531 1 123789047.990 3      -179.712          38.000    23556278.663 1  94851378.232 2      -137.651          45.000  
E24  25345958.162 1 133193893.793 5     -3203.702          40.000    25345971.075 1 102057711.030 3     -2455.570          49.000  
S28  37805802.248 2 198670830.272 6      -722.807          39.000  
E10  22976842.155 1 120744128.291 2      -267.992          47.000    22976848.518 1  92518258.933 1      -205.311          50.000  
E04  25042062.834 1 131596936.464 3      2029.339          41.000    25042077.859 1 100834083.907 2      1554.823          48.000  
E12  23249949.835 1 122179301.838 2     -1201.827          43.000    23249953.706 1  93617926.955 1      -920.747          48.000  
E33  26087295.644 9               9     -2594.057          29.000    26087307.845 8 105042778.52618     -1991.403          33.000  
G25  23492589.324 2 123454385.376 8       420.472          33.000    23492600.034 4               9       326.417          31.000  
E06  26589690.541 4 139729766.05617      2265.337          34.000                                                                  
E25  24910324.196 1 130904625.403 3     -1083.919          42.000    24910335.385 1 100303589.696 2      -830.513          48.000  
E29                                                                  26295166.249 9               9     -1791.579          18.000  
G04                                                                  22210224.919 8               9     -1891.873          32.000  
G05                                                                  23964593.579 9               9      2022.966          15.000  
> 2025 04 25 07 10 25.9970000  0 43                     
S29  37329560.704 1 196168164.761 5      -726.661          39.000  
S37  36255466.814 1 190523763.749 4      -767.116          40.000  
G06  19778929.970 1 103938976.720 2      -851.397          48.000    19778933.518 1  80991427.425 2      -663.583          45.000  
G09  20468481.690 1 107562599.861 3      -649.270          43.000    20468485.875 1  83815035.959 2      -506.329          44.000  
G11  20527109.846 1 107870696.221 2       832.839          45.000    20527111.969 1  84055114.002 2       648.043          46.000  
C07  34925043.374 1 181863866.393 2     -1289.612          45.000    34925039.479 1 140628656.277 2      -997.357          47.000  
C08  35981228.648 1 187363705.921 2      -450.082          42.000    35981225.898 1 144881492.047 1      -348.048          48.000  
C10  35289582.308 1 183762109.549 1      -919.942          44.000    35289581.381 1 142096519.623 2      -711.197          46.000  
C27  21804775.289 1 113543172.915 2     -2567.108          48.000                                                                  
C30  20638156.026 1 107468292.876 1        90.996          51.000                                                                  
C13  37035641.452 1 192854305.874 3      -290.457          43.000    37035649.156 1 149127216.122 2      -224.520          47.000  
R02  18654791.655 1  99545546.323 1      1114.148          52.000    18654796.377 1  77424354.158 2       866.521          48.000  
R16  22400300.921 2 119658385.236 3     -1366.650          46.000    22400311.192 2  93067725.708 4     -1062.850          43.000  
R15  22577937.853 9               9     -3754.736          37.000    22577955.611 9               9     -2916.258          33.000  
R01  19320312.654 1 103278141.277 2     -3024.399          48.000                                                                  
R24  19444106.720 1 103976373.403 2     -2113.878          50.000    19444110.024 1  80870523.786 2     -1644.005          47.000  
R17  19114949.397 1 102287962.544 2      1125.402          52.000    19114951.162 1  79557323.040 2       875.209          48.000  
G12  22178693.102 1 116549817.273 4      -989.502          41.000    22178698.227 1  90818059.128 2      -771.102          41.000  
G17  21523189.935 1 113105109.551 3     -3639.613          44.000    21523196.282 1  88133885.551 2     -2836.196          42.000  
G19  19331361.473 1 101586988.209 2     -2680.543          46.000                                                                  
G20  20804332.896 1 109327514.371 2      1358.998          44.000                                                                  
J02  36163250.345 1 190039156.649 4     -1039.310          40.000    36163260.894 1 148082504.015 3      -809.709          44.000  
J04  36491394.760 1 191763575.489 2     -1148.309          43.000    36491397.554 1 149426176.564 2      -894.894          45.000  
C29  23778039.605 1 123818493.529 3      2076.221          44.000                                                                  
C32  20970887.908 1 109200917.418 1      -109.506          50.000                                                                  
R18  22237407.813 2 118704793.875 4      2497.959          44.000    22237418.298 2  92325991.273 4      1942.321          43.000  
R03  21991699.560 8 117723289.58938      3643.443          37.000    21991726.172 4               9      2835.837          38.000  
J07  36255470.678 1 190523774.122 4      -767.516          37.000    36255475.271 1 148460110.933 2      -597.567          45.000  
J03  37881345.292 1 199067813.852 1      -397.052          47.000    37881347.139 1 155117782.926 2      -309.326          46.000  
E11  24465447.808 1 128566809.137 3       639.610          40.000    24465453.097 1  98512262.727 2       490.080          47.000  
E16  24556223.498 1 129043818.366 3     -2251.188          42.000    24556233.937 1  98877754.314 2     -1724.730          50.000  
E19  23556305.936 1 123789228.814 3      -181.802          38.000    23556313.137 1  94851516.754 2      -138.989          45.000  
E24  25346567.699 2 133197097.713 6     -3203.665          40.000    25346580.764 1 102060165.963 4     -2455.237          49.000  
S28  37805939.719 2 198671552.513 6      -722.379          37.000  
E10  22976892.957 1 120744395.711 1      -267.031          47.000    22976899.441 1  92518463.831 1      -204.604          51.000  
E04  25041676.982 1 131594908.209 3      2026.743          42.000    25041691.936 1 100832529.787 2      1553.141          49.000  
E12  23250178.410 1 122180503.593 2     -1201.796          43.000    23250182.432 1  93618847.803 2      -921.081          48.000  
E33  26087788.912 8               7     -2596.271          28.000    26087800.974 8               9     -1991.738          32.000  
G25  23492509.074 2 123453964.348 6       422.198          33.000    23492519.923 2  96197941.520 7       328.651          32.000  
E25  24910530.137 1 130905708.419 3     -1081.763          42.000    24910541.464 1 100304419.559 2      -829.189          49.000  
E29                                                                  26295607.336 9               9     -1786.078          21.000  
G04                                                                  22210684.535 8               9     -1891.558          29.000  
G05                                                                  23964101.349 9               9      2026.304          16.000  
> 2025 04 25 07 10 26.9970000  0 44                     
S29  37329699.004 1 196168891.301 4      -725.903          40.000  
S37  36255612.888 1 190524531.583 3      -768.116          40.000  
G06  19779092.045 1 103939828.647 2      -851.905          48.000    19779095.613 1  80992091.253 2      -663.733          45.000  
G09  20468605.462 1 107563250.272 4      -651.490          43.000    20468609.518 1  83815542.750 2      -507.776          45.000  
G11  20526951.301 1 107869863.029 2       834.036          45.000    20526953.333 1  84054464.725 2       649.663          46.000  
C07  34925291.206 1 181865156.256 2     -1289.771          46.000    34925287.240 1 140629653.668 1      -997.083          47.000  
C08  35981315.015 1 187364155.611 2      -449.442          42.000    35981312.259 1 144881839.774 1      -347.406          48.000  
C10  35289758.771 1 183763028.948 2      -919.344          44.000    35289757.879 1 142097230.547 2      -710.576          47.000  
C27  21805268.516 1 113545741.278 2     -2569.312          48.000                                                                  
C30  20638138.541 1 107468201.944 1        91.044          51.000                                                                  
C13  37035697.260 1 192854596.451 3      -290.182          43.000    37035704.935 1 149127440.819 2      -224.325          47.000  
R02  18654583.223 1  99544433.233 1      1112.507          53.000    18654587.833 1  77423488.429 2       865.197          48.000  
R16  22400556.605 2 119659750.906 4     -1364.854          47.000    22400566.861 2  93068787.929 4     -1061.829          41.000  
R15  22578638.074 9               9     -3749.268          37.000    22578654.606 9  93841598.33137     -2916.168          34.000  
R01  19320878.459 2 103281166.204 3     -3025.345          48.000                                                                  
R24  19444502.147 1 103978487.708 3     -2115.149          51.000    19444505.363 2  80872168.252 3     -1645.434          48.000  
R17  19114738.936 1 102286836.664 2      1126.146          52.000    19114740.778 1  79556447.353 2       875.997          47.000  
G12  22178881.269 1 116550806.457 4      -988.200          42.000    22178886.474 1  90818829.894 3      -769.875          41.000  
G17  21523882.803 1 113108750.319 3     -3641.371          44.000    21523889.105 1  88136722.495 2     -2837.764          42.000  
G19  19331871.665 1 101589669.648 2     -2682.239          46.000                                                                  
G20  20804074.214 1 109326155.011 2      1359.525          44.000                                                                  
J02  36163448.146 1 190040196.184 4     -1039.564          40.000    36163458.794 1 148083314.040 3      -810.105          44.000  
J04  36491613.419 1 191764724.408 2     -1149.619          44.000    36491616.152 1 149427071.823 2      -895.811          45.000  
C29  23777640.792 1 123816416.474 3      2077.919          43.000                                                                  
C32  20970909.071 1 109201027.554 1      -110.510          50.000                                                                  
R18  22236939.722 2 118702295.096 4      2498.831          44.000    22236950.099 2  92324047.781 3      1944.081          43.000  
R03  21991015.830 8 117719628.99937      3644.013          38.000    21991045.214 2  91559841.175 8      2833.772          40.000  
J07  36255616.943 1 190524541.962 4      -768.320          37.000    36255621.402 1 148460709.266 2      -598.259          46.000  
J03  37881420.834 1 199068211.024 1      -397.284          47.000    37881422.759 1 155118092.403 2      -309.473          46.000  
E11  24465325.796 1 128566168.737 3       641.376          40.000    24465331.389 1  98511772.031 2       491.252          47.000  
E16  24556651.774 1 129046069.378 3     -2250.685          42.000    24556662.370 1  98879479.110 2     -1724.497          50.000  
E19  23556340.690 1 123789411.412 4      -182.891          38.000    23556347.778 1  94851656.688 2      -140.175          45.000  
E24  25347177.596 1 133200301.808 5     -3203.573          38.000    25347190.624 1 102062621.020 3     -2454.531          48.000  
S28  37806077.061 1 198672274.179 5      -721.536          38.000  
E10  22976943.789 1 120744662.248 2      -266.133          47.000    22976950.190 1  92518668.062 1      -203.889          51.000  
E04  25041291.419 1 131592882.156 3      2024.917          41.000    25041306.291 1 100830977.372 2      1552.001          48.000  
E12  23250407.136 1 122181705.353 2     -1201.675          43.000    23250411.079 1  93619768.616 2      -920.966          48.000  
E33  26088282.355 8               9     -2597.787          29.000    26088294.589 4               9     -1990.074          32.000  
G25  23492428.656 1 123453541.573 5       423.972          35.000    23492439.419 2  96197612.072 7       329.546          32.000  
E06  26588830.034 8               9      2263.656          29.000                                                                  
E25  24910736.025 1 130906790.164 3     -1081.278          42.000    24910747.442 1 100305248.411 2      -828.362          49.000  
E29                                                                  26296052.343 9               9     -1806.418          22.000  
G04                                                                  22211150.176 9               9     -1894.371          32.000  
G05                                                                  23963603.648 9               9      2048.505          15.000  
> 2025 04 25 07 10 27.9970000  0 44                     
S29  37329837.258 1 196169617.742 4      -725.803          40.000  
S37  36255759.208 1 190525300.314 3      -769.261          40.000  
G06  19779254.289 1 103940680.907 1      -852.190          48.000    19779257.883 1  80992755.352 2      -663.994          46.000  
G09  20468729.613 1 107563902.407 3      -652.596          43.000    20468733.561 1  83816050.901 2      -508.445          45.000  
G11  20526792.666 1 107869029.358 2       833.790          45.000    20526794.684 1  84053815.118 2       649.562          46.000  
C07  34925538.911 1 181866446.489 2     -1290.369          46.000    34925535.045 1 140630651.361 2      -997.662          47.000  
C08  35981401.246 1 187364605.169 2      -449.364          42.000    35981398.595 1 144882187.406 1      -347.706          48.000  
C10  35289935.358 1 183763948.424 2      -919.707          44.000    35289934.359 1 142097941.560 1      -711.092          47.000  
C27  21805761.834 1 113548311.212 2     -2570.221          47.000                                                                  
C30  20638121.116 1 107468111.306 1        90.477          51.000                                                                  
C13  37035752.994 1 192854886.812 2      -290.417          43.000    37035760.709 1 149127665.363 2      -224.695          47.000  
R02  18654374.918 1  99543321.875 1      1111.023          53.000    18654379.596 1  77422624.048 2       863.903          48.000  
R16  22400812.189 2 119661116.046 3     -1366.150          49.000    22400822.379 2  93069849.686 4     -1062.407          43.000  
R15  22579340.857 9               9     -3756.418          30.000    22579355.677 9               7     -2915.558          30.000  
R01  19321444.570 1 103284192.272 2     -3026.395          48.000                                                                  
R24  19444897.752 1 103980603.507 2     -2116.017          51.000    19444900.964 1  80873813.868 2     -1645.992          47.000  
R17  19114528.425 1 102285710.583 2      1126.265          52.000    19114530.343 1  79555571.517 2       876.209          48.000  
G12  22179069.372 1 116551795.216 3      -988.492          41.000    22179074.556 1  90819600.349 2      -770.067          42.000  
G17  21524575.953 1 113112392.800 2     -3642.575          44.000    21524582.244 1  88139560.813 2     -2838.971          42.000  
G19  19332382.303 1 101592352.616 2     -2683.511          46.000                                                                  
G20  20803815.499 1 109324795.569 3      1359.246          44.000                                                                  
J02  36163646.213 1 190041236.803 4     -1040.988          40.000    36163656.797 1 148084124.926 3      -811.350          44.000  
J04  36491832.294 1 191765874.386 2     -1149.990          44.000    36491834.931 1 149427967.900 2      -896.156          45.000  
C29  23777241.651 1 123814338.340 3      2078.188          44.000                                                                  
C32  20970930.319 1 109201138.918 1      -111.896          50.000                                                                  
R18  22236471.366 2 118699794.870 4      2501.408          43.000    22236481.665 2  92322103.166 3      1944.977          42.000  
R03  21990335.588 9               9      3643.580          41.000    21990364.599 4  91556999.62338      2832.821          40.000  
J07  36255763.209 1 190525310.680 4      -769.225          37.000    36255767.755 1 148461308.267 2      -599.361          46.000  
J03  37881496.555 1 199068608.708 1      -397.711          47.000    37881498.418 1 155118402.295 2      -309.991          46.000  
E11  24465203.870 1 128565527.534 3       641.866          40.000    24465209.216 1  98511280.733 2       491.751          47.000  
E16  24557080.131 1 129048320.173 3     -2251.140          42.000    24557090.552 1  98881203.746 1     -1724.819          50.000  
E19  23556375.548 1 123789595.673 4      -184.536          38.000    23556382.968 1  94851797.867 2      -141.568          45.000  
E24  25347787.535 1 133203506.100 4     -3204.630          41.000    25347800.109 1 102065076.238 3     -2455.295          49.000  
S28  37806214.347 1 198672995.647 5      -721.799          39.000  
E10  22976994.522 1 120744928.599 1      -266.435          47.000    22977000.907 1  92518872.140 1      -203.975          51.000  
E04  25040905.935 1 131590857.553 3      2024.313          42.000    25040920.959 1 100829426.091 2      1551.041          49.000  
E12  23250635.736 1 122182907.556 2     -1202.254          43.000    23250639.739 1  93620689.781 2      -921.228          48.000  
E33  26088778.486 9               9     -2597.795          28.000    26088789.354 8               9     -1991.755          37.000  
G25  23492348.139 1 123453118.177 5       423.169          36.000    23492358.801 2  96197282.108 6       331.255          35.000  
E06  26588398.041 8               9      2261.327          31.000                                                                  
E25  24910941.811 1 130907871.361 2     -1081.382          42.000    24910953.108 1 100306076.860 1      -828.601          49.000  
E29                                                                  26296497.650 9               9     -1758.919          22.000  
G04                                                                  22211609.107 8               9     -1888.671          31.000  
G05                                                                  23963105.503 9               9      2022.201          16.000  
