     2.11           OBSERVATION DATA    M (MIXED)           RINEX VERSION / TYPE
teqc  2013Mar15                         20150202 00:21:36UTCPGM / RUN BY / DATE
SUWN                                                        MARKER NAME
23903M001                                                   MARKER NUMBER
GEODESY DIVISION.   NGII                                    OBSERVER / AGENCY
5302K41501          TRIMBLE NETR9       4.93                REC # / TYPE / VERS
02201704            TRM59800.80     DOME                    ANT # / TYPE
 -3062023.5630  4055449.0330  3841819.2130                  APPROX POSITION XYZ
        0.0000        0.0000        0.0000                  ANTENNA: DELTA H/E/N
     1     1                                                WAVELENGTH FACT L1/2
     7    C1    L1    C2    P2    L2    C5    L5            # / TYPES OF OBSERV
    30.0000                                                 INTERVAL
MSXP|IAx86-PII|bcc32 5.0|MSWin95->XP|486/DX+                COMMENT
NetR9 4.93          Receiver Operator   01-FEB-15 00:00:01  COMMENT
L2C CARRIER PHASE MEASUREMENTS: PHASE SHIFTS REMOVED        COMMENT
L2C PHASE MATCHES L2 P PHASE                                COMMENT
GLONASS C/A & P PHASE MATCH: PHASE SHIFTS REMOVED           COMMENT
GIOVE-A if present is mapped to satellite ID 51             COMMENT
GIOVE-B if present is mapped to satellite ID 52             COMMENT
  2015     2     1     0     0    0.0000000     GPS         TIME OF FIRST OBS
    16                                                      LEAP SECONDS
                                                            END OF HEADER
 15  2  1  0  0  0.0000000  0 17G30G06R07R24R22R01G10G12R08G13G05G09
                                G02G07G29R23G20
  25033584.828 5 131552383.410 5  25033598.742 5  25033596.98045 102508399.25245
  25033598.297 7  98237194.127 7
  21365810.234 9 112278050.641 9  21365819.559 8  21365819.15649  87489422.49049
  21365819.480 9  83844029.110 9
  23218855.977 6 124292129.699 6  23218862.441 4  23218860.789 4  96671776.784 4

  20840581.141 9 111443934.950 9  20840584.816 5  20840584.320 5  86678633.801 5

  22187473.242 7 118438126.273 7  22187479.188 5  22187479.289 5  92118591.419 5

  20375567.281 9 108919072.839 9  20375573.711 5  20375574.301 5  84714861.913 5

  20792835.172 9 109267287.578 9                  20792840.79349  85143206.73849

  24778477.469 5 130211662.205 5  24778486.465 4  24778485.94945 101463691.68545

  19769666.555 9 105866640.419 9  19769670.250 7  19769670.277 6  82339974.113 6

  23825459.000 7 125203661.645 7                  23825466.36346  97561324.32746

  21228126.320 9 111554541.048 9  21228132.523 7  21228132.66049  86925640.27049

  22949143.383 7 120598512.292 7  22949152.000 6  22949151.92647  93972915.40847
  22949152.012 9  90057361.217 9
  20423906.477 9 107328322.381 9                  20423909.68849  83632472.65749

  24576831.078 6 129152112.866 6  24576840.262 3  24576839.64845 100638053.33745

  24059451.859 2

  19394126.992 9 103745656.263 9  19394132.305 7  19394132.820 7  80690964.158 7

  23741182.625 6 124760552.324 6                  23741190.94146  97216124.96846

 15  2  1  0  0 30.0000000  0 17G30G06R07R24R22R01G10G12R08G13G05G09
                                G02G07G29R23G20
  25019396.383 5 131477815.866 5  25019408.977 5  25019408.63745 102450294.71945
  25019408.895 7  98181510.646 7
  21375383.414 9 112328360.028 9  21375392.980 8  21375392.63749  87528624.54449
  21375392.789 9  83881597.737 9
  23239329.344 6 124401732.549 6  23239336.902 5  23239336.473 5  96757023.246 5

  20823155.867 8 111350756.083 8  20823159.352 5  20823158.621 5  86606161.346 5

  22209479.547 7 118555602.023 7  22209485.746 6  22209486.129 6  92209961.306 6

  20365400.313 9 108864726.712 9  20365406.250 6  20365407.309 6  84672592.716 6

  20803841.891 9 109325127.622 9                  20803847.58649  85188276.85549

  24792727.609 5 130286537.532 5  24792734.789 4  24792734.54745 101522035.89745

  19779584.883 9 105919750.988 9  19779588.145 7  19779587.832 7  82381282.280 7

  23803989.445 6 125090844.481 6                  23803997.79745  97473414.85045

  21219776.359 9 111510660.707 9  21219782.793 7  21219782.35549  86891447.78449

  22964359.195 7 120678471.253 7  22964367.723 7  22964367.86747  94035220.99247
  22964367.250 9  90117070.715 9
  20417922.664 9 107296878.361 9                  20417925.62949  83607970.79749

  24566797.445 6 129099385.934 6  24566806.316 4  24566806.25445 100596967.42245

  24041590.820 1

  19397787.672 9 103765243.816 9  19397793.262 7  19397793.781 7  80706198.889 7

  23758023.938 6 124849047.136 6                  23758031.64545  97285081.80945

 15  2  1  0  1  0.0000000  0 17G30G06R07R24R22R01G10G12R08G13G05G09
                                G02G07G29R23G20
  25005215.828 6 131403299.684 6  25005229.152 5  25005229.09445 102392230.25345
  25005228.594 7  98125865.515 7
  21385016.094 9 112378979.246 9  21385026.086 8  21385025.51249  87568068.03249
  21385026.016 9  83919397.727 9
  23259797.977 6 124511309.169 6  23259806.590 5  23259807.141 5  96842249.307 5

  20805815.063 8 111258029.434 8  20805819.488 5  20805818.961 5  86534040.619 5

  22231546.500 7 118673390.120 7  22231551.711 5  22231551.992 5  92301574.108 5

  20355324.930 9 108810865.549 9  20355330.289 5  20355331.469 5  84630700.718 5

  20814897.547 9 109383226.952 9                  20814903.89149  85233549.03049

  24807000.328 5 130361547.997 5  24807008.684 4  24807008.64845 101580485.47745

  19789576.109 9 105973255.293 9  19789579.148 7  19789579.477 6  82422896.714 6

  23782540.781 7 124978130.692 7                  23782548.40646  97385585.94746

  21211484.039 9 111467083.357 9  21211490.082 7  21211490.14849  86857491.41149

  22979644.539 7 120758799.150 7  22979653.891 6  22979653.90247  94097814.05147
  22979653.930 9  90177055.710 9
  20411994.133 9 107265723.844 9                  20411997.19149  83583694.53749

  24556819.883 6 129046954.569 6  24556829.695 4  24556828.98045 100556111.77945

  24023778.883 2 126245708.39712  24023786.305 1                  98373398.37211

  19401591.352 9 103785589.574 9  19401596.879 7  19401597.285 7  80722023.326 7

  23774867.922 5 124937562.009 5                  23774875.56646  97354054.29846

 15  2  1  0  1 30.0000000  0 17G30G06R07R24R22R01G10G12R08G13G05G09
                                G02G07G29R23G20
  24991045.133 6 131328835.900 6  24991058.074 5  24991057.46545 102334206.60645
  24991058.254 7  98070259.527 7
  21394707.242 9 112429906.559 9  21394716.719 8  21394716.15249  87607751.58549
  21394716.652 9  83957427.786 9
  23280264.180 6 124620855.600 6  23280271.316 5  23280271.262 5  96927451.884 5

  20788561.031 8 111165757.308 8  20788564.836 6  20788563.531 5  86462273.415 5

  22253669.852 7 118791485.522 7  22253675.180 6  22253675.719 6  92393425.922 6

  20345339.523 9 108757487.421 9  20345345.156 6  20345345.918 5  84589184.402 5

  20826002.078 9 109441581.771 9                  20826008.44149  85279020.27049

  24821299.180 5 130436688.371 5  24821307.441 4  24821307.78145 101639036.23245

  19799639.938 9 106027148.403 9  19799643.781 7  19799643.730 7  82464813.542 7

  23761112.813 7 124865520.993 7                  23761120.29346  97297838.15246

  21203248.922 9 111423806.976 9  21203255.195 7  21203254.94949  86823769.56249

  22995001.047 7 120839491.624 7  22995009.051 7  22995009.38748  94160691.18748
  22995009.473 9  90237312.942 9
  20406120.547 9 107234858.651 9                  20406124.30949  83559643.72649

  24546899.227 6 128994819.573 6  24546908.676 5  24546908.64146 100515487.03146

  24006020.578 2

  19405536.867 9 103806691.995 9  19405541.418 7  19405542.254 7  80738436.282 7

  23791714.688 6 125026093.970 6                  23791722.00446  97423040.05346

 15  2  1  0  2  0.0000000  0 17G30G06R07R24R22R01G10G12R08G13G05G09
                                G02G07G29R23G20
  24976886.508 5 131254428.332 5  24976899.262 4  24976898.14845 102276226.72945
  24976899.582 7  98014695.517 7
  21404457.633 9 112481142.842 9  21404467.086 8  21404466.52349  87647675.90549
  21404466.848 9  83995688.574 9
  23300721.938 7 124730370.435 7  23300729.613 5  23300729.801 5  97012629.883 5

  20771391.016 8 111073944.463 8  20771394.254 5  20771394.258 5  86390863.429 5

  22275851.023 8 118909886.327 8  22275855.672 5  22275856.406 5  92485515.271 5

  20335444.258 9 108704593.207 9  20335449.574 5  20335450.211 5  84548044.461 5

  20837155.328 9 109500191.176 9                  20837161.33249  85324689.91349

  24835622.242 5 130511956.477 5  24835630.488 4  24835630.28945 101697686.54645

  19809776.820 9 106081428.246 9  19809780.617 7  19809780.438 7  82507031.173 7

  23739704.133 7 124753018.959 7                  23739711.77746  97210174.24546

  21195070.750 9 111380831.873 9  21195077.293 7  21195077.30549  86790282.46249

  23010424.727 7 120920546.917 7  23010432.922 6  23010432.94148  94223851.05948
  23010433.207 9  90297841.132 9
  20400302.617 9 107204285.126 9                  20400306.14149  83535820.17649

  24537035.031 6 128942984.095 6  24537044.855 5  24537044.96546 100475095.73046

  23988315.305 3 126059328.97713  23988320.055 1                  98228167.86311

  19409622.727 9 103828551.803 9  19409628.781 7  19409629.082 7  80755438.321 7

  23808564.500 5 125114642.999 5                  23808572.83645  97492039.12045

 15  2  1  0  2 30.0000000  0 17G30G06R07R24R22R01G10G12R08G13G05G09
                                G02G07G29R23G20
  24962738.000 6 131180080.380 6  24962751.379 5  24962749.96945 102218293.34645
  24962751.813 7  97959176.034 7
  21414266.219 9 112532688.430 9  21414275.926 8  21414275.35949  87687841.24349
  21414275.566 9  84034180.343 9
  23321172.930 6 124839852.070 6  23321181.914 5  23321182.430 5  97097782.031 5

  20754308.336 8 110982595.219 8  20754311.863 6  20754311.563 5  86319814.019 5

  22298086.883 7 119028589.688 7  22298092.887 6  22298093.883 5  92577839.910 5

  20325639.766 9 108652183.656 9  20325645.152 6  20325646.461 5  84507281.500 5

  20848356.734 9 109559053.753 9                  20848362.64549  85370556.80749

  24849968.875 6 130587349.299 6  24849978.801 4  24849978.07845 101756434.04445

  19819985.289 9 106136092.527 9  19819988.117 7  19819988.160 7  82549547.792 7

  23718316.695 7 124640627.397 7                  23718324.26646  97122596.42746

  21186950.234 9 111338158.142 9  21186956.414 7  21186956.19949  86757030.20749

  23025918.180 7 121001962.928 7  23025926.512 7  23025926.32448  94287291.99648
  23025926.527 9  90358638.654 9
  20394540.570 9 107174005.328 9                  20394543.33249  83512225.51149

  24527229.070 6 128891451.393 6  24527239.207 5  24527238.97346 100434940.29246

  23970661.992 1

  19413851.281 9 103851169.752 9  19413856.691 7  19413857.230 7  80773030.014 7

  23825417.805 5 125203208.551 5                  23825426.67645  97561051.09445

 15  2  1  0  3  0.0000000  0 16G30G06R07R24R22R01G10G12R08G13G05G09
                                G02G07R23G20
  24948602.281 5 131105794.779 5  24948615.602 5  24948614.18445 102160408.48645
  24948615.320 7  97903703.092 7
  21424133.617 9 112584543.284 9  21424143.289 8  21424142.75449  87728247.56949
  21424143.020 9  84072903.062 9
  23341620.227 6 124949298.510 6  23341626.480 4  23341626.684 5  97182906.859 5

  20737312.688 8 110891713.637 8  20737316.418 5  20737315.926 5  86249128.356 5

  22320380.461 7 119147592.531 7  22320386.953 6  22320388.000 5  92670397.490 5

  20315926.586 9 108600257.949 9  20315931.512 5  20315932.535 5  84466894.847 5

  20859605.719 9 109618167.909 9                  20859611.68449  85416619.74349

  24864339.789 6 130662863.632 6  24864348.832 4  24864348.75445 101815276.27245

  19830264.133 9 106191138.079 9  19830267.898 7  19830267.906 6  82592360.973 6

  23696951.031 7 124528348.859 7                  23696958.17246  97035106.70646

  21178887.164 9 111295785.841 9  21178893.836 7  21178893.40649  86724012.83549

  23041479.492 7 121083736.800 7  23041487.863 6  23041487.68848  94351011.80448
  23041488.188 9  90419703.443 9
  20388834.906 9 107144020.716 9                  20388837.88349  83488860.86349

  24517480.992 6 128840224.186 6  24517490.215 5  24517490.02346 100395022.93046

  19418221.164 9 103874545.551 9  19418226.684 7  19418227.090 7  80791211.162 7

  23842274.523 5 125291789.842 5                  23842283.09845  97630075.28045

 15  2  1  0  3 30.0000000  0 16G30G06R07R24R22R01G10G12R08G13G05G09
                                G02G07R23G20
  24934478.188 5 131031574.594 5  24934491.227 5  24934489.92245 102102574.71445
  24934491.469 7  97848279.036 7
  21434060.625 9 112636707.488 9  21434070.465 8  21434069.74649  87768894.95249
  21434070.016 9  84111856.794 9
  23362057.328 6 125058708.068 6  23362066.641 5  23362066.418 5  97268002.987 5

  20720406.422 8 110801303.619 8  20720408.609 5  20720408.262 5  86178809.444 5

  22342731.375 7 119266892.117 7  22342735.617 6  22342736.109 5  92763185.870 5

  20306302.953 9 108548816.545 9  20306308.535 6  20306308.758 6  84426884.900 6

  20870902.000 9 109677531.917 9                  20870908.43449  85462877.37749

  24878731.930 6 130738496.297 6  24878739.746 3  24878739.26645 101874210.63145

  19840614.930 9 106246562.225 9  19840617.559 7  19840617.629 7  82635468.592 7

  23675606.539 7 124416186.209 7                  23675614.56646  96947707.27446

  21170881.508 9 111253715.003 9  21170887.727 8  21170887.48049  86691230.35849

  23057107.383 7 121165866.202 7  23057116.758 7  23057116.60247  94415008.63147
  23057116.457 9  90481033.722 9
  20383185.250 9 107114332.935 9                  20383188.74249  83465727.50549

  24507791.039 6 128789304.617 6  24507801.020 4  24507800.65245 100355345.31845

  19422732.648 9 103898679.712 9  19422738.367 7  19422738.430 7  80809982.145 7

  23859133.469 5 125380386.142 5                  23859142.62545  97699111.14745

 15  2  1  0  4  0.0000000  0 16G30G06R07R24R22R01G10G12R08G13G05G09
                                G02G07R23G20
  24920367.953 5 130957422.508 5  24920380.727 5  24920380.16445 102044793.90645
  24920379.660 7  97792905.772 7
  21444046.055 9 112689180.718 9  21444055.410 8  21444055.16049  87809783.13649
  21444055.250 9  84151041.299 9
  23382490.609 6 125168078.310 6  23382498.980 5  23382498.352 5  97353068.477 5

  20703588.289 8 110711368.706 8  20703590.797 5  20703590.727 5  86108860.076 5

  22365133.367 7 119386484.965 7  22365139.773 5  22365139.930 5  92856202.362 5

  20296770.492 9 108497858.876 9  20296775.828 5  20296776.508 5  84387251.171 5

  20882246.063 9 109737143.563 9                  20882251.99249  85509327.96549

  24893147.195 6 130814244.745 6  24893153.656 1  24893153.29745 101933235.19945

  19851034.625 9 106302361.859 9  19851038.293 7  19851038.531 6  82678868.279 6

  23654285.445 7 124304141.554 7                  23654293.60546  96860399.76046

  21162932.711 9 111211945.077 9  21162938.969 7  21162938.86349  86658682.37249

  23072803.500 7 121248348.145 7  23072812.660 6  23072812.00847  94479280.18547
  23072811.918 9  90542627.276 9
  20377592.914 9 107084943.171 9                  20377595.80549  83442826.37249

  24498160.086 5 128738695.022 5  24498170.008 4  24498169.44945 100315909.23245

  19427386.273 9 103923571.459 9  19427390.797 7  19427391.793 7  80829342.352 7

  23875997.500 5 125468996.211 5                  23876005.10946  97768157.78846

 15  2  1  0  4 30.0000000  0 16G30G06R07R24R22R01G10G12R08G13G05G09
                                G02G07R23G20
  24906270.852 6 130883341.695 6  24906283.543 5  24906283.44146 101987068.69746
  24906283.113 7  97737585.802 7
  21454090.094 9 112741963.166 9  21454100.105 8  21454099.53149  87850912.26749
  21454099.508 9  84190456.699 9
  23402913.406 6 125277407.165 6  23402922.316 5  23402922.266 5  97438101.868 5

  20686858.406 8 110621913.149 8  20686861.879 6  20686861.465 5  86039283.542 5

  22387592.781 7 119506368.421 7  22387597.730 5  22387598.199 5  92949444.859 5

  20287328.242 9 108447385.225 9  20287333.797 6  20287334.785 6  84347993.905 6

  20893636.461 9 109797001.729 9                  20893642.81349  85555970.65149

  24907581.867 6 130890105.044 6  24907591.184 2  24907590.50445 101992346.97045

  19861524.461 9 106358534.067 9  19861528.391 7  19861527.973 7  82722557.726 7

  23632987.563 7 124192217.865 7                  23632995.01246  96773186.53946

  21155041.102 9 111170475.730 9  21155047.656 7  21155047.38349  86626368.59649

  23088566.156 7 121331180.371 7  23088575.309 7  23088575.55948  94543824.65948
  23088575.176 9  90604482.380 9
  20372057.156 9 107055853.520 9                  20372060.66049  83420159.09249

  24488588.977 6 128688398.588 6  24488598.688 4  24488598.32845 100276717.14745

  19432181.227 9 103949221.011 9  19432186.773 7  19432187.117 7  80849291.965 7

  23892861.031 5 125557619.510 5                  23892869.32446  97837214.76246

 15  2  1  0  5  0.0000000  0 17G30G06R07R24R22R01G10G12R08G13G05G09
                                G02G07G29R23G20
  24892186.641 5 130809335.060 5  24892201.242 5  24892200.73045 101929401.25145
  24892201.340 7  97682321.191 7
  21464192.688 8 112795054.816 8  21464203.117 8  21464202.45349  87892282.32049
  21464202.605 9  84230103.001 9
  23423329.109 6 125386692.914 6  23423337.055 4  23423336.809 4  97523101.702 4

  20670220.125 8 110532941.218 8  20670223.895 5  20670223.703 5  85970083.136 5

  22410104.609 7 119626539.327 7  22410109.836 5  22410110.660 5  93042910.939 5

  20277976.289 9 108397395.244 9  20277981.934 6  20277983.125 5  84309112.835 5

  20905073.484 9 109857104.651 9                  20905079.91049  85602804.05449

  24922040.125 6 130966075.073 6  24922047.957 3  24922047.93445 102051544.29445

  19872083.563 9 106415076.061 9  19872086.957 7  19872087.223 6  82766534.809 6

  23611712.359 7 124080417.779 7                  23611720.26646  96686069.66846

  21147207.008 9 111129306.164 9  21147213.523 7  21147213.37149  86594288.41449

  23104394.047 7 121414360.116 7  23104403.551 6  23104403.68047  94608639.92847
  23104404.059 9  90666597.003 9
  20366579.156 9 107027065.392 9                  20366582.35949  83397726.76949

  24479077.891 6 128638417.342 6  24479088.355 4  24479087.50445 100237770.69945

  23883180.953 2 125506832.64212  23883188.543 4                  97797663.53714

  19437117.094 9 103975628.243 9  19437122.324 7  19437123.160 7  80869830.883 7

  23909728.695 5 125646255.351 5                  23909736.57046  97906281.46746

 15  2  1  0  5 30.0000000  0 17G30G06R07R24R22R01G10G12R08G13G05G09
                                G02G07G29R23G20
  24878119.414 6 130735405.698 6  24878132.273 5  24878131.50845 101871794.07345
  24878132.531 7  97627114.302 7
  21474354.641 8 112848455.712 8  21474364.785 8  21474364.16049  87933893.35049
  21474364.543 9  84269980.217 9
  23443737.273 6 125495934.130 6  23443744.461 4  23443745.012 4  97608066.839 4

  20653674.078 8 110444456.594 8  20653676.984 6  20653676.605 5  85901261.780 5

  22432668.789 7 119746995.039 7  22432675.793 6  22432676.246 6  93136598.547 6

  20268715.547 9 108347888.979 9  20268721.250 6  20268721.758 6  84270607.965 6

  20916557.109 9 109917450.589 9                  20916563.24249  85649826.81649

  24936514.891 3 131042151.225 3  24936525.000 4  24936524.45745 102110824.31645

  19882710.859 9 106471985.121 9  19882714.367 7  19882714.168 7  82810797.374 7

  23590460.883 7 123968744.153 7                  23590469.26246  96599051.26346

  21139430.063 9 111088437.131 9  21139436.195 7  21139435.73849  86562442.42049

  23120289.047 7 121497884.972 7  23120298.500 7  23120297.71147  94673724.14247
  23120298.676 9  90728969.324 9
  20361158.961 9 106998580.510 9                  20361162.10549  83375530.74349

  24469628.195 6 128588754.129 6  24469636.758 3  24469636.71945 100199072.02245

  23865848.742 3 125415752.76913  23865857.824 4  23865856.79745  97726690.21255

  19442195.453 9 104002793.125 9  19442201.316 7  19442201.680 7  80890959.095 7

  23926597.219 5 125734903.023 5                  23926606.10946  97975357.36846

 15  2  1  0  6  0.0000000  0 17G30G06R07R24R22R01G10G12R08G13G05G09
                                G02G07G29R23G20
  24864066.000 6 130661556.780 6  24864078.844 4  24864077.53945 101814249.54145
  24864079.266 7  97571967.472 7
  21484575.539 8 112902166.027 8  21484585.625 8  21484585.03949  87975745.47649
  21484584.957 9  84310088.487 9
  23464135.719 6 125605128.708 6  23464143.945 4  23464143.039 3  97692995.747 3

  20637218.641 9 110356463.761 9  20637221.988 5  20637221.746 5  85832822.904 5

  22455287.922 7 119867732.589 7  22455294.340 6  22455294.816 6  93230505.297 6

  20259544.648 9 108298866.370 9  20259550.141 6  20259550.934 5  84232479.282 5

  20928086.820 9 109978038.123 9                  20928093.04349  85697037.84749

  24951012.359 5 131118330.571 5  24951021.383 3  24951020.80545 102170184.68745

  19893407.086 9 106529258.294 9  19893409.859 7  19893410.109 7  82855343.134 7

  23569235.305 7 123857199.477 7                  23569242.43046  96512133.39546

  21131710.117 9 111047868.706 9  21131716.242 7  21131715.66449  86530830.65449

  23136248.516 7 121581752.511 7  23136257.438 6  23136257.07848  94739075.36948
  23136257.047 9  90791597.564 9
  20355796.375 9 106970400.720 9                  20355799.31649  83353572.44649

  24460238.695 6 128539411.603 6  24460246.840 3  24460246.40645 100160623.26945

  23848571.648 3 125324965.905 3  23848580.371 4  23848580.46145  97655947.20345

  19447415.219 9 104030715.856 9  19447421.012 7  19447421.594 7  80912676.741 7

  23943469.289 6 125823561.799 6                  23943477.49646  98044441.96046

 15  2  1  0  6 30.0000000  0 17G30G06R07R24R22R01G10G12R08G13G05G09
                                G02G07G29R23G20
  24850027.805 5 130587791.041 5  24850041.750 5  24850041.28545 101756769.79045
  24850041.777 8  97516882.762 8
  21494855.203 8 112956185.615 8  21494864.973 8  21494864.37149  88017838.58249
  21494865.164 9  84350427.704 9
  23484524.516 5 125714274.648 5  23484532.715 3  23484533.066 3  97777886.812 3

  20620855.898 8 110268966.368 8  20620859.449 6  20620859.238 6  85764769.376 6

  22477958.164 7 119988748.545 7  22477964.836 5  22477965.148 5  93324628.623 5

  20250464.211 9 108250327.531 9  20250469.094 6  20250470.465 6  84194726.887 6

  20939661.820 9 110038865.657 9                  20939667.97349  85744435.88049

  24965527.938 3 131194609.317 3  24965536.383 4  24965535.38745 102229622.55245

  19904168.930 9 106586892.688 9  19904172.883 7  19904172.434 7  82900169.852 7

  23548034.289 7 123745786.355 7                  23548041.02746  96425317.99946

  21124047.211 9 111007600.056 9  21124053.313 7  21124053.03149  86499452.48449

  23152272.328 7 121665959.954 7  23152281.660 7  23152281.10947  94804691.45947
  23152281.605 9  90854479.626 9
  20350491.922 9 106942527.299 9                  20350495.35949  83331852.87249

  24450911.289 7 128490392.283 7  24450919.492 4  24450918.45346 100122426.39146

  23831352.742 5 125234474.484 5  23831360.680 4  23831361.32445  97585434.47945

  19452777.047 9 104059396.243 9  19452782.594 7  19452783.207 7  80934983.672 7

  23960342.438 5 125912230.676 5                  23960350.41846  98113534.46046

 15  2  1  0  7  0.0000000  0 17G30G06R07R24R22R01G10G12R08G13G05G09
                                G02G07G29R23G20
  24836006.484 5 130514111.496 5  24836020.250 4  24836020.50045 101699357.25245
  24836021.699 7  97461862.437 7
  21505193.758 9 113010514.335 9  21505203.805 8  21505203.18049  88060172.58449
  21505203.621 9  84390997.762 9
  23504905.391 5 125823370.170 5  23504913.348 3  23504912.641 1  97862738.649 1

  20604586.852 9 110181968.220 9  20604590.039 5  20604590.266 5  85697104.144 5

  22500680.555 7 120110039.986 7  22500686.723 5  22500686.953 5  93418966.291 5

  20241474.844 9 108202271.591 9  20241480.281 5  20241480.547 5  84157350.083 5

  20951282.703 9 110099931.494 9                  20951289.03149  85792019.61449

  24980062.070 6 131270985.290 6  24980071.082 3  24980069.54745 102289136.19345

  19914998.477 9 106644885.534 9  19915002.211 7  19915002.496 6  82945275.355 6

  23526858.188 7 123634507.287 7                  23526865.37946  96338607.08946

  21116441.531 9 110967631.050 9  21116447.594 7  21116447.27749  86468307.82049

  23168361.148 6 121750504.726 6  23168370.371 6  23168370.37547  94870570.36847
  23168370.758 9  90917613.552 9
  20345246.547 9 106914961.965 9                  20345249.96949  83310373.39049

  24441643.813 7 128441698.766 7  24441653.840 5  24441653.50046 100084483.37546

  23814189.266 4 125144280.916 4  23814197.688 3  23814198.28545  97515153.77045

  19458280.250 9 104088833.633 9  19458285.500 7  19458286.094 7  80957879.394 7

  23977217.570 5 126000909.101 5                  23977225.72745  98182634.40645

 15  2  1  0  7 30.0000000  0 17G30G06R07R24R22R01G10G12R08G13G05G09
                                G02G07G29R23G20
  24822003.828 6 130440521.503 6  24822016.563 4  24822015.84845 101642014.45745
  24822017.043 7  97406908.929 7
  21515591.000 8 113065152.636 8  21515601.488 8  21515600.89849  88102747.82249
  21515600.930 9  84431799.026 9
  23525275.195 5 125932413.949 5  23525284.598 3  23525283.984 3  97947550.198 3

  20588411.719 9 110095473.807 9  20588415.773 6  20588415.449 6  85629830.729 6

  22523455.070 7 120231604.442 7  22523459.977 5  22523460.684 5  93513516.165 5

  20232574.938 9 108154699.201 9  20232580.410 6  20232581.609 6  84120349.345 6

  20962948.195 9 110161234.041 9                  20962953.70349  85839787.76749

  24994613.523 5 131347455.493 5  24994622.891 4  24994621.97345 102348723.19245

  19925894.766 9 106703234.441 9  19925898.633 7  19925898.637 7  82990657.792 7

  23505708.406 7 123523365.395 7                  23505715.37546  96252003.03846

  21108892.766 9 110927961.743 9  21108899.422 7  21108899.04749  86437396.61549

  23184513.406 7 121835384.553 7  23184522.480 6  23184522.94947  94936710.39647
  23184522.742 9  90980997.733 9
  20340060.180 9 106887706.528 9                  20340063.16449  83289135.35449

  24432441.313 7 128393333.854 7  24432451.195 5  24432450.59446 100046796.36646

  23797083.352 5 125054388.420 5  23797090.602 1  23797091.10245  97445107.71745

  19463924.883 9 104119028.100 9  19463929.637 7  19463930.129 7  80981363.925 7

  23994094.797 6 126089596.597 6                  23994102.31646  98251741.34246

 15  2  1  0  8  0.0000000  0 17G30G06R07R24R22R01G10G12R08G13G05G09
                                G02G07G29R23G20
  24808017.469 6 130367023.641 6  24808030.594 5  24808030.12945 101584743.38245
  24808030.977 7  97352024.204 7
  21526047.266 9 113120099.935 9  21526057.578 8  21526057.10949  88145563.83849
  21526057.023 9  84472831.028 9
  23545635.523 4 126041403.470 4  23545643.910 3  23545644.820 3  98032319.609 3

  20572332.297 9 110009486.533 9  20572335.238 6  20572335.031 5  85562951.746 5

  22546277.688 7 120353438.214 7  22546283.863 6  22546284.449 5  93608275.546 5

  20223765.781 9 108107609.392 9  20223772.191 6  20223772.086 5  84083723.943 5

  20974658.031 9 110222771.279 9                  20974664.48449  85887738.82249

  25009183.539 5 131424016.219 5  25009189.668 1  25009190.34045 102408380.72345

  19936856.672 9 106761935.760 9  19936860.629 7  19936861.043 7  83036314.321 7

  23484585.938 7 123412362.864 7                  23484592.68046  96165507.57546

  21101400.422 9 110888591.239 9  21101407.297 7  21101407.05149  86406718.30449

  23200728.711 7 121920596.427 7  23200737.855 6  23200737.75047  95003109.16547
  23200738.129 9  91044629.865 9
  20334932.680 9 106860762.523 9                  20334935.92249  83268140.00949

  24423300.102 6 128345299.414 6  24423310.320 5  24423309.93446 100009366.93946

  23780035.438 5 124964799.135 5  23780041.352 1                  97375299.98611

  19469710.836 9 104149978.893 9  19469717.066 7  19469717.441 7  81005436.728 7

  24010972.336 5 126178291.956 5                  24010979.94545  98320854.42645

 15  2  1  0  8 30.0000000  0 17G30G06R07R24R22R01G10G12R08G13G05G09
                                G02G07G29R23G20
  24794049.305 6 130293620.881 6  24794063.695 5  24794063.04745 101527546.46445
  24794062.836 7  97297210.517 7
  21536562.414 9 113175356.247 9  21536572.246 7  21536571.55549  88188620.64349
  21536571.879 9  84514093.790 9
  23565987.703 5 126150336.826 5  23565994.348 3  23565994.277 2  98117045.383 2

  20556347.477 8 109924010.343 8  20556350.777 6  20556350.504 5  85496470.268 5

  22569151.063 7 120475538.340 7  22569158.145 6  22569158.734 5  93703242.109 5

  20215046.906 9 108061002.185 9  20215052.492 6  20215053.832 6  84047473.889 6

  20986412.164 9 110284541.566 9                  20986418.98049  85935871.46249

  25023769.602 6 131500664.463 6  25023778.180 4  25023776.88745 102468106.48045

  19947884.297 9 106820986.856 9  19947887.867 7  19947888.172 7  83082242.921 7

  23463489.664 7 123301502.592 7                  23463496.82046  96079122.96146

  21093965.672 9 110849519.431 9  21093971.328 7  21093971.16049  86376272.72249

  23217006.211 7 122006137.694 7  23217015.738 6  23217015.33247  95069764.60047
  23217016.004 9  91108507.957 9
  20329864.773 9 106834131.392 9                  20329868.04749  83247388.44949

  24414223.500 7 128297598.002 7  24414232.227 5  24414232.44546  99972197.06046

  23763045.602 4 124875515.596 4

  19475637.609 9 104181685.963 9  19475643.324 7  19475643.828 7  81030097.740 7

  24027852.438 5 126266994.646 5                  24027859.55545  98389973.25745

 15  2  1  0  9  0.0000000  0 17G30G06R07R24R22R01G10G12R08G13G05G09
                                G02G07G29R23G20
  24780100.070 6 130220316.128 6  24780113.277 5  24780112.41446 101470425.94746
  24780112.613 7  97242469.929 7
  21547135.945 9 113230921.277 9  21547145.660 8  21547145.50449  88231917.98649
  21547145.711 9  84555587.050 9
  23586324.469 3 126259212.512 3  23586333.215 2  23586333.234 1  98201726.276 1

  20540459.836 8 109839049.236 8  20540462.746 6  20540462.789 6  85430389.415 6

  22592074.375 7 120597901.751 7  22592080.234 5  22592080.617 5  93798413.445 5

  20206417.961 9 108014877.203 9  20206424.645 6  20206425.070 6  84011598.910 6

  20998211.078 9 110346543.382 9                  20998217.76649  85984184.51649

  25038370.352 5 131577396.941 5  25038379.668 3  25038379.24645 102527897.93745

  19958976.148 9 106880384.748 9  19958980.453 7  19958980.113 7  83128441.239 7

  23442420.953 7 123190786.640 7                  23442427.67246  95992850.81846

  21086586.938 9 110810746.060 9  21086593.574 7  21086593.38749  86346059.69249

  23233347.086 7 122092005.773 7  23233356.699 7  23233356.63347  95136674.66747
  23233356.488 9  91172630.078 9
  20324857.039 9 106807814.382 9                  20324860.32849  83226881.66849

  24405209.453 7 128250232.093 7  24405219.410 5  24405218.97346  99935288.52146

  23746114.516 3 124786540.257 3

  19481706.703 9 104214148.202 9  19481711.973 7  19481712.500 7  81055346.118 7

  24044732.359 5 126355703.748 5                  24044740.95745  98459097.02245

 15  2  1  0  9 30.0000000  0 17G30G06R07R24R22R01G10G12R08G13G05G09
                                G02G07G29R23G20
  24766170.453 5 130147112.387 5  24766183.656 5  24766182.62146 101413384.08946
  24766183.230 7  97187804.847 7
  21557768.813 9 113286795.064 9  21557778.707 8  21557778.07449  88275455.93349
  21557778.813 9  84597310.912 9
  23606654.141 5 126368028.478 5  23606659.234 2  23606659.426 1  98286360.627 1

  20524667.578 9 109754606.842 9  20524671.887 6  20524671.164 6  85364712.010 6

  22615045.203 7 120720525.171 7  22615052.250 5  22615051.898 5  93893787.015 5

  20197879.766 9 107969234.110 9  20197885.469 6  20197886.406 6  83976098.745 6

  21010053.750 9 110408774.926 9                  21010059.72749  86032676.57749

  25052986.852 3 131654210.347 3  25052995.098 3  25052994.97745 102587752.37045

  19970132.945 9 106940126.529 9  19970136.719 7  19970136.770 7  83174907.043 7

  23421380.680 7 123080217.753 7                  23421387.36746  95906693.29646

  21079265.539 9 110772271.432 9  21079272.203 7  21079272.00849  86316079.47749

  23249749.000 7 122178197.933 7  23249757.816 7  23249757.98447  95203837.27347
  23249757.719 9  91236994.222 9
  20319909.328 9 106781813.125 9                  20319912.46549  83206620.92049

  24396259.578 6 128203204.225 6  24396270.359 5  24396269.93846  99898643.41946

  23729243.297 1

  19487915.992 9 104247365.772 9  19487921.750 7  19487922.574 7  81081181.962 7

  24061615.109 5 126444418.367 5                  24061623.69945  98528225.11645

 15  2  1  0 10  0.0000000  0 16G30G06R07R24R22R01G10G12R08G13G05G09
                                G02G07R23G20
  24752259.508 6 130074012.738 6  24752272.723 5  24752271.99645 101356423.36545
  24752272.078 7  97133217.484 7
  21568459.695 9 113342977.586 9  21568469.660 8  21568469.27749  88319234.44349
  21568469.602 9  84639265.301 9
  23626968.492 3 126476782.901 3  23626977.777 3  23626977.883 3  98370947.180 3

  20508974.945 9 109670687.186 9  20508978.047 6  20508977.824 5  85299441.169 5

  22638067.164 7 120843405.831 7  22638071.660 6  22638072.789 5  93989360.648 5

  20189432.180 9 107924072.578 9  20189438.039 6  20189438.676 5  83940973.086 5

  21021939.445 9 110471234.795 9                  21021945.41849  86081346.56149

  25067619.578 4 131731102.462 4  25067629.938 4  25067628.95345 102647668.24545

  19981353.258 9 107000209.514 9  19981357.563 7  19981357.711 7  83221638.209 7

  23400368.234 7 122969798.995 7                  23400375.54346  95820652.72846

  21072000.844 9 110734094.544 9  21072007.262 7  21072007.30149  86286331.26249

  23266212.172 7 122264711.644 7  23266220.871 6  23266221.05147  95271250.45647
  23266221.195 9  91301598.492 9
  20315021.656 9 106756129.673 9                  20315025.36349  83186607.82549

  24387376.344 6 128156516.876 6  24387386.016 4  24387385.07446  99862263.65946

  19494267.125 9 104281337.928 9  19494272.758 7  19494272.984 7  81107604.705 7

  24078499.070 5 126533138.049 5                  24078505.78145  98597357.15045

 15  2  1  0 10 30.0000000  0 16G30G06R07R24R22R01G10G12R08G13G05G09
                                G02G07R23G20
  24738369.453 5 130001020.315 5  24738382.660 6  24738382.16045 101299546.18345
  24738382.945 8  97078710.129 8
  21579210.141 9 113399468.869 9  21579219.879 8  21579219.20749  88363253.54949
  21579219.477 9  84681450.259 9
  23647275.430 4 126585474.669 4  23647283.477 3  23647283.813 2  98455484.991 2

  20493379.820 9 109587294.495 9  20493383.090 6  20493383.328 5  85234580.180 5

  22661133.258 7 120966540.649 7  22661139.566 6  22661140.223 6  94085131.961 6

  20181073.625 9 107879392.560 9  20181078.781 6  20181079.395 6  83906221.940 6

  21033868.031 9 110533921.350 9                  21033874.97349  86130193.18649

  25082266.664 6 131808069.838 6  25082275.000 3  25082274.78145 102707642.67345

  19992636.789 9 107060630.978 9  19992640.012 7  19992640.164 7  83268632.628 7

  23379384.563 7 122859532.857 7                  23379392.75046  95734731.09446

  21064792.617 9 110696215.513 9  21064799.148 7  21064799.00049  86256815.12849

  23282735.695 6 122351544.496 6  23282745.539 7  23282745.50447  95338912.29847
  23282745.477 8  91366441.078 8
  20310195.320 9 106730765.586 9                  20310198.26649  83166843.58349

  24378556.094 6 128110172.545 6  24378566.855 5  24378566.07845  99826151.19545

  19500758.766 9 104316064.468 9  19500763.715 7  19500764.730 7  81134614.205 7

  24095381.016 5 126621862.106 5                  24095389.36345  98666492.56345

 15  2  1  0 11  0.0000000  0 17G30G06R07R24R22R01G10G12R08G13G05G09
                                G02G07R23G20R02
  24724500.125 6 129928138.018 6  24724513.469 5  24724512.59445 101242754.78645
  24724514.145 7  97024285.097 7
  21590018.438 8 113456268.745 8  21590028.699 8  21590028.04349  88407513.11749
  21590028.074 9  84723865.657 9
  23667565.211 3 126694101.443 3  23667574.090 1  23667574.516 1  98539972.250 1

  20477883.906 8 109504432.724 8  20477887.930 6  20477887.203 5  85170132.146 5

  22684247.617 7 121089926.515 7  22684253.938 5  22684254.195 5  94181098.507 5

  20172804.586 9 107835193.738 9  20172810.117 6  20172810.922 5  83871845.064 5

  21045839.859 8 110596832.912 8                  21045846.38749  86179215.12949

  25096925.914 5 131885108.778 5  25096934.336 3  25096934.36745 102767672.91045

  20003982.344 9 107121387.857 9  20003986.285 7  20003986.090 7  83315887.933 7

  23358431.695 7 122749421.969 7                  23358439.52746  95648930.45346

  21057641.070 8 110658633.857 8  21057647.277 7  21057646.77049  86227530.72949

  23299320.656 7 122438693.746 7  23299329.918 6  23299329.88747  95406820.67647
  23299329.855 8  91431519.940 8
  20305429.945 9 106705722.301 9                  20305432.95349  83147329.31549

  24369803.125 6 128064173.920 6  24369813.289 4  24369812.20346  99790308.10646

  19507391.484 9 104351544.663 9  19507397.105 7  19507397.797 7  81162209.877 7

  24112266.211 4 126710589.801 4                  24112274.58245  98735630.83345

  24078341.953 5 128486652.07415  24078347.938 1  24078349.023 1  99934088.51311

 15  2  1  0 11 30.0000000  0 17G30G06R24R22R01G10G12R08G13G05G09G02
                                G07G29R23G20R02
  24710653.375 6 129855368.967 6  24710665.496 5  24710665.01245 101186051.64245
  24710666.387 7  96969944.590 7
  21600885.711 9 113513377.186 9  21600895.676 8  21600895.07449  88452013.12349
  21600895.461 9  84766511.488 9
  20462488.844 8 109422105.376 8  20462492.797 5  20462491.770 6  85106099.757 6

  22707408.898 7 121213560.432 7  22707414.566 5  22707415.406 5  94277258.014 5

  20164627.031 9 107791475.478 9  20164632.172 6  20164632.633 6  83837841.955 6

  21057854.391 9 110659967.897 9                  21057860.29349  86228411.17949

  25111599.539 5 131962217.131 5  25111609.137 4  25111607.59045 102827757.22945

  20015390.297 9 107182477.402 9  20015394.176 7  20015393.988 7  83363401.981 7

  23337508.695 7 122639469.223 7                  23337515.58246  95563253.03446

  21050545.953 8 110621349.540 8  21050552.434 7  21050552.34049  86198478.00749

  23315963.977 6 122526156.829 6  23315972.934 6  23315972.70747  95474973.62447
  23315973.555 9  91496833.153 9
  20300725.414 9 106681001.342 9                  20300728.85949  83128066.19949

  24361116.063 7 128018523.393 7  24361126.348 5  24361126.01646  99754736.18146

  23662356.859 2 124346381.13712

  19514164.891 9 104387777.976 9  19514170.336 7  19514170.918 7  81190391.305 7

  24129150.844 5 126799320.613 5                  24129159.93846  98804771.49746

  24059469.406 5 128385946.928 5  24059476.879 2  24059477.391 1  99855762.353 1

 15  2  1  0 12  0.0000000  0 18G30G06R07R24R22R01G10G12R08G13G05G09
                                G02G07G29R23G20R02
  24696827.609 6 129782716.079 6  24696840.180 5  24696839.18046 101129438.96746
  24696840.844 8  96915690.808 8
  21611811.977 8 113570793.967 8  21611822.223 8  21611821.71549  88496753.42649
  21611821.805 9  84809387.596 9
  23708115.352 3 126911154.33413  23708123.527 1  23708123.480 1  98708790.64611

  20447193.516 9 109340316.651 9  20447196.785 6  20447196.656 6  85042486.309 6

  22730615.313 7 121337439.183 7  22730622.313 5  22730622.328 5  94373607.974 5

  20156538.797 9 107748237.903 9  20156543.840 6  20156545.102 6  83804212.716 6

  21069910.500 9 110723324.541 9                  21069916.48449  86277779.94149

  25126285.523 5 132039391.511 5  25126295.512 5  25126294.90245 102887892.97145

  20026860.000 9 107243896.774 9  20026864.371 7  20026864.102 7  83411172.560 7

  23316615.797 7 122529676.887 7                  23316623.22347  95477700.61547

  21043507.945 9 110584361.964 9  21043514.281 8  21043514.23449  86169656.53749

  23332666.836 6 122613931.014 6  23332675.605 6  23332675.80947  95543368.98447
  23332675.430 9  91562378.669 9
  20296082.938 9 106656604.133 9                  20296086.28949  83109055.36749

  24352496.625 7 127973222.890 7  24352506.012 5  24352505.06346  99719437.11046

  23645787.352 3 124259312.43613  23645794.371 2                  96825561.28212

  19521079.297 9 104424763.430 9  19521085.027 7  19521085.168 7  81219157.731 7

  24146035.992 5 126888053.565 5                  24146045.19145  98873913.87345

  24040635.297 5 128285443.033 5  24040642.781 1  24040642.578 1  99777592.718 1

 15  2  1  0 12 30.0000000  0 17G30G06R07R24R22R01G10G12R08G13G05G09
                                G02G07R23G20R02
  24683025.336 6 129710182.332 6  24683038.438 5  24683036.87546 101072919.19946
  24683038.250 7  96861526.014 7
  21622797.008 8 113628519.044 8  21622806.691 8  21622806.13349  88541733.95049
  21622806.340 9  84852493.927 9
  23728369.414 3 127019576.329 3  23728376.266 1  23728376.809 1  98793118.626 1

  20432000.219 9 109259070.392 9  20432004.230 6  20432003.789 6  84979294.774 6

  22753867.031 6 121461559.712 6  22753875.082 5  22753875.266 5  94470145.930 5

  20148540.234 9 107705480.405 9  20148545.141 6  20148545.805 6  83770956.863 6

  21082008.961 9 110786901.640 9                  21082015.32449  86327320.48349

  25140984.102 5 132116628.841 5  25140992.859 3  25140992.42645 102948077.77345

  20038391.266 9 107305643.094 9  20038394.719 7  20038394.492 7  83459197.426 7

  23295753.422 7 122420047.714 7                  23295761.27746  95392275.31546

  21036525.320 8 110547671.300 8  21036532.590 7  21036532.48849  86141066.40849

  23349428.164 7 122702013.814 7  23349437.199 6  23349437.66847  95612004.80147
  23349437.695 9  91628154.621 9
  20291502.148 9 106632532.522 9                  20291505.48849  83090298.24549

  24343943.297 7 127928275.275 7  24343952.539 5  24343952.19146  99684412.96146

  19528133.891 9 104462500.752 9  19528138.813 7  19528139.438 7  81248508.937 7

  24162922.266 5 126976787.901 5                  24162930.45745  98943057.35345

  24021839.156 6 128185142.193 6  24021845.227 1  24021845.617 1  99699581.011 1

 15  2  1  0 13  0.0000000  0 18G30G06R07R24R22R01G10G12R08G13G05G09
                                G02G07G29R23G20R02
  24669246.672 7 129637770.716 7  24669259.086 5  24669257.97746 101016494.57146
  24669258.648 7  96807452.445 7
  21633840.383 8 113686552.068 8  21633850.469 8  21633849.91049  88586954.42049
  21633850.176 9  84895830.191 9
  23748610.375 2 127127926.977 2  23748617.492 1  23748618.270 1  98877391.120 1

  20416908.922 9 109178370.361 9  20416913.082 6  20416912.352 5  84916528.094 5

  22777165.117 6 121585918.853 6  22777171.297 5  22777172.020 5  94566869.438 5

  20140631.430 9 107663202.197 9  20140636.445 6  20140636.910 5  83738073.817 5

  21094149.008 9 110850697.263 9                  21094155.10949  86377031.30849

  25155691.773 4 132193925.889 4  25155702.648 3  25155702.37945 103008309.08745

  20049981.703 9 107367713.591 9  20049985.887 7  20049986.121 7  83507474.450 7

  23274923.695 7 122310584.133 7                  23274931.70346  95306979.07346

  21029600.266 9 110511277.088 9  21029606.680 7  21029606.74649  86112707.29249

  23366247.992 6 122790402.376 6  23366257.109 6  23366257.32447  95680878.88247
  23366257.234 9  91694158.916 9
  20286983.695 9 106608788.214 9                  20286986.82449  83071796.17049

  24335457.203 7 127883682.404 7  24335467.148 4  24335466.16846  99649665.26046

  23612837.258 2 124086161.23512

  19535328.984 9 104500988.960 9  19535334.172 7  19535335.109 7  81278444.172 7

  24179808.828 5 127065523.409 5                  24179817.33245  99012201.68045

  24003081.328 6 128085044.665 6  24003087.742 3  24003088.484 2  99621727.421 2

 15  2  1  0 13 30.0000000  0 18G30G06R07R24R22R01G10G12R08G13G05G09
                                G02G07G29R23G20R02
  24655489.414 6 129565484.556 6  24655502.531 5  24655502.18445 100960167.66345
  24655502.563 7  96753472.552 7
  21644941.945 8 113744893.377 8  21644952.113 8  21644951.99649  88632415.10749
  21644951.969 9  84939396.667 9
  23768838.508 4 127236204.369 4  23768848.922 1  23768847.820 1  98961606.692 1

  20401920.680 9 109098220.871 9  20401923.105 6  20401923.309 6  84854189.595 6

  22800505.938 6 121710513.881 6  22800511.852 3  22800512.816 3  94663776.475 3

  20132811.430 9 107621403.575 9  20132817.574 6  20132818.414 6  83705563.778 6

  21106330.367 9 110914710.363 9                  21106336.91849  86426911.58649

  25170413.031 5 132271279.729 5  25170422.574 3  25170422.21545 103068584.71445

  20061633.281 9 107430105.760 9  20061637.070 7  20061637.238 7  83556001.646 7

  23254125.773 7 122201289.195 7                  23254132.92247  95221814.22447

  21022731.008 8 110475179.313 8  21022736.770 7  21022736.96949  86084579.16349

  23383126.180 7 122879094.527 7  23383135.695 6  23383135.64147  95749989.50747
  23383136.082 9  91760389.897 9
  20282528.211 9 106585373.036 9                  20282531.38349  83053550.55649

  24327038.969 6 127839447.294 6  24327049.547 5  24327049.38746  99615196.32546

  23596456.680 3 124000081.19813  23596463.316 2  23596462.68045  96623565.62355

  19542663.969 9 104540227.652 9  19542669.531 7  19542669.992 7  81308963.116 7

  24196694.922 6 127154259.384 6                  24196703.64145  99081346.40245

  23984360.945 5 127985152.639 5  23984369.664 3  23984368.500 3  99544033.707 3

 15  2  1  0 14  0.0000000  0 17G30G06R24R22R01G10G12R08G13G05G09G02
                                G07G29R23G20R02
  24641758.406 5 129493326.637 5  24641772.516 5  24641771.15245 100903940.73145
  24641771.234 7  96699588.395 7
  21656102.789 9 113803542.531 9  21656112.438 7  21656112.10949  88678115.68049
  21656112.082 9  84983193.038 9
  20387034.922 9 109018625.220 9  20387039.582 6  20387039.180 6  84792281.872 6

  22823889.477 3 121835341.209 3  22823895.840 4  22823897.938 3  94760864.229 3

  20125081.297 9 107580083.439 9  20125086.867 6  20125087.887 5  83673425.873 5

  21118552.477 8 110978939.157 8                  21118558.96949  86476959.94449

  25185142.742 5 132348686.978 5  25185151.352 3  25185151.61345 103128901.91045

  20073344.039 9 107492816.501 9  20073348.137 7  20073347.738 7  83604776.636 7

  23233359.703 7 122092165.337 7                  23233367.66846  95136782.69546

  21015917.930 9 110439377.286 9  21015923.879 7  21015923.94149  86056681.49749

  23400060.781 6 122968087.370 6  23400070.301 6  23400070.27047  95819334.43747
  23400070.590 9  91826845.420 9
  20278135.383 9 106562288.343 9                  20278138.40649  83035562.46649

  24318691.117 7 127795572.319 7  24318700.281 5  24318699.51246  99581008.04246

  23580139.375 4 123914336.258 4  23580145.805 3  23580146.30144  96556751.31244

  19550139.094 9 104580215.900 9  19550144.695 7  19550145.238 7  81340065.052 7

  24213580.430 5 127242994.859 5                  24213589.19945  99150490.73045

  23965680.414 5 127885466.723 5  23965686.344 3  23965687.109 3  99466500.263 3

 15  2  1  0 14 30.0000000  0 18G30G06R07R24R22R01G10G12R08G13G05G09
                                G02G07G29R23G20R02
  24628052.352 6 129421300.013 6  24628066.309 5  24628065.36745 100847816.13745
  24628065.156 7  96645802.269 7
  21667321.945 8 113862499.373 8  21667332.016 8  21667331.15649  88724056.01449
  21667331.832 9  85027219.171 9
  23809249.523 3 127452533.41313  23809258.617 1  23809258.926 1  99129862.12611

  20372255.695 9 108939587.335 9  20372259.637 6  20372259.055 5  84730807.949 5

  22847318.281 5 121960397.987 5  22847323.527 3  22847324.762 3  94858130.250 3

  20117441.781 9 107539241.667 9  20117447.129 6  20117447.969 5  83641660.040 5

  21130815.563 9 111043381.948 9                  21130822.17649  86527175.05049

  25199882.883 5 132426145.206 5  25199891.500 2  25199892.11345 103189258.81245

  20085113.766 9 107555842.980 9  20085118.125 7  20085117.996 7  83653797.179 7

  23212627.281 7 121983215.214 7                  23212635.39547  95051886.54347

  21009161.086 9 110403870.629 9  21009167.625 7  21009167.64849  86029013.97149

  23417051.969 7 123057378.251 7  23417061.832 6  23417062.17247  95888911.59847
  23417061.734 9  91893523.516 9
  20273805.539 9 106539535.444 9                  20273808.51249  83017832.91649

  24310410.625 7 127752059.651 7  24310420.105 5  24310420.09846  99547102.03046

  23563884.492 2 123828928.688 2  23563893.906 4  23563894.33245  96490199.98645

  19557754.773 9 104620952.753 9  19557760.852 7  19557760.922 7  81371749.225 7

  24230466.242 6 127331729.391 6                  24230474.46145  99219634.32645

  23947035.953 5 127785987.884 5  23947045.258 3  23947044.520 2  99389127.890 2

 15  2  1  0 15  0.0000000  0 18G30G06R07R24R22R01G10G12R08G13G05G09
                                G02G07G29R23G20R02
  24614372.305 6 129349407.800 6  24614385.215 5  24614384.69546 100791796.25746
  24614384.191 7  96592116.499 7
  21678599.938 9 113921763.884 9  21678610.164 8  21678609.65649  88770236.07449
  21678610.039 9  85071475.044 9
  23829434.086 1 127560581.864 1  23829441.875 1  23829442.883 1  99213899.545 1

  20357579.836 9 108861111.216 9  20357583.602 6  20357583.516 6  84669770.985 6

  22870787.742 5 122085681.156 5  22870794.930 5  22870795.156 4  94955572.456 4

  20109890.008 9 107498877.826 9  20109895.805 6  20109896.527 6  83610265.947 6

  21143119.016 9 111108037.417 9                  21143125.72349  86577555.89049

  25214631.586 3 132503651.550 3  25214641.254 3  25214641.33245 103249653.21655

  20096942.141 9 107619182.442 9  20096945.215 7  20096945.582 7  83703061.166 7

  23191928.500 7 121874441.434 7                  23191935.73047  94967127.81647

  21002460.703 9 110368659.440 9  21002467.313 8  21002467.22749  86001576.70949

  23434100.148 7 123146964.713 7  23434110.027 6  23434109.57847  95958719.10647
  23434109.840 8  91960422.339 8
  20269539.094 9 106517116.265 9                  20269542.70749  83000363.39849

  24302199.547 6 127708911.650 6  24302209.156 5  24302209.05946  99513480.26246

  23547698.664 3 123743860.95213  23547705.965 5  23547705.66845  96423913.35755

  19565509.859 9 104662437.754 9  19565515.285 7  19565515.938 7  81404015.298 7

  24247352.453 6 127420462.339 6                  24247360.97346  99288776.72946

  23928433.781 6 127686717.307 6  23928440.613 4  23928442.508 3  99311917.465 3

 15  2  1  0 15 30.0000000  0 17G30G06R24R22R01G10G12R08G13G05G09G02
                                G07G29R23G20R02
  24600717.734 7 129277652.710 7  24600731.309 5  24600730.47746 100735883.21046
  24600730.441 7  96538533.155 7
  21689935.797 9 113981335.600 9  21689946.270 7  21689945.44949  88816655.52349
  21689945.715 9  85115960.340 9
  20343009.875 9 108783200.475 9  20343013.543 6  20343013.227 6  84609173.739 6

  22894299.961 6 122211187.173 6  22894306.082 4  22894306.844 3  95053188.001 3

  20102428.773 9 107458991.392 9  20102434.395 6  20102435.215 6  83579243.170 6

  21155462.680 9 111172903.243 9                  21155469.14549  86628100.62749

  25229390.789 5 132581202.265 5  25229399.566 4  25229398.90245 103310082.27645

  20108828.789 9 107682831.987 9  20108832.449 7  20108832.609 7  83752566.321 7

  23171263.398 7 121765846.499 7                  23171271.00847  94882508.42747

  20995816.156 9 110333743.141 9  20995822.840 7  20995822.43449  85974369.21249

  23451204.047 7 123236843.874 7  23451213.559 6  23451213.38747  96028754.64747
  23451213.008 8  92027539.710 8
  20265336.883 9 106495031.791 9                  20265339.94549  82983154.70449

  24294059.273 7 127666130.773 7  24294068.203 5  24294067.46546  99480144.50846

  23531576.836 4 123659135.758 4  23531583.852 4  23531584.19945  96357893.75445

  19573404.789 9 104704669.237 9  19573411.039 7  19573411.211 7  81436861.970 7

  24264236.977 5 127509192.849 5                  24264245.62946  99357917.18946

  23909870.688 6 127587656.271 6  23909877.688 3  23909876.938 1  99234869.984 1

 15  2  1  0 16  0.0000000  0 17G30G06R24R22R01G10G12R08G13G05G09G02
                                G07G29R23G20R02
  24587090.094 7 129206038.001 7  24587102.461 5  24587101.52346 100680079.51846
  24587102.367 8  96485054.619 8
  21701330.242 9 114041214.531 9  21701340.805 8  21701340.42249  88863314.35649
  21701340.691 9  85160675.037 9
  20328547.438 9 108705858.903 9  20328550.242 6  20328549.734 6  84549019.178 6

  22917851.172 5 122336913.330 5  22917858.195 2  22917859.090 1  95150974.782 1

  20095056.789 9 107419582.033 9  20095062.453 6  20095062.734 5  83548591.441 5

  21167845.953 9 111237978.337 9                  21167852.79749  86678808.43649

  25244154.813 4 132658794.821 4  25244164.855 4  25244164.81645 103370543.87645

  20120771.781 9 107746788.809 9  20120775.699 7  20120775.934 7  83802310.466 7

  23150632.867 7 121657433.188 7                  23150640.85947  94798030.56047

  20989228.047 9 110299121.289 9  20989234.594 8  20989234.32849  85947391.13749

  23468362.711 7 123327013.182 7  23468372.461 6  23468372.78147  96099016.28347
  23468372.285 8  92094873.758 8
  20261198.359 9 106473284.023 9                  20261201.57849  82966208.38649

  24285987.781 7 127623718.701 7  24285998.547 5  24285998.46146  99447096.16346

  23515518.375 4 123574755.728 4  23515526.715 5  23515526.93045  96292143.07545

  19581439.180 9 104747646.789 9  19581444.867 7  19581445.168 7  81470288.916 7

  24281121.273 6 127597920.460 6                  24281130.07046  99427055.44546

  23891345.461 6 127488805.744 6  23891353.531 5  23891354.586 4  99157986.144 4

 15  2  1  0 16 30.0000000  0 17G30G06R24R22R01G10G12R08G13G05G09G02
                                G07G29R23G20R02
  24573489.328 6 129134566.778 6  24573501.285 5  24573501.09845 100624387.67345
  24573501.418 7  96431683.310 7
  21712783.758 9 114101400.584 9  21712793.973 7  21712793.35949  88910212.49949
  21712793.629 9  85205619.071 9
  20314190.625 9 108629090.565 9  20314193.934 6  20314194.246 6  84489310.464 6

  22941445.828 4 122462856.389 4  22941451.441 1  22941452.566 1  95248930.266 1

  20087772.633 9 107380649.070 9  20087778.586 6  20087779.227 6  83518310.269 6

  21180269.055 9 111303261.488 9                  21180276.07049  86729678.38049

  25258928.758 5 132736425.728 5  25258937.168 4  25258936.91845 103431035.32345

  20132772.406 9 107811050.481 9  20132776.207 7  20132776.336 6  83852291.714 6

  23130037.406 7 121549204.264 7                  23130045.59846  94713696.38246

  20982695.734 9 110264793.792 9  20982701.879 7  20982701.64849  85920642.44749

  23485576.406 7 123417470.209 7  23485585.500 6  23485585.50047  96169502.13847
  23485585.293 8  92162422.659 8
  20257124.227 9 106451874.920 9                  20257127.27049  82949525.94349

  24277988.195 7 127581678.423 7  24277998.215 5  24277997.85546  99414337.52146

  23499528.367 5 123490723.640 5  23499535.805 4  23499536.21545  96226663.51145

  19589611.813 9 104791369.121 9  19589617.637 7  19589618.477 7  81504295.132 7

  24298004.563 5 127686644.831 5                  24298014.79346  99496191.13446

  23872860.320 6 127390166.832 6  23872867.594 2  23872867.027 1  99081267.018 1

 15  2  1  0 17  0.0000000  0 17G30G06R24R22R01G10G12R08G13G05G09G02
                                G07G29R23G20R02
  24559916.500 5 129063241.823 5  24559928.797 3  24559927.66845 100568809.72745
  24559929.219 8  96378421.201 8
  21724295.047 9 114161893.401 9  21724305.191 8  21724304.75849  88957349.66449
  21724304.969 9  85250792.182 9
  20299942.547 9 108552899.041 9  20299946.270 6  20299945.652 6  84430050.389 6

  22965079.703 5 122589012.819 5  22965086.285 1                  95347057.66011

  20080578.805 9 107342191.742 9  20080584.969 6  20080585.383 6  83488398.998 6

  21192731.492 9 111368750.673 9                  21192738.35949  86780708.84549

  25273707.242 5 132814092.390 5  25273717.340 5  25273717.28945 103491554.57545

  20144829.758 9 107875613.770 9  20144832.824 7  20144833.227 7  83902507.560 7

  23109478.102 7 121441162.127 7                  23109485.14847  94629507.73347

  20976219.453 9 110230760.135 9  20976225.711 8  20976225.59449  85894122.71749

  23502843.500 7 123508212.100 7  23502853.336 6  23502853.03947  96240209.95647
  23502853.246 8  92230184.298 8
  20253114.773 9 106430805.397 9                  20253118.05549  82933108.11749

  24270059.219 7 127540012.236 7  24270068.598 5  24270068.15246  99381870.38346

  23483603.289 5 123407041.724 5  23483611.336 5  23483610.39546  96161456.82346

  19597925.320 9 104835835.600 9  19597930.535 7  19597931.234 7  81538880.127 7

  24314887.656 5 127775364.930 5                  24314897.09845  99565323.49845

  23854414.867 5 127291740.552 5  23854424.734 4  23854424.258 3  99004713.236 3

 15  2  1  0 17 30.0000000  0 16G30G06R24R22R01G10R08G13G05G09G02G07
                                G29R23G20R02
  24546372.680 6 128992066.276 6  24546384.832 5  24546383.72345 100513348.32045
  24546384.449 7  96325270.700 7
  21735864.484 9 114222692.907 9  21735874.926 7  21735874.68449  89004725.82549
  21735874.891 9  85296194.305 9
  20285803.500 9 108477288.218 9  20285806.824 5  20285805.641 5  84371241.982 5

  22988752.742 4 122715380.109 4  22988761.781 1  22988760.914 1  95445431.98111

  20073472.961 9 107304209.679 9  20073479.434 5  20073480.305 5  83458857.406 5

  21205232.883 9 111434444.720 9                  21205239.28949  86831898.96149

  20156941.805 9 107940476.417 9  20156946.605 7  20156945.887 6  83952956.234 6

  23088954.383 7 121333309.839 7                  23088961.69547  94545467.04847

  20969798.883 9 110197020.605 9  20969805.613 7  20969805.21549  85867832.19249

  23520165.047 6 123599236.469 6  23520174.742 6  23520174.66447  96311137.86647
  23520175.102 8  92298156.854 8
  20249170.445 9 106410077.342 9                  20249173.50449  82916956.36949

  24262201.359 7 127498722.302 7  24262212.113 5  24262212.28546  99349696.43146

  23467747.852 5 123323713.025 5  23467754.754 5  23467754.98046  96096525.36846

  19606376.266 9 104881044.900 9  19606382.621 7  19606383.301 7  81574042.871 7

  24331769.922 5 127864080.435 5                  24331778.35245  99634452.26545

  23836012.219 6 127193528.116 6  23836017.063 3  23836016.820 2  98928325.809 2

 15  2  1  0 18  0.0000000  0 16G30G06R24R22R01G10R08G13G05G09G02G07
                                G29R23G20R02
  24532855.914 6 128921043.378 6  24532869.973 6  24532869.66046 100458005.81846
  24532869.453 7  96272234.167 7
  21747492.977 9 114283799.037 9  21747503.039 8  21747502.46949  89052340.91649
  21747502.793 9  85341825.419 9
  20271772.359 9 108402262.168 9  20271776.484 6  20271776.305 6  84312888.387 6

  23012465.547 6 122841955.191 6  23012470.301 1  23012471.309 1  95543879.004 1

  20066457.406 9 107266702.561 9  20066463.527 6  20066464.266 6  83429685.186 6

  21217772.820 9 111500342.171 9                  21217779.41449  86883247.57849

  20169109.641 9 108005635.311 9  20169113.762 7  20169113.746 7  84003635.345 7

  23068467.273 7 121225650.119 7                  23068474.72747  94461576.40547

  20963434.344 9 110163574.484 9  20963440.770 8  20963440.50049  85841770.28449

  23537539.086 7 123690540.689 7  23537549.707 6  23537549.47747  96382283.86747
  23537550.445 8  92366338.392 8
  20245291.516 9 106389692.382 9                  20245294.99649  82901071.96849

  24254416.984 7 127457811.190 7  24254426.488 5  24254426.53946  99317817.67646

  23451958.250 5 123240739.626 5  23451966.340 5  23451966.20346  96031870.78046

  19614966.766 9 104926996.404 9  19614972.758 7  19614973.258 7  81609782.879 7

  24348650.398 5 127952790.816 5                  24348660.52045  99703577.02445

  23817646.383 6 127095530.618 6  23817654.402 4  23817654.402 4  98852105.534 4

 15  2  1  0 18 30.0000000  0 16G30G06R24R22R01G10R08G13G05G09G02G07
                                G29R23G20R02
  24519371.094 6 128850175.917 6  24519384.844 5  24519384.26646 100402784.50246
  24519383.762 7  96219313.687 7
  21759179.344 8 114345211.327 8  21759189.488 7  21759189.31649  89100194.55449
  21759189.289 9  85387685.142 9
  20257852.570 9 108327824.220 9  20257856.234 6  20257855.766 5  84254992.197 5

  23036214.258 4 122968734.489 4  23036220.484 1  23036220.910 1  95642484.890 1

  20059528.727 9 107229669.491 9  20059534.898 5  20059535.465 5  83400881.692 5

  21230350.891 9 111566441.281 9                  21230357.65249  86934753.31749

  20181332.766 9 108071087.711 9  20181336.414 7  20181336.230 6  84054542.725 6

  23048016.445 7 121118184.608 7                  23048024.87947  94377837.10347

  20957125.445 9 110130421.462 9  20957131.898 7  20957131.71149  85815936.77849

  23554966.992 7 123782121.910 7  23554977.309 6  23554977.34447  96453645.71347
  23554977.195 8  92434726.784 8
  20241477.859 9 106369651.916 9                  20241481.32049  82885455.99349

  24246704.078 7 127417280.625 7  24246713.293 5  24246713.80146  99286235.38746

  23436235.633 3 123158124.863 3  23436245.063 5  23436244.27745  95967495.63545

  19623695.070 9 104973688.506 9  19623700.836 7  19623701.438 7  81646098.910 7

  24365531.336 6 128041494.922 6                  24365540.63745  99772696.91045

  23799320.523 7 126997748.786 7  23799329.617 3  23799329.148 2  98776053.041 2

 15  2  1  0 19  0.0000000  0 16G30G06R24R22R01G10R08G13G05G09G02G07
                                G29R23G20R02
  24505916.109 7 128779466.667 7  24505929.352 6  24505928.69146 100347686.41546
  24505928.070 7  96166511.302 7
  21770924.008 8 114406929.278 8  21770934.652 7  21770934.05549  89148286.38149
  21770934.500 9  85433773.117 9
  20244042.555 9 108253977.658 9  20244046.113 6  20244046.234 6  84197555.981 6

  23060001.648 4 123095714.589 4  23060008.531 1  23060009.777 1  95741246.991 1

  20052689.977 9 107193109.408 9  20052696.371 6  20052696.289 6  83372446.074 6

  21242967.250 9 111632740.244 9                  21242973.92249  86986414.78749

  20193609.625 9 108136830.476 9  20193613.906 7  20193613.871 7  84105675.934 7

  23027603.992 7 121010916.135 7                  23027612.06647  94294251.32347

  20950871.875 9 110097560.741 9  20950878.816 8  20950878.75049  85790331.01449

  23572447.180 7 123873977.357 7  23572456.488 6  23572456.27047  96525221.23047
  23572456.766 8  92503319.959 8
  20237730.328 9 106349957.387 9                  20237733.72349  82870109.57849

  24239064.656 7 127377132.745 7  24239074.328 5  24239074.18446  99254951.36046

  23420584.453 3 123075870.44313  23420592.090 6  23420591.97345  95903401.37155

  19632562.023 9 105021119.596 9  19632567.523 7  19632568.195 7  81682989.715 7

  24382410.008 5 128130192.460 5                  24382419.09045  99841811.66645

  23781038.391 6 126900183.577 6  23781044.621 2  23781044.578 2  98700169.028 2

 15  2  1  0 19 30.0000000  0 16G30G06R24R22R01G10R08G13G05G09G02G07
                                G29R23G20R02
  24492490.977 6 128708918.643 6  24492505.098 6  24492504.05946 100292713.99546
  24492504.141 7  96113829.348 7
  21782726.492 9 114468952.768 9  21782737.270 7  21782737.02349  89196616.28749
  21782737.113 9  85480089.263 9
  20230345.031 9 108180726.424 9  20230347.648 5  20230346.910 5  84140582.783 5

  23083827.125 3 123222892.787 3

  20045939.570 9 107157022.241 9  20045945.285 5  20045946.098 5  83344378.264 5

  21255621.461 9 111699237.591 9                  21255627.89149  87038230.84749

  20205940.180 9 108202861.029 9  20205943.941 6  20205944.133 6  84157032.974 6

  23007230.063 7 120903847.379 7                  23007237.59047  94210821.19147

  20944674.805 9 110064992.296 9  20944681.055 7  20944680.80549  85764953.02849

  23589978.125 6 123966104.363 6  23589988.250 6  23589988.22747  96597008.35347
  23589988.840 8  92572115.918 8
  20234048.477 9 106330610.180 9                  20234051.65649  82855033.79849

  24231496.344 6 127337369.958 6  24231506.922 4  24231506.50846  99223967.37946

  23405001.352 5 122993978.832 5  23405008.742 5  23405009.05545  95839589.72445

  19641566.586 9 105069288.807 9  19641572.355 7  19641572.676 6  81720454.612 6

  24399286.828 5 128218882.557 5                  24399295.71145  99910920.62845

  23762795.336 6 126802836.237 6  23762802.605 2  23762802.344 3  98624454.541 3

 15  2  1  0 20  0.0000000  0 16G30G06R24R22R01G10R08G13G05G09G02G07
                                G29R23G20R02
  24479096.328 6 128638535.134 6  24479110.313 5  24479109.74646 100237869.67146
  24479110.008 7  96061270.241 7
  21794588.070 8 114531281.697 8  21794598.457 8  21794597.94949  89245184.18349
  21794598.039 9  85526633.484 9
  20216758.406 9 108108074.389 9  20216761.695 6  20216761.188 6  84084075.645 6

  23107690.570 4 123350265.818 4  23107702.230 1                  95939266.62111

  20039276.609 9 107121407.445 9  20039282.102 6  20039282.820 6  83316677.874 6

  21268312.836 9 111765932.009 9                  21268319.56649  87090200.46649

  20218324.727 9 108269176.789 9  20218328.328 7  20218328.703 7  84208611.844 7

  22986894.227 7 120796981.184 7                  22986901.33647  94127548.86847

  20938532.891 9 110032715.806 9  20938539.391 8  20938539.07049  85739802.52449

  23607560.289 6 124058500.620 6  23607570.914 6  23607571.15247  96669005.28947
  23607571.184 8  92641112.935 8
  20230433.352 9 106311612.178 9                  20230436.56649  82840230.14549

  24224004.422 6 127297994.637 6  24224013.906 5  24224013.28546  99193285.36546

  23389486.250 5 122912452.746 5  23389494.801 3  23389494.40645  95776062.92845

  19650709.000 9 105118194.905 9  19650714.430 7  19650715.586 7  81758492.642 7

  24416162.703 6 128307565.039 6                  24416172.42645  99980023.72045

  23744592.945 5 126705707.865 5  23744600.273 2  23744599.949 1  98548910.318 1

 15  2  1  0 20 30.0000000  0 15G30G06R24R01G10R08G13G05G09G02G07G29
                                R23G20R02
  24465735.086 5 128568318.986 5  24465748.613 3  24465747.44145 100183155.80545
  24465748.582 7  96008836.147 7
  21806506.805 8 114593915.699 8  21806516.867 7  21806516.64149  89293989.80849
  21806516.555 9  85573405.508 9
  20203284.586 9 108036025.326 9  20203287.422 6  20203287.887 5  84028037.478 5

  20032702.523 9 107086263.965 9  20032707.594 6  20032708.438 5  83289344.069 5

  21281041.320 9 111832822.022 9                  21281048.41449  87142322.50749

  20230761.195 9 108335774.914 9  20230764.941 6  20230765.008 6  84260410.349 6

  22966597.516 7 120690320.188 7                  22966605.21147  94044436.44847

  20932446.203 9 110000730.354 9  20932452.387 7  20932452.18849  85714878.80049

  23625193.461 6 124151163.204 6  23625203.816 6  23625203.46547  96741209.74447
  23625203.672 8  92710308.841 8
  20226884.766 9 106292964.535 9                  20226888.32449  82825699.49449

  24216586.742 6 127259008.858 6  24216595.367 5  24216594.90646  99162906.85046

  23374042.727 5 122831295.182 5  23374049.824 3  23374049.38745  95712823.25345

  19659988.867 9 105167836.562 9  19659995.273 7  19659995.957 6  81797102.773 6

  24433036.883 5 128396239.062 5                  24433046.02745 100049120.08545

  23726431.742 6 126608799.099 6  23726439.582 2  23726439.715 1  98473536.972 1

 15  2  1  0 21  0.0000000  0 15G30G06R24R01G10R08G13G05G09G02G07G29
                                R23G20R02
  24452404.688 5 128498273.250 5  24452419.012 5  24452418.01645 100128574.78045
  24452419.504 8  95956529.366 8
  21818483.680 8 114656854.721 8  21818494.129 7  21818493.60549  89343033.11049
  21818493.402 9  85620405.319 9
  20189924.156 9 107964582.975 9  20189928.141 6  20189927.859 6  83972471.203 6

  20026216.586 9 107051591.534 9  20026221.637 6  20026223.121 6  83262376.633 6

  21293807.141 9 111899906.238 9                  21293813.96549  87194595.86449

  20243249.516 9 108402652.677 9  20243253.898 7  20243254.289 7  84312426.322 7

  22946339.953 7 120583866.856 7                  22946346.80547  93961485.87147

  20926415.000 9 109969036.722 9  20926421.273 8  20926421.00849  85690182.46449

  23642877.555 7 124244089.827 7  23642887.457 6  23642886.35947  96813619.94647
  23642887.504 8  92779701.930 8
  20223403.563 9 106274669.212 9                  20223406.56649  82811443.36349

  24209240.977 5 127220414.928 5  24209251.363 5  24209251.02746  99132833.73846

  23358669.891 5 122750508.418 5  23358677.797 4  23358677.61345  95649872.47845

  19669406.688 9 105218212.825 9  19669412.688 7  19669413.180 7  81836284.265 7

  24449910.773 6 128484904.109 6                  24449919.37545 100118209.53145

  23708312.211 6 126512111.153 6  23708319.602 2  23708319.137 1  98398335.384 1

 15  2  1  0 21 30.0000000  0 15G30G06R24R01G10R08G13G05G09G02G07G29
                                R23G20R02
  24439108.430 5 128428401.154 5  24439122.602 5  24439122.18045 100074129.05845
  24439123.203 8  95904352.194 8
  21830518.086 8 114720098.381 8  21830528.840 7  21830528.19549  89392313.79649
  21830528.871 9  85667632.631 9
  20176677.906 9 107893750.832 9  20176682.348 6  20176681.801 5  83917379.534 5

  20019817.766 9 107017389.285 9  20019823.820 6  20019824.191 5  83235774.888 5

  21306609.656 9 111967182.982 9                  21306616.73449  87247019.25149

  20255790.242 9 108469807.516 9  20255794.145 7  20255794.320 6  84364657.814 6

  22926122.023 7 120477623.813 7                  22926129.48847  93878699.12347

  20920439.578 9 109937634.218 9  20920445.508 7  20920445.09449  85665713.00249

  23660611.391 7 124337277.687 7  23660621.105 6  23660621.43847  96886233.72147
  23660621.469 8  92849290.070 8
  20219989.133 9 106256727.616 9                  20219992.60249  82797462.87249

  24201972.695 6 127182215.135 6  24201982.492 5  24201982.48046  99103067.65446

  23343368.367 5 122670094.984 5  23343375.570 4  23343375.05145  95587212.69145

  19678960.766 9 105269322.141 9  19678966.980 7  19678967.453 7  81876035.895 7

  24466780.188 6 128573559.846 6                  24466789.69945 100187291.73245

  23690233.563 6 126415645.155 6  23690241.844 2  23690242.887 1  98323306.418 1

 15  2  1  0 22  0.0000000  0 15G30G06R24R01G10R08G13G05G09G02G07G29
                                R23G20R02
  24425847.023 6 128358705.629 6  24425859.508 5  24425858.89545 100019820.81845
  24425860.676 8  95852306.886 8
  21842611.313 8 114783646.549 8  21842621.719 7  21842621.21149  89441831.76149
  21842621.594 9  85715087.336 9
  20163546.742 9 107823532.402 9  20163550.289 6  20163549.977 6  83862765.193 6

  20013507.547 9 106983656.571 9  20013513.156 6  20013514.770 6  83209538.341 6

  21319448.742 9 112034651.195 9                  21319454.95349  87299591.82049

  20268383.180 9 108537236.730 9  20268387.164 7  20268386.781 7  84417102.690 7

  22905945.430 7 120371593.866 7                  22905952.57047  93796078.45947

  20914518.875 9 109906522.128 9  20914525.207 8  20914525.36749  85641469.81349

  23678392.891 6 124430724.301 6  23678403.406 6  23678403.68847  96959049.10347
  23678404.008 8  92919071.459 8
  20216642.688 9 106239141.486 9                  20216646.30149  82783759.38549

  24194778.664 6 127144411.563 6  24194788.320 5  24194787.65246  99073610.33646

  23328137.594 5 122590057.599 5  23328145.301 5  23328146.42646  95524845.93446

  19688651.891 9 105321162.976 9  19688657.863 7  19688658.473 7  81916356.502 7

  24483648.945 5 128662205.697 5                  24483659.10545 100256366.24945

  23672200.766 5 126319401.897 5  23672204.984 1  23672204.898 1  98248450.648 1

 15  2  1  0 22 30.0000000  0 15G30G06R24R01G10R08G13G05G09G02G07G29
                                R23G20R02
  24412619.156 6 128289189.730 6  24412631.441 5  24412630.55145  99965652.60345
  24412631.457 7  95800395.689 7
  21854761.688 8 114847498.800 8  21854772.234 7  21854772.01249  89491586.68549
  21854772.395 9  85762769.121 9
  20150531.453 9 107753931.754 9  20150535.059 6  20150535.344 5  83808631.351 5

  20007284.781 9 106950392.679 9  20007289.590 5  20007290.941 5  83183666.434 5

  21332323.594 9 112102309.228 9                  21332330.21549  87352312.29849

  20281026.125 9 108604937.524 9  20281029.637 6  20281029.504 6  84469758.797 6

  22885809.664 7 120265779.430 7                  22885816.86747  93713625.71147

  20908653.750 9 109875700.221 9  20908659.965 7  20908659.76249  85617452.74449

  23696223.781 6 124524427.023 6  23696234.313 6  23696233.90647  97032064.04947
  23696235.227 8  92989044.099 8
  20213363.914 9 106221912.116 9                  20213366.94549  82770333.86549

  24187660.227 6 127107006.381 6  24187670.254 5  24187670.05946  99044463.46946

  23312978.250 5 122510398.603 5  23312986.273 3  23312986.89145  95462773.98045

  19698479.828 9 105373734.079 9  19698485.676 7  19698486.383 6  81957245.088 6

  24500516.453 5 128750840.962 5                  24500526.17245 100325432.47045

  23654204.789 6 126223382.243 6  23654212.375 3  23654211.734 2  98173768.847 2

 15  2  1  0 23  0.0000000  0 15G30G06R24R01G10R08G13G05G09G02G07G29
                                R23G20R02
  24399425.813 7 128219856.257 7  24399437.797 6  24399437.25846  99911626.56246
  24399437.168 7  95748620.752 7
  21866970.531 9 114911654.764 9  21866981.059 7  21866980.52049  89541578.24049
  21866981.199 9  85810677.674 9
  20137632.461 9 107684951.814 9  20137634.402 6  20137634.969 6  83754980.274 6

  20001149.953 9 106917596.833 9  20001155.520 6  20001156.441 6  83158158.546 6

  21345234.453 9 112170155.247 9                  21345241.37149  87405179.24549

  20293719.016 9 108672907.113 9  20293722.426 7  20293723.070 7  84522623.992 7

  22865714.539 7 120160183.123 7                  22865722.87147  93631342.91847

  20902843.445 9 109845168.257 9  20902850.211 8  20902849.64149  85593661.59549

  23714103.430 6 124618382.998 6  23714113.910 6  23714113.97346  97105276.34446
  23714115.469 8  93059205.857 8
  20210153.445 9 106205040.928 9                  20210157.12949  82757187.46449

  24180619.055 6 127070001.688 6  24180628.461 5  24180628.54346  99015628.68146

  23297892.625 5 122431120.423 5  23297899.715 4  23297899.77745  95400998.80045

  19708443.703 9 105427033.825 9  19708450.289 7  19708450.777 7  81998700.391 7

  24517380.930 5 128839465.148 5                  24517390.66045 100394490.06345

  23636251.406 6 126127587.118 6  23636260.504 5  23636260.844 4  98099261.611 4

 15  2  1  0 23 30.0000000  0 15G30G06R24R01G10R08G13G05G09G02G07G29
                                R23G20R02
  24386267.523 6 128150708.314 6  24386280.438 6  24386279.60946  99857745.09046
  24386277.465 7  95696984.300 7
  21879236.859 8 114976114.143 8  21879247.051 7  21879246.71549  89591806.25449
  21879247.098 9  85858812.829 9
  20124850.125 9 107616596.667 9  20124853.930 5  20124852.633 5  83701815.177 5

  19995101.688 9 106885268.078 9  19995107.289 5  19995108.000 5  83133013.968 5

  21358180.375 9 112238187.808 9                  21358187.33249  87458191.56949

  20306461.008 9 108741142.747 9  20306465.207 6  20306465.020 6  84575696.085 6

  22845662.875 7 120054807.606 7                  22845670.25847  93549232.18347

  20897088.063 9 109814925.856 9  20897095.137 7  20897095.02349  85570096.08249

  23732030.164 6 124712589.801 6  23732040.828 6  23732040.71546  97178684.08346
  23732041.445 8  93129554.907 8
  20207011.453 9 106188529.490 9                  20207014.86349  82744321.39149

  24173653.469 6 127033399.417 6  24173663.211 5  24173662.98846  98987107.45846

  23282879.188 6 122352225.700 6  23282886.758 4  23282887.08246  95339522.40046

  19718543.469 9 105481060.554 9  19718549.844 7  19718550.227 6  82040721.127 6

  24534244.203 5 128928077.846 5                  24534253.01645 100463538.73345

  23618343.047 6 126032017.303 6  23618351.309 3  23618349.945 3  98024929.617 3

 15  2  1  0 24  0.0000000  0 15G30G06R24R01G10R08G13G05G09G02G07G29
                                R23G20R02
  24373144.297 6 128081748.947 6  24373157.281 6  24373156.76646  99804010.51046
  24373156.090 7  95645488.614 7
  21891560.945 9 115040876.690 9  21891571.910 7  21891571.20349  89642270.46649
  21891571.824 9  85907174.345 9
  20112184.391 9 107548869.625 9  20112187.750 6  20112187.832 6  83649138.572 6

  19989141.445 9 106853406.266 9  19989147.355 6  19989148.203 5  83108232.576 5

  21371162.031 9 112306405.640 9                  21371169.00049  87511348.24749

  20319253.430 9 108809641.995 9  20319256.781 7  20319256.887 7  84628973.225 7

  22825652.320 7 119949655.231 7                  22825660.14847  93467295.33347

  20891389.000 9 109784972.588 9  20891395.164 7  20891394.93849  85546755.86749

  23750004.898 6 124807044.764 6  23750015.504 6  23750015.06646  97252285.22346
  23750015.918 8  93200089.281 8
  20203938.367 9 106172379.104 9                  20203941.68449  82731736.65349

  24166765.039 6 126997202.069 6  24166775.000 5  24166774.54346  98958901.76046

  23267939.945 6 122273717.007 6  23267946.727 5  23267946.39146  95278346.82146

  19728779.000 9 105535813.085 9  19728784.734 7  19728785.891 7  82083306.379 7

  24551103.313 5 129016678.434 5                  24551113.25445 100532577.94445

  23600475.656 6 125936674.108 6  23600482.793 4  23600483.195 3  97950773.839 3

 15  2  1  0 24 30.0000000  0 15G30G06R24R01G10R08G13G05G09G02G07G29
                                R23G20R02
  24360056.867 5 128012981.252 5  24360071.203 5  24360070.18846  99750425.35846
  24360069.980 7  95594136.137 7
  21903942.750 9 115105942.176 9  21903952.961 7  21903952.57049  89692970.75649
  21903953.070 9  85955762.105 9
  20099636.750 9 107481774.521 9  20099641.230 5  20099640.277 5  83596953.486 5

  19983268.195 9 106822010.323 9  19983274.355 6  19983274.871 5  83083813.513 5

  21384178.344 9 112374807.701 9                  21384185.38349  87564648.49149

  20332094.383 9 108878402.014 9  20332097.172 6  20332097.340 6  84682453.175 6

  22805685.398 7 119844728.860 7                  22805693.26247  93385534.56747

  20885743.742 9 109755308.060 9  20885750.555 7  20885750.20749  85523640.63949

  23768026.211 6 124901745.331 6  23768036.707 6  23768037.53146  97326077.72346
  23768036.504 8  93270807.073 8
  20200934.039 9 106156591.777 9                  20200937.39549  82719434.81649

  24159954.359 6 126961411.486 6  24159964.555 5  24159964.77746  98931013.01446

  23253073.719 6 122195596.873 6  23253081.430 5  23253080.98046  95217473.99646

  19739149.820 9 105591289.747 9  19739155.344 7  19739156.125 7  82126454.846 7

  24567963.289 5 129105266.807 5                  24567971.47345 100601607.66745

  23582650.422 6 125841558.267 6  23582657.992 3  23582658.535 3  97876794.848 3

 15  2  1  0 25  0.0000000  0 15G30G06R24R01G10R08G13G05G09G02G07G29
                                R23G20R02
  24347007.125 5 127944408.183 5  24347022.578 5  24347022.16045  99696991.83745
  24347021.656 7  95542929.011 7
  21916381.930 9 115171310.245 9  21916391.984 7  21916391.83249  89743906.82649
  21916392.039 9  86004575.819 9
  20087208.453 9 107415314.659 9  20087212.625 6  20087211.742 6  83545262.481 6

  19977482.094 9 106791079.399 9  19977487.293 6  19977488.063 6  83059756.148 6

  21397229.781 9 112443392.335 9                  21397236.70349  87618090.97449

  20344982.086 9 108947420.407 9  20344986.168 7  20344986.277 7  84736134.097 7

  22785761.914 7 119740031.077 7                  22785770.61347  93303951.92747

  20880153.625 9 109725932.087 9  20880159.699 8  20880159.98849  85500750.26149

  23786093.656 6 124996688.971 6  23786104.313 6  23786103.79346  97400059.62546
  23786104.055 8  93341706.348 8
  20197999.422 9 106141168.779 9                  20198002.02349  82707416.86749

  24153222.117 6 126926029.801 6  24153232.102 4  24153230.47746  98903442.90046

  23238282.352 6 122117867.529 6  23238289.484 5  23238289.57046  95156905.67546

  19749655.516 9 105647488.893 9  19749661.813 7  19749662.227 7  82170165.235 7

  24584817.063 3 129193841.974 3                  24584827.29344 100670627.07744

  23564868.148 7 125746670.672 7  23564875.965 3  23564876.113 3  97802993.415 3

 15  2  1  0 25 30.0000000  0 15G30G06R24R01G10R08G13G05G09G02G07G29
                                R23G20R02
  24333997.477 5 127876032.828 5  24334010.934 5  24334010.57846  99643712.39646
  24334010.719 7  95491869.553 7
  21928878.391 8 115236980.600 8  21928888.605 7  21928888.12549  89795078.41849
  21928888.625 9  86053615.246 9
  20074899.656 9 107349493.852 9  20074903.613 6  20074903.422 5  83494068.514 5

  19971782.656 9 106760612.745 9  19971787.980 5  19971788.488 5  83036059.870 5

  21410315.242 9 112512158.164 9                  21410321.99649  87671674.65849

  20357918.586 9 109016694.201 9  20357922.020 6  20357922.512 6  84790013.651 6

  22765882.969 8 119635564.372 8                  22765891.01247  93222549.36547

  20874618.453 9 109696844.420 9  20874624.965 7  20874624.94549  85478084.54449

  23804206.375 7 125091873.065 7  23804217.102 6  23804217.08646  97474228.88146
  23804216.707 8  93412785.178 8
  20195133.891 9 106126111.735 9                  20195137.51649  82695684.07949

  24146567.320 6 126891059.055 6  24146577.324 5  24146576.60246  98876192.99746

  23223565.375 5 122040531.529 5  23223572.949 5  23223573.60946  95096643.93246

  19760296.133 9 105704408.960 9  19760302.105 7  19760302.449 6  82214436.349 6

  24601669.383 3 129282403.253 3                  24601679.91844 100739635.65444

  23547130.023 6 125652012.298 6  23547137.668 2  23547137.082 2  97729370.188 2

 15  2  1  0 26  0.0000000  0 15G30G06R24R01G10R08G13G05G09G02G07G29
                                R23G20R02
  24321024.648 6 127807858.141 6  24321036.996 5  24321036.35246  99590589.23346
  24321037.488 8  95440959.897 8
  21941432.664 9 115302952.778 9  21941443.352 7  21941442.66049  89846485.23249
  21941442.984 9  86102880.084 9
  20062711.438 9 107284315.298 9  20062714.695 6  20062714.285 6  83443374.062 6

  19966169.594 9 106730609.306 9  19966175.496 6  19966176.297 6  83012723.862 6

  21423435.484 9 112581103.835 9                  21423442.12149  87725398.48949

  20370902.398 9 109086220.880 9  20370906.004 7  20370905.980 7  84844089.906 7

  22746048.375 8 119531331.573 8                  22746055.35947  93141329.04447

  20869138.258 9 109668044.376 9  20869144.441 8  20869144.45749  85455642.93949

  23822364.336 6 125187294.878 6  23822375.285 6  23822375.21147  97548583.39447
  23822375.473 8  93484041.550 8
  20192338.414 9 106111421.978 9                  20192341.94149  82684237.48649

  24139990.617 5 126856501.359 5  24140000.777 5  24140000.62946  98849264.93846

  23208924.234 6 121963591.199 6  23208931.922 5  23208932.02746  95036690.43646

  19771070.945 9 105762048.100 9  19771076.855 7  19771077.410 7  82259266.739 7

  24618520.742 4 129370950.896 4                  24618530.41845 100808633.51545

  23529433.781 6 125557583.968 6  23529442.996 3  23529441.977 3  97655925.909 3

 15  2  1  0 26 30.0000000  0 15G30G06R24R01G10R08G13G05G09G02G07G29
                                R23G20R02
  24308090.688 6 127739887.003 6  24308102.305 5  24308101.22746  99537624.70946
  24308102.602 7  95390202.259 7
  21954044.273 9 115369226.387 9  21954054.820 7  21954054.55549  89898126.92149
  21954054.648 9  86152370.024 9
  20050643.078 9 107219782.453 9  20050645.883 5  20050645.953 5  83393181.855 5

  19960643.539 9 106701068.590 9  19960649.395 5  19960650.465 5  82989747.762 5

  21436589.594 9 112650227.601 9                  21436596.02049  87779261.09049

  20383932.078 9 109155997.649 9  20383936.910 6  20383937.031 6  84898360.675 6

  22726258.164 8 119427335.071 8                  22726265.57847  93060292.84447

  20863712.266 9 109639531.435 9  20863718.840 7  20863718.47349  85433425.05949

  23840567.156 6 125282951.737 6  23840578.316 6  23840578.03546  97623121.04446
  23840578.063 8  93555473.438 8
  20189613.289 9 106097100.832 9                  20189616.87949  82673078.13049

  24133493.203 6 126822358.718 6  24133503.484 5  24133503.15646  98822660.27946

  23194358.656 6 121887049.430 6  23194366.859 5  23194366.10247  94977047.49347

  19781980.602 9 105820404.654 9  19781986.969 7  19781987.266 6  82304655.115 6

  24635368.977 3 129459483.769 3                  24635377.87545 100877620.10045

  23511782.898 6 125463386.479 6  23511790.000 3  23511788.793 2  97582661.102 2

 15  2  1  0 27  0.0000000  0 15G30G06R24R01G10R08G13G05G09G02G07G29
                                R23G20R02
  24295195.414 6 127672122.457 6  24295207.602 5  24295207.18046  99484821.17846
  24295208.199 8  95339598.920 8
  21966712.805 9 115435801.034 9  21966723.785 7  21966723.20749  89950003.18449
  21966723.766 9  86202084.752 9
  20038697.000 9 107155898.650 9  20038699.867 6  20038699.797 6  83343494.448 6

  19955203.266 9 106671989.522 9  19955209.078 6  19955210.195 6  82967130.715 6

  21449776.602 9 112719527.909 9                  21449783.58649  87833261.25349

  20397009.031 9 109226021.899 9  20397012.906 7  20397013.039 7  84952823.921 7

  22706513.789 8 119323577.181 8                  22706521.00047  92979442.58447

  20858341.148 9 109611305.523 9  20858347.137 7  20858346.87149  85411430.83449

  23858814.789 6 125378841.076 6  23858825.176 6  23858824.85247  97697839.87047
  23858825.465 8  93627078.944 8
  20186958.391 9 106083149.975 9                  20186961.77749  82662207.31349

  24127075.977 6 126788632.902 6  24127085.699 5  24127085.76646  98796380.44146

  23179870.063 7 121810908.322 7  23179877.852 5  23179877.63747  94917716.78747

  19793022.969 9 105879476.972 9  19793030.012 7  19793030.254 7  82350600.200 7

  24652211.273 3 129548001.275 3                  24652221.83244 100946594.65954

  23494173.164 6 125369420.807 6  23494180.512 3  23494179.207 3  97509576.661 3

 15  2  1  0 27 30.0000000  0 15G30G06R24R01G10R08G13G05G09G02G07G29
                                R23G20R02
  24282339.281 6 127604567.492 6  24282352.480 5  24282351.56646  99432180.94246
  24282352.703 8  95289152.012 8
  21979438.719 8 115502676.403 8  21979449.863 7  21979449.06349  90002113.75749
  21979449.680 9  86252024.030 9
  20026871.797 9 107092667.840 9  20026875.137 6  20026875.426 6  83294314.913 6

  19949850.672 9 106643370.906 9  19949856.996 6  19949856.652 5  82944871.789 5

  21462997.609 9 112789003.544 9                  21463004.80949  87887398.01949

  20410131.945 9 109296291.083 9  20410135.609 6  20410136.012 6  85007477.681 6

  22686815.461 8 119220060.608 8                  22686822.63747  92898780.34047

  20853024.406 9 109583365.996 9  20853030.719 8  20853030.87949  85389659.76649

  23877106.047 6 125474960.269 6  23877116.086 6  23877115.89546  97772737.77946
  23877116.742 8  93698856.068 8
  20184374.641 9 106069570.686 9                  20184377.70749  82651626.02449

  24120737.422 6 126755326.141 6  24120747.777 5  24120747.11346  98770427.14346

  23165457.156 7 121735170.331 7  23165464.895 5  23165465.15647  94858700.16947

  19804199.875 9 105939263.133 9  19804205.668 7  19804206.230 6  82397100.487 6

  24669054.016 4 129636503.492 4

  23476607.125 6 125275687.522 6  23476614.797 3  23476614.242 3  97436672.978 3

 15  2  1  0 28  0.0000000  0 15G30G06R24R01G10R08G13G05G09G02G07G29
                                R23G20R02
  24269524.469 6 127537225.150 6  24269537.668 5  24269536.99246  99379706.40846
  24269537.313 7  95238863.932 7
  21992222.375 9 115569852.160 9  21992233.141 7  21992232.34849  90054458.41549
  21992232.852 9  86302187.646 9
  20015170.047 9 107030092.815 9  20015173.238 6  20015173.074 6  83245645.444 6

  19944582.281 9 106615212.306 9  19944588.066 6  19944588.516 6  82922970.652 6

  21476251.805 9 112858653.479 9                  21476258.77349  87941670.61849

  20423298.805 9 109366802.576 9  20423302.859 7  20423303.074 7  85062319.898 7

  22667163.094 8 119116787.905 8                  22667170.53547  92818308.15247

  20847761.734 9 109555712.871 9  20847768.418 7  20847768.21949  85368111.86749

  23895439.531 6 125571306.912 6  23895450.730 6  23895450.51246  97847812.90146
  23895451.129 8  93770803.026 8
  20181861.508 9 106056364.710 9                  20181864.86749  82641335.63149

  24114479.836 6 126722440.716 6  24114489.430 5  24114489.10246  98744802.16746

  23151122.086 7 121659838.163 7  23151130.250 6  23151129.33647  94799999.77247

  19815509.336 9 105999761.488 9  19815515.320 7  19815516.207 7  82444154.707 7

  24685892.391 4 129724989.635 4

  23459086.070 6 125182187.708 6  23459093.547 3  23459092.832 3  97363950.831 3

 15  2  1  0 28 30.0000000  0 15G30G06R24R01G10R08G13G05G09G02G07G29
                                R23G20R02
  24256749.852 6 127470098.258 6  24256763.941 5  24256763.69546  99327399.77646
  24256763.367 7  95188736.732 7
  22005062.492 8 115637327.662 8  22005072.961 7  22005072.61749  90107036.64949
  22005072.887 9  86352575.096 9
  20003592.039 9 106968177.272 9  20003594.906 5  20003594.832 5  83197488.915 5

  19939400.945 9 106587512.739 9  19939406.598 5  19939407.145 5  82901426.562 5

  21489538.188 8 112928476.067 8                  21489545.25449  87996077.75349

  20436511.531 9 109437553.563 9  20436515.051 6  20436515.359 6  85117348.388 6

  22647557.914 8 119013761.622 8                  22647565.22747  92738027.95347

  20842554.406 9 109528345.419 9  20842561.047 8  20842560.52749  85346786.57949

  23913816.875 6 125667878.072 6  23913827.820 5  23913827.67246  97923062.98746
  23913828.406 8  93842917.648 8
  20179420.102 9 106043533.300 9                  20179423.89549  82631337.10049

  24108301.883 6 126689978.095 6  24108312.266 5  24108312.03146  98719506.66146

  23136864.727 7 121584914.066 7  23136872.309 5  23136872.39847  94741617.34947

  19826951.320 9 106060969.557 9  19826957.750 7  19826958.609 6  82491760.931 6

  24702727.977 5 129813458.965 5

  23441607.500 6 125088922.036 6  23441614.918 3  23441614.773 3  97291410.872 3

 15  2  1  0 29  0.0000000  0 15G30G06R24R01G10R08G13G05G09G02G07G29
                                R23G20R02
  24244017.156 6 127403190.198 6  24244031.477 5  24244031.34046  99275263.64246
  24244030.953 7  95138772.912 7
  22017959.586 8 115705102.944 8  22017970.402 7  22017969.79749  90159848.44849
  22017969.945 9  86403186.385 9
  19992137.891 9 106906924.411 9  19992140.383 6  19992140.352 6  83149847.784 6

  19934303.563 9 106560271.497 9  19934309.926 6  19934310.898 5  82880238.929 5

  21502858.070 9 112998470.296 9                  21502865.27349  88050618.60849

  20449767.969 9 109508541.907 9  20449772.180 7  20449772.223 7  85172561.480 7

  22627999.992 8 118910984.500 8                  22628007.43447  92657941.92847

  20837400.617 9 109501263.360 9  20837407.133 8  20837406.96949  85325683.65049

  23932235.813 6 125764671.490 6  23932247.258 6  23932246.98447  97998486.27847
  23932246.660 8  93915198.256 8
  20177049.938 9 106031078.143 9                  20177053.30549  82621631.75449

  24102205.984 7 126657940.583 7  24102216.191 5  24102215.46146  98694542.36546

  23122684.406 6 121510400.622 6  23122692.797 6  23122693.11747  94683554.94847

  19838526.484 9 106122886.216 9  19838532.219 7  19838532.754 7  82539918.273 7

  24719556.805 1 129901911.451 1

  23424174.211 7 124995891.517 7  23424181.500 3  23424181.227 3  97219053.734 3

 15  2  1  0 29 30.0000000  0 15G30G06R24R01G10R08G13G05G09G02G07G29
                                R23G20R02
  24231328.203 6 127336503.985 6  24231342.027 5  24231341.50446  99223300.41246
  24231341.703 7  95088974.798 7
  22030913.922 8 115773177.602 8  22030924.906 7  22030924.43449  90212893.52849
  22030924.348 9  86454021.234 9
  19980806.969 9 106846338.162 9  19980810.602 5  19980809.953 5  83102725.152 5

  19929294.617 9 106533487.742 9  19929299.215 5  19929300.016 5  82859407.135 5

  21516209.813 9 113068634.672 9                  21516216.78949  88105292.06749

  20463068.695 9 109579764.974 9  20463072.617 6  20463072.344 6  85227957.141 6

  22608489.766 8 118808459.327 8                  22608497.47347  92578052.22647

  20832301.445 9 109474466.761 9  20832307.738 7  20832307.71549  85304803.17749

  23950697.117 6 125861684.766 6  23950708.523 6  23950708.18046  98074080.88746
  23950707.742 8  93987643.064 8
  20174751.609 9 106019000.825 9                  20174755.10549  82612220.82249

  24096191.500 7 126626330.305 7  24096200.035 5  24096199.78546  98669910.98846

  23108584.234 7 121436300.224 7  23108592.051 6  23108592.40647  94625814.41847

  19850232.672 9 106185509.444 9  19850239.832 7  19850239.887 6  82588625.176 6

  24736388.938 3 129990346.95213

  23406784.594 6 124903097.041 6  23406791.988 3  23406791.785 3  97146880.251 3

 15  2  1  0 30  0.0000000  0 15G30G06R24R01G10R08G13G05G09G02G07G29
                                R23G20R02
  24218680.367 6 127270042.179 6  24218694.113 5  24218694.06646  99171512.03446
  24218693.801 7  95039344.268 7
  22043925.344 9 115841550.782 9  22043936.203 7  22043935.25849  90266171.22449
  22043935.645 9  86505078.998 9
  19969601.406 9 106786420.931 9  19969606.211 6  19969605.645 6  83056122.851 6

  19924368.570 9 106507160.017 9  19924374.574 6  19924375.723 6  82838930.021 6

  21529593.813 9 113138967.405 9                  21529600.95749  88160096.70149

  20476412.016 9 109651219.923 9  20476415.859 7  20476416.336 7  85283533.173 7

  22589028.922 8 118706187.913 8                  22589035.88747  92498360.23647

  20827256.500 9 109447954.535 9  20827262.637 7  20827262.64849  85284144.28049

  23969199.648 6 125958914.757 6  23969211.238 6  23969211.36346  98149844.33646
  23969211.043 8  94060249.695 8
  20172525.258 9 106007302.071 9                  20172528.61349  82603104.87749

  24090257.875 6 126595148.621 6  24090266.277 5  24090265.78946  98645613.55746

  23094562.758 7 121362614.958 7  23094570.734 6  23094570.36747  94568397.32347

  19862071.469 9 106248837.016 9  19862077.883 7  19862078.711 7  82637879.907 7

  24753215.305 3 130078764.391 3

  23389439.711 6 124810539.226 6  23389446.477 4  23389446.375 3  97074890.742 3

 15  2  1  0 30 30.0000000  0 16G30G06R10R24R01G10R08G13G05G09G02G07
                                G29R23G20R02
  24206077.805 6 127203807.989 6  24206089.738 5  24206089.44146  99119900.99746
  24206089.934 7  94989883.682 7
  22056992.938 8 115910222.355 8  22057003.781 7  22057003.21149  90319681.42149
  22057003.711 9  86556359.586 9
  24148243.586 5 128723726.05915  24148257.844 1  24148257.711 1 100118510.13111

  19958523.289 9 106727176.641 9  19958526.840 6  19958526.957 5  83010043.960 5

  19919529.188 9 106481287.979 9  19919535.207 6  19919535.918 5  82818807.318 5

  21543009.094 8 113209467.357 8                  21543016.57849  88215031.64949

  20489798.727 9 109722904.003 9  20489802.699 6  20489803.367 6  85339287.395 6

  22569615.852 8 118604173.422 8                  22569623.02047  92418868.46047

  20822265.641 9 109421726.449 9  20822272.320 7  20822272.00449  85263706.79249

  23987743.281 6 126056359.219 6  23987754.207 6  23987753.88347  98225774.89347
  23987754.090 8  94133016.419 8
  20170371.641 9 105995983.965 9                  20170375.10549  82594285.52649

  24084405.781 7 126564397.817 7  24084414.723 5  24084414.68846  98621651.88646

  23080619.898 7 121289347.530 7  23080627.113 5  23080627.41847  94511305.79547

  19874041.586 9 106312867.069 9  19874048.039 7  19874047.930 6  82687681.003 6

  24770036.148 1 130167163.65111

  23372137.570 6 124718218.666 6  23372146.020 3  23372145.070 3  97003085.845 3

 15  2  1  0 31  0.0000000  0 16G30G06R10R24R01G10R08G13G05G09G02G07
                                G29R23G20R02
  24193516.961 7 127137804.279 7  24193531.047 5  24193529.64846  99068469.57346
  24193531.020 7  94940595.223 7
  22070117.828 9 115979191.733 9  22070128.172 7  22070127.64549  90373423.67749
  22070128.145 9  86607862.551 9
  24131497.359 5 128634453.164 5  24131511.914 1  24131510.727 1 100049076.65511

  19947571.000 9 106668608.319 9  19947574.574 6  19947574.227 6  82964490.807 6

  19914773.977 9 106455870.233 9  19914779.281 6  19914780.031 5  82799037.961 5

  21556456.875 9 113280133.025 9                  21556464.23849  88270095.70749

  20503227.914 9 109794814.901 9  20503231.285 7  20503231.758 7  85395218.047 7

  22550252.250 8 118502418.252 8                  22550260.17247  92339578.73247

  20817328.438 9 109395782.356 9  20817334.707 7  20817334.53549  85243490.61149

  24006326.789 6 126154015.402 6  24006337.883 6  24006337.64846  98301870.45246
  24006337.441 8  94205941.290 8
  20168290.406 9 105985047.885 9                  20168293.80549  82585763.87149

  24078635.711 6 126534079.935 6  24078645.152 5  24078645.37946  98598027.55346

  23066757.250 7 121216500.118 7  23066765.117 5  23066765.35247  94454541.59747

  19886141.688 9 106377597.519 9  19886148.027 7  19886148.781 7  82738026.857 7

  24786855.695 1 130255544.254 1

  23354882.305 6 124626136.319 6  23354890.023 4  23354889.844 3  96931466.169 3

 15  2  1  0 31 30.0000000  0 15G30G06R10R24R01G10R08G13G05G09G02G07
                                G29R23R02
  24181001.500 6 127072034.967 6  24181014.871 5  24181014.29346  99017220.77746
  24181015.137 8  94891481.801 8
  22083298.859 7 116048459.402 7  22083309.297 7  22083309.10249  90427398.37949
  22083309.426 9  86659588.280 9
  24114799.758 5 128545447.560 5  24114812.238 1                  99979855.05911

  19936745.398 9 106610720.134 9  19936749.402 5  19936748.832 5  82919466.672 5

  19910104.289 9 106430906.755 9  19910109.816 5  19910110.469 5  82779621.947 5

  21569935.602 8 113350964.129 8                  21569942.76649  88325288.68249

  20516697.852 9 109866951.007 9  20516702.918 6  20516702.578 6  85451323.867 6

  22530938.914 8 118400925.681 8                  22530946.37547  92260493.65747

  20812445.742 9 109370122.748 9  20812451.977 7  20812451.62549  85223496.10749

  24024950.117 6 126251881.653 6  24024960.820 5  24024960.92646  98378129.69746
  24024961.070 8  94279023.047 8
  20166282.555 9 105974495.883 9                  20166286.02049  82577541.50549

  24072950.195 7 126504197.107 7  24072959.598 5  24072958.68446  98574742.23746

  23052975.477 7 121144075.812 7  23052983.426 5  23052983.45747  94398107.07747

  19898373.258 9 106443026.909 9  19898379.234 6  19898379.820 6  82788916.323 6

  23337671.375 6 124534293.728 6  23337678.652 3  23337677.695 3  96860033.010 3

 15  2  1  0 32  0.0000000  0 15G30G06R10R24R01G10R08G13G05G09G02G07
                                G29R23R02
  24168530.664 5 127006502.156 5  24168543.605 5  24168543.20346  98966156.20946
  24168545.047 8  94842545.013 8
  22096536.500 8 116118024.018 8  22096547.527 7  22096546.89149  90481604.44749
  22096547.098 9  86711535.731 9
  24098153.734 5 128456712.919 5  24098166.359 1                  99910839.203 1

  19926047.508 9 106553514.755 9  19926051.598 6  19926051.348 5  82874973.577 5

  19905518.711 9 106406395.513 9  19905523.832 6  19905525.121 5  82760557.648 5

  21583445.680 9 113421958.306 9                  21583452.57849  88380608.73649

  20530210.844 9 109939308.693 9  20530216.078 7  20530215.707 6  85507601.995 6

  22511676.414 7 118299697.516 7                  22511682.70347  92181614.59447

  20807616.570 9 109344746.046 9  20807623.168 7  20807622.61349  85203722.03649

  24043613.141 6 126349954.631 6  24043623.543 6  24043623.03946  98454550.01946
  24043624.242 8  94352259.136 8
  20164347.758 9 105964328.256 9                  20164351.43449  82569618.64649

  24067345.820 6 126474750.775 6  24067355.184 5  24067355.57446  98551797.02746

  23039274.453 6 121072076.508 6  23039282.605 6  23039282.99247  94342003.70947

  19910734.898 9 106509152.701 9  19910741.188 7  19910741.805 6  82840347.437 6

  23320504.859 6 124442690.911 6  23320511.434 3  23320511.289 3  96788786.310 3

 15  2  1  0 32 30.0000000  0 15G30G06R10R24R01G10R08G13G05G09G02G07
                                G29R23R02
  24156105.703 5 126941208.374 5  24156118.922 5  24156118.55146  98915277.98546
  24156119.160 8  94793786.731 8
  22109830.031 9 116187884.747 9  22109841.582 7  22109841.09849  90536041.24949
  22109841.773 9  86763704.316 9
  24081557.570 5 128368253.171 5  24081570.348 1                  99842037.159 1

  19915478.211 9 106496994.439 9  19915481.898 5  19915481.570 5  82831013.334 5

  19901018.086 9 106382335.395 9  19901023.164 5  19901024.145 5  82741844.233 5

  21596986.047 9 113493114.206 9                  21596993.16849  88436054.80949

  20543764.508 9 110011885.335 9  20543768.504 6  20543768.395 6  85564050.442 6

  22492463.570 7 118198735.743 7                  22492470.38347  92102943.08847

  20802841.344 9 109319651.410 9  20802847.578 7  20802847.51249  85184167.78849

  24062314.711 6 126448231.180 6  24062325.629 6  24062325.05147  98531128.97847
  24062326.254 8  94425647.253 8
  20162486.617 9 105954546.339 9                  20162489.52049  82561996.34349

  24061825.773 6 126445742.152 6  24061835.652 5  24061835.32446  98529192.91046

  23025654.258 6 121000504.092 6  23025662.715 5  23025662.70347  94286233.03847

  19923226.164 9 106575972.178 9  19923232.723 7  19923232.668 6  82892318.084 6

  23303382.586 6 124351328.026 6  23303390.184 3  23303390.398 3  96717726.291 3

 15  2  1  0 33  0.0000000  0 15G30G06R10R24R01G10R08G13G05G09G02G07
                                G29R23R02
  24143726.320 6 126876156.786 6  24143740.191 5  24143739.66846  98864588.46746
  24143740.047 7  94745209.311 7
  22123180.891 8 116258041.277 8  22123192.074 7  22123191.31649  90590708.55049
  22123191.934 9  86816093.781 9
  24065016.414 5 128280073.361 5  24065029.855 1  24065030.078 1  99773448.80711

  19905037.617 9 106441162.779 9  19905040.961 6  19905040.383 6  82787588.696 6

  19896601.539 9 106358725.542 9  19896607.188 6  19896607.453 6  82723481.017 6

  21610556.992 9 113564430.235 9                  21610564.43449  88491625.66649

  20557358.156 9 110084678.353 9  20557361.156 7  20557361.609 7  85620667.189 7

  22473302.266 7 118098042.953 7                  22473309.42648  92024481.20648

  20798119.602 9 109294838.995 9  20798126.125 7  20798126.20349  85164833.43849

  24081054.273 5 126546709.047 5  24081065.480 5  24081064.69946  98607864.79046
  24081065.957 8  94499185.707 8
  20160698.477 9 105945151.579 9                  20160701.82849  82554675.71949

  24056389.305 7 126417173.236 7  24056398.609 5  24056398.97746  98506931.41346

  23012116.336 6 120929361.148 6  23012124.254 6  23012124.57447  94230796.97647

  19935846.695 9 106643483.071 9  19935852.445 7  19935853.180 7  82944826.510 7

  23286306.492 6 124260206.193 6  23286313.438 3  23286314.020 2  96646853.707 2

 15  2  1  0 33 30.0000000  0 15G30G06R10R24R01G10R08G13G05G09G02G07
                                G29R23R02
  24131394.594 6 126811350.545 6  24131408.234 5  24131407.76246  98814090.14446
  24131407.375 7  94696815.043 7
  22136587.586 8 116328493.366 8  22136598.699 7  22136598.29749  90645606.17949
  22136598.211 9  86868703.985 9
  24048526.156 6 128192177.569 6  24048539.391 1  24048539.961 1  99705085.379 1

  19894725.734 9 106386023.400 9  19894729.707 6  19894729.156 6  82744702.514 6

  19892268.766 9 106335564.912 9  19892273.676 6  19892274.875 5  82705467.196 5

  21624158.398 9 113635905.418 9                  21624165.50849  88547320.52649

  20570991.016 9 110157685.431 9  20570995.746 6  20570995.527 6  85677450.426 6

  22454193.070 7 117997622.179 7                  22454200.15647  91946231.26647

  20793451.672 9 109270308.213 9  20793458.203 7  20793457.71949  85145718.54849

  24099832.328 6 126645385.869 6  24099843.355 6  24099842.92246  98684755.61446
  24099843.301 8  94572872.726 8
  20158984.734 9 105936145.972 9                  20158988.41849  82547658.33549

  24051036.750 5 126389046.204 5  24051047.664 5  24051046.48446  98485014.24746

  22998660.523 7 120858650.071 7  22998668.703 6  22998668.81347  94175697.42847

  19948596.508 9 106711683.923 9  19948602.387 7  19948603.281 7  82997871.566 7

  23269276.469 6 124169326.093 6  23269282.871 3  23269282.406 2  96576169.209 2

 15  2  1  0 34  0.0000000  0 16G30G06R10R24R01G10R08G13G05G09G02G07
                                G29R23G20R02
  24119110.570 6 126746792.322 6  24119123.059 6  24119122.58246  98763785.06146
  24119122.137 7  94648606.014 7
  22150050.531 8 116399240.198 8  22150061.082 7  22150060.75849  90700733.46449
  22150061.199 9  86921534.278 9
  24032092.320 6 128104570.516 6  24032104.180 1  24032104.750 1  99636946.502 1

  19884544.828 9 106331578.659 9  19884548.012 6  19884547.793 6  82702356.601 6

  19888019.727 9 106312852.194 9  19888025.164 6  19888025.324 6  82687801.753 6

  21637789.781 8 113707538.140 8                  21637796.54349  88603138.13749

  20584664.344 9 110230903.780 9  20584668.113 7  20584667.980 7  85734397.982 7

  22435135.320 7 117897475.533 7                  22435143.35548  91868194.94448

  20788836.742 9 109246058.624 9  20788843.277 8  20788843.07449  85126822.74649

  24118647.305 6 126744258.745 6  24118658.266 6  24118658.23046  98761799.24946
  24118657.965 8  94646706.156 8
  20157345.664 9 105927530.236 9                  20157349.28949  82540944.75149

  24045768.203 6 126361362.471 6  24045779.238 5  24045779.15246  98463442.43846

  22985287.188 6 120788372.561 6  22985295.340 6  22985295.01247  94120935.72447

  19961474.172 9 106780571.749 9  19961480.473 7  19961480.910 7  83051450.926 7

  24887687.875 3 130785671.08113

  23252290.711 7 124078688.349 7  23252297.527 4  23252298.383 3  96505673.228 3

 15  2  1  0 34 30.0000000  0 16G30G06R10R24R01G10R08G13G05G09G02G07
                                G29R23G20R02
  24106872.727 6 126682485.275 6  24106885.234 5  24106884.93446  98713675.73246
  24106883.965 7  94600584.547 7
  22163569.141 8 116470281.462 8  22163580.273 7  22163579.55149  90756090.18049
  22163579.938 9  86974584.443 9
  24015712.359 6 128017256.604 6  24015725.535 1  24015724.816 1  99569035.656 1

  19874494.336 9 106277832.081 9  19874497.504 6  19874497.480 6  82660553.701 6

  19883854.055 9 106290586.456 9  19883859.840 6  19883860.512 5  82670483.931 5

  21651450.852 9 113779327.355 9                  21651458.09849  88659077.68449

  20598376.297 9 110304331.281 9  20598380.656 6  20598380.566 6  85791508.219 6

  22416131.008 7 117797605.478 7                  22416138.37547  91790374.15247

  20784275.945 9 109222089.852 9  20784282.262 8  20784282.07449  85108145.79649

  24137498.453 6 126843325.257 6  24137509.672 6  24137509.73446  98838993.75046
  24137510.234 8  94720684.189 8
  20155780.625 9 105919305.789 9                  20155783.78149  82534536.05149

  24040585.289 6 126334124.257 6  24040595.230 5  24040594.52746  98442217.85046

  22971997.344 7 120718531.572 7  22972004.703 6  22972004.90647  94066514.18247

  19974479.992 9 106850144.715 9  19974486.211 7  19974486.445 6  83105563.188 6

  24904473.133 1 130873907.92011

  23235350.117 6 123988293.705 6  23235357.906 3  23235357.785 3  96435366.341 3

 15  2  1  0 35  0.0000000  0 16G30G06R10R24R01G10R08G13G05G09G02G07
                                G29R23G20R02
  24094683.828 6 126618432.362 6  24094697.395 6  24094697.06646  98663764.41646
  24094696.094 7  94552752.860 7
  22177144.000 9 116541616.733 9  22177155.137 7  22177154.28549  90811675.98449
  22177155.375 9  87027854.155 9
  23999387.320 5 127930240.040 5  23999401.586 1  23999401.219 1  99501356.136 1

  19864574.445 9 106224786.839 9  19864578.152 6  19864577.836 6  82619296.275 6

  19879772.492 9 106268767.012 9  19879778.063 6  19879778.809 6  82653513.248 6

  21665141.391 9 113851272.051 9                  21665149.05549  88715138.40249

  20612127.773 9 110377965.276 9  20612131.840 7  20612132.031 7  85848779.033 7

  22397179.531 7 117698014.747 7                  22397186.55948  91712771.01548

  20779768.641 9 109198401.922 9  20779774.559 8  20779774.41049  85089687.64649

  24156387.883 5 126942583.028 5  24156398.410 6  24156397.82046  98916337.27646
  24156399.492 8  94794805.020 8
  20154290.063 9 105911474.241 9                  20154293.54749  82528433.51749

  24035487.375 7 126307333.094 7  24035497.355 5  24035497.50446  98421341.64146

  22958790.688 6 120649129.321 6  22958797.418 6  22958797.51247  94012434.50447

  19987613.508 9 106920400.491 9  19987619.707 7  19987620.691 7  83160206.506 7

  24921267.102 1 130962122.83111

  23218456.281 6 123898142.794 6  23218463.559 4  23218464.219 4  96365249.025 4

 15  2  1  0 35 30.0000000  0 15G30G06R10R24R01G10R08G13G05G09G02G07
                                G29R23R02
  24082543.078 6 126554636.734 6  24082557.746 6  24082556.89546  98614053.54546
  24082556.098 7  94505113.277 7
  22190774.586 9 116613245.618 9  22190785.457 7  22190784.82449  90867490.60849
  22190785.910 9  87081343.143 9
  23983120.633 6 127843525.743 6  23983133.395 1  23983133.145 1  99433911.666 1

  19854786.320 9 106172446.082 9  19854789.375 6  19854788.902 5  82578586.792 5

  19875774.531 9 106247392.744 9  19875779.672 6  19875780.211 6  82636888.806 6

  21678861.461 9 113923370.856 9                  21678868.91849  88771319.20649

  20625915.633 9 110451803.571 9  20625920.484 7  20625920.465 6  85906208.773 6

  22378281.477 7 117598705.947 7                  22378289.02048  91635387.55148

  20775314.031 9 109174994.392 9  20775320.617 8  20775320.48449  85071447.99849

  24175311.250 5 127042029.614 5  24175322.457 5  24175322.05946  98993827.93746
  24175323.672 8  94869066.871 8
  20152874.836 9 105904037.311 9                  20152878.71549  82522638.48349

  24030474.891 7 126280990.941 7  24030484.582 5  24030484.06346  98400815.30846

  22945667.578 7 120580168.233 7  22945674.766 6  22945674.62947  93958698.58747

  20000874.617 9 106991337.253 9  20000880.965 7  20000881.465 7  83215379.489 7

  23201608.523 6 123808236.652 6  23201615.090 3  23201614.488 3  96295322.085 3

 15  2  1  0 36  0.0000000  0 15G30G06R10R24R01G10R08G13G05G09G02G07
                                G29R23R02
  24070453.430 6 126491101.040 6  24070466.137 5  24070466.37546  98564545.22946
  24070465.871 7  94457667.820 7
  22204460.781 9 116685167.416 9  22204472.230 7  22204471.55149  90923533.46049
  22204471.992 9  87135050.847 9
  23966911.063 6 127757117.593 6  23966924.266 1  23966923.664 1  99366705.322 1

  19845130.367 9 106120812.611 9  19845133.602 6  19845133.445 6  82538427.427 6

  19871858.648 9 106226462.599 9  19871864.422 6  19871865.074 6  82620609.813 6

  21692610.648 9 113995622.412 9                  21692618.09849  88827619.05149

  20639742.750 9 110525843.434 9  20639746.621 7  20639746.590 7  85963795.275 7

  22359438.070 8 117499681.316 8                  22359445.42248  91558225.52448

  20770912.648 9 109151866.371 9  20770919.277 8  20770919.00849  85053426.16949

  24194270.727 6 127141662.272 6  24194281.996 6  24194281.20746  99071463.60146
  24194282.465 8  94943467.676 8
  20151535.313 9 105896995.834 9                  20151538.80549  82517151.59149

  24025547.805 7 126255099.426 7  24025558.430 6  24025557.73846  98380640.08446

  22932628.711 7 120511650.457 7  22932636.770 6  22932637.07447  93905308.10647

  20014261.602 9 107062951.889 9  20014268.523 7  20014268.770 7  83271079.707 7

  23184804.680 6 123718575.622 6  23184812.746 5  23184812.406 3  96225585.826 3

 15  2  1  0 36 30.0000000  0 15G30G06R10R24R01G10R08G13G05G09G02G07
                                G29R23R02
  24058413.156 6 126427828.414 6  24058425.656 5  24058425.30546  98515241.90946
  24058425.973 8  94410418.822 8
  22218203.008 8 116757381.650 8  22218214.273 7  22218213.56649  90979804.19049
  22218214.008 9  87188976.937 9
  23950759.406 6 127671020.097 6  23950772.930 1  23950771.742 1  99299740.646 1

  19835607.469 9 106069889.468 9  19835611.391 6  19835611.000 6  82498820.533 6

  19868025.586 9 106205975.206 9  19868031.566 6  19868032.281 6  82604675.167 6

  21706389.078 9 114068025.444 9                  21706395.42649  88884036.90149

  20653605.383 9 110600082.445 9  20653609.941 7  20653609.633 6  86021536.692 6

  22340648.656 7 117400943.633 7                  22340656.41848  91481287.10148

  20766564.711 9 109129017.359 9  20766570.699 8  20766570.71549  85035621.74349

  24213265.266 6 127241478.538 6  24213277.316 6  24213276.44546  99149242.32146
  24213277.707 8  95018005.578 8
  20150270.641 9 105890351.332 9                  20150274.45349  82511974.03349

  24020706.758 6 126229660.015 6  24020715.875 5  24020716.07846  98360817.11146

  22919675.469 7 120443578.433 7  22919683.234 6  22919682.81348  93852264.98148

  20027776.227 9 107135242.704 9  20027782.082 7  20027783.109 7  83327305.834 7

  23168048.375 6 123629160.332 6  23168056.113 5  23168056.477 5  96156040.732 5

 15  2  1  0 37  0.0000000  0 15G30G06R10R24R01G10R08G13G05G09G02G07
                                G29R23R02
  24046422.602 6 126364821.557 6  24046435.715 5  24046435.02346  98466145.70146
  24046436.395 8  94363368.335 8
  22232000.414 8 116829887.637 8  22232012.090 7  22232011.51249  91036302.25349
  22232011.719 9  87243120.896 9
  23934667.320 6 127585237.952 6  23934678.645 1                  99233017.22011

  19826217.953 9 106019679.567 9  19826220.641 6  19826221.035 6  82459768.377 6

  19864276.609 9 106185929.335 9  19864281.688 6  19864282.359 6  82589083.922 6

  21720195.375 9 114140578.538 9                  21720201.95349  88940571.70149

  20667506.117 9 110674518.151 9  20667511.227 7  20667510.988 7  86079431.045 7

  22321914.727 8 117302495.045 8                  22321921.59848  91404573.92148

  20762270.219 9 109106447.020 9  20762276.453 8  20762276.18049  85018034.45949

  24232295.281 6 127341475.690 6  24232305.738 6  24232306.18446  99227162.00946
  24232306.797 8  95092678.574 8
  20149081.930 9 105884105.234 9                  20149085.57849  82507106.89449

  24015952.406 6 126204674.343 6  24015962.410 5  24015961.91846  98341347.75746

  22906806.133 7 120375954.181 7  22906814.586 6  22906814.52048  93799570.74848

  20041416.094 9 107208206.746 9  20041422.285 7  20041423.066 7  83384055.590 7

  23151339.031 6 123539991.662 6  23151345.672 5  23151345.930 5  96086687.393 5

 15  2  1  0 37 30.0000000  0 15G30G06R10R24R01G10R08G13G05G09G02G07
                                G29R23R02
  24034484.195 5 126302084.029 5  24034496.563 5  24034496.57446  98417259.37146
  24034497.594 8  94316518.962 8
  22245853.656 8 116902685.480 8  22245864.738 7  22245864.18049  91093027.71849
  22245864.508 9  87297482.779 9
  23918634.148 7 127499775.615 7  23918647.234 1  23918647.688 1  99166550.50611

  19816962.273 9 105970186.494 9  19816966.102 6  19816966.043 6  82421273.767 6

  19860608.289 9 106166324.689 9  19860614.055 6  19860614.723 5  82573835.844 5

  21734030.055 9 114213281.182 9                  21734037.20349  88997223.03149

  20681443.625 9 110749148.820 9  20681447.488 7  20681447.508 7  86137477.039 7

  22303235.516 8 117204338.675 8                  22303243.31648  91328088.47148

  20758027.781 9 109084156.021 9  20758034.316 8  20758034.15649  85000664.85549

  24251357.398 5 127441651.897 5  24251368.672 6  24251368.52046  99305221.19146
  24251369.953 8  95167485.248 8
  20147969.383 9 105878259.160 9                  20147973.28149  82502551.46049

  24011284.219 7 126180144.743 7  24011293.797 5  24011293.92246  98322233.77046

  22894023.758 7 120308780.303 7  22894031.934 6  22894031.54748  93747227.47048

  20055181.648 9 107281842.444 9  20055188.020 7  20055188.762 7  83441327.738 7

  23134674.594 6 123451070.412 6  23134682.746 5  23134681.695 5  96017526.523 5

 15  2  1  0 38  0.0000000  0 15G30G06R10R24R01G10R08G13G05G09G02G07
                                G29R23R02
  24022597.375 6 126239618.082 6  24022610.715 5  24022610.43846  98368584.64946
  24022610.641 8  94269872.359 8
  22259761.711 8 116975773.900 8  22259773.012 7  22259772.13749  91149979.62849
  22259772.754 9  87352061.669 9
  23902663.508 7 127414637.549 7  23902676.484 1  23902675.410 1  99100332.102 1

  19807841.625 9 105921412.362 9  19807844.246 6  19807844.555 6  82383338.316 6

  19857023.320 9 106147159.248 9  19857029.141 6  19857029.934 6  82558929.386 6

  21747893.391 9 114286131.165 9                  21747900.29349  89053989.17949

  20695416.086 9 110823971.147 9  20695419.813 7  20695419.496 7  86195672.130 7

  22284613.461 8 117106476.275 8                  22284620.55948  91251832.08148

  20753839.031 9 109062143.170 9  20753845.809 8  20753845.66449  84983511.98649

  24270453.773 6 127542003.966 6  24270465.652 6  24270465.39846  99383417.43146
  24270466.426 8  95242423.264 8
  20146933.656 9 105872813.902 9                  20146936.99249  82498308.35949

  24006704.281 7 126156072.411 7  24006713.188 5  24006713.00846  98303476.08746

  22881327.859 7 120242058.659 7  22881335.594 7  22881335.51248  93695236.57248

  20069071.930 9 107356146.382 9  20069078.234 7  20069078.730 7  83499119.630 7

  23118058.344 7 123362396.641 7  23118065.184 5  23118064.898 4  95948558.117 4

 15  2  1  0 38 30.0000000  0 15G30G06R10R24R01G10R08G13G05G09G02G07
                                G29R23R02
  24010762.609 6 126177426.829 6  24010776.656 6  24010775.60946  98320123.98446
  24010775.926 8  94223430.888 8
  22273725.250 8 117049152.567 8  22273736.797 7  22273736.31648  91207157.70648
  22273736.582 9  87406857.317 9
  23886752.078 7 127329827.945 7  23886765.016 1  23886765.234 1  99034369.174 1

  19798855.664 9 105873360.341 9  19798859.145 6  19798859.277 6  82345964.512 6

  19853520.664 9 106128432.293 9  19853525.777 6  19853526.699 6  82544363.983 6

  21761783.938 9 114359127.670 9                  21761790.65249  89110869.49849

  20709423.906 9 110898983.117 9  20709428.570 7  20709428.809 6  86254014.717 6

  22266046.688 8 117008910.621 8                  22266054.26648  91175806.92748

  20749703.008 9 109040408.011 9  20749709.383 7  20749709.16049  84966575.50549

  24289583.172 5 127642529.494 5  24289595.320 6  24289595.02347  99461748.83447
  24289595.109 8  95317490.807 8
  20145973.930 9 105867770.915 9                  20145977.29349  82494378.72749

  24002210.617 7 126132459.095 7  24002220.199 5  24002219.66446  98285076.09946

  22868716.602 7 120175791.236 7  22868725.336 6  22868725.39548  93643599.62248

  20083086.805 9 107431116.331 9  20083093.305 7  20083093.664 7  83557429.522 7

  23101486.742 6 123273970.989 6  23101493.836 5  23101493.309 5  95879782.737 5

 15  2  1  0 39  0.0000000  0 15G30G06R10R24R01G10R08G13G05G09G02G07
                                G29R23R02
  23998981.508 6 126115513.112 6  23998994.184 6  23998994.05946  98271879.53646
  23998994.023 8  94177196.669 8
  22287743.781 8 117122820.777 8  22287755.563 7  22287754.83249  91264561.39949
  22287755.336 9  87461869.157 9
  23870905.039 7 127245350.795 7  23870917.211 1  23870916.727 1  98968664.840 1

  19790005.375 9 105826033.062 9  19790008.586 6  19790008.398 6  82309154.399 6

  19850098.289 9 106110142.428 9  19850104.469 6  19850104.688 6  82530138.552 6

  21775702.555 9 114432269.593 9                  21775709.17649  89167863.13049

  20723466.711 9 110974182.210 9  20723470.734 7  20723471.055 7  86312502.839 7

  22247537.344 8 116911643.830 8                  22247545.06348  91100014.65148

  20745619.695 9 109018949.797 9  20745626.125 8  20745625.89849  84949854.82549

  24308745.055 5 127743225.890 5  24308756.816 6  24308757.30946  99540213.33646
  24308757.395 8  95392685.937 8
  20145091.242 9 105863131.296 9                  20145095.10549  82490763.40849

  23997804.078 7 126109306.188 7  23997814.363 5  23997814.26646  98267034.86246

  22856193.906 7 120109980.732 7  22856201.969 7  22856202.25048  93592318.73948

  20097225.867 9 107506749.741 9  20097232.371 7  20097232.734 7  83616255.450 7

  23084960.930 5 123185794.117 5  23084969.766 5  23084969.313 4  95811200.820 4

 15  2  1  0 39 30.0000000  0 15G30G06R10R24R01G10R08G13G05G09G02G07
                                G29R23R02
  23987253.086 6 126053879.706 6  23987266.199 6  23987265.31646  98223853.58946
  23987264.813 7  94131171.788 7
  22301817.844 8 117196777.860 8  22301829.328 7  22301829.01248  91322190.19448
  22301829.047 9  87517096.734 9
  23855118.516 7 127161210.911 7  23855131.715 1  23855132.641 1  98903222.858 1

  19781291.195 9 105779433.220 9  19781294.461 6  19781294.148 6  82272910.061 6

  19846758.273 9 106092288.339 9  19846764.172 6  19846764.848 5  82516252.046 5

  21789648.313 9 114505555.294 9                  21789655.35949  89224968.79449

  20737544.203 9 111049565.897 9  20737549.703 7  20737549.164 6  86371134.523 6

  22229085.781 7 116814678.651 7                  22229092.66048  91024457.40348

  20741589.281 9 108997768.115 9  20741595.461 8  20741595.50449  84933349.61549

  24327939.602 5 127844090.706 5  24327951.520 6  24327950.93046  99618809.10646
  24327951.488 8  95468006.838 8
  20144285.250 9 105858896.566 9                  20144288.39149  82487463.58249

  23993486.859 7 126086615.298 7  23993496.734 5  23993496.71946  98249353.59946

  22843758.367 7 120044629.149 7  22843765.680 6  22843765.16848  93541395.41448

  20111488.484 9 107583043.977 9  20111494.422 7  20111494.820 7  83675595.339 7

  23068484.586 6 123097866.606 6  23068491.406 3  23068490.934 4  95742812.869 4

 15  2  1  0 40  0.0000000  0 15G30G06R10R24R01G10R08G13G05G09G02G07
                                G29R23R02
  23975578.195 6 125992529.678 6  23975591.773 6  23975591.51247  98176048.48047
  23975589.543 7  94085358.539 7
  22315946.664 8 117271023.455 8  22315957.910 7  22315957.09449  91380043.80549
  22315957.652 9  87572539.761 9
  23839400.563 7 127077412.522 7  23839411.332 1  23839412.141 1  98838046.493 1

  19772712.625 9 105733564.240 9  19772716.637 6  19772716.211 6  82237234.179 6

  19843500.063 9 106074869.004 9  19843505.363 6  19843506.066 5  82502703.677 5

  21803620.719 8 114578983.869 8                  21803628.55149  89282185.78549

  20751655.648 9 111125132.159 9  20751659.891 6  20751660.445 6  86429908.207 6

  22210692.297 8 116718017.386 8                  22210699.15248  90949136.95848

  20737610.906 9 108976862.975 9  20737617.273 7  20737616.94149  84917059.89849

  24347164.953 5 127945121.412 5  24347177.203 6  24347177.12546  99697534.14846
  24347177.625 8  95543451.609 8
  20143556.555 9 105855067.960 9                  20143560.63749  82484480.21449

  23989256.609 7 126064388.063 7  23989266.684 5  23989266.25446  98232033.68346

  22831409.836 7 119979738.615 7  22831417.578 6  22831417.66048  93490831.34748

  20125873.422 9 107659996.573 9  20125879.359 7  20125880.230 6  83735447.297 6

  23052054.773 7 123010189.114 7  23052060.492 4  23052060.750 3  95674619.338 3

 15  2  1  0 40 30.0000000  0 15G30G06R10R24R01G10R08G13G05G09G02G07
                                G29R23R02
  23963957.438 6 125931465.832 6  23963971.320 6  23963971.53546  98128466.33346
  23963970.563 8  94039758.969 8
  22330129.500 8 117345556.794 8  22330141.480 7  22330140.88749  91438121.61549
  22330141.270 9  87628197.638 9
  23823743.367 6 126993959.947 6  23823757.672 1  23823756.953 1  98773139.086 1

  19764272.320 9 105688428.208 9  19764275.680 6  19764276.016 6  82202128.368 6

  19840322.508 9 106057883.121 9  19840328.121 6  19840328.582 6  82489492.420 6

  21817620.930 9 114652554.105 9                  21817628.18449  89339513.14949

  20765800.031 9 111200878.336 9  20765805.707 7  20765805.398 6  86488821.839 6

  22192355.859 8 116621662.437 8                  22192364.09048  90874055.20848

  20733685.063 9 108956233.644 9  20733691.184 8  20733691.08249  84900985.07049

  24366421.430 5 128046315.515 5  24366434.035 6  24366434.10946  99776386.49246
  24366434.605 8  95619018.401 8
  20142905.648 9 105851646.776 9                  20142909.46949  82481814.32749

  23985115.406 7 126042625.977 7  23985125.461 5  23985125.41446  98215076.17646

  22819149.648 7 119915311.139 7  22819156.922 6  22819157.12548  93440628.13448

  20140381.805 9 107737604.797 9  20140388.523 7  20140389.172 6  83795809.182 6

  23035669.063 6 122922762.266 6  23035676.559 4  23035676.172 3  95606620.759 3

 15  2  1  0 41  0.0000000  0 16G30G06R10R24R01G10G15R08G13G05G09G02
                                G07G29R23R02
  23952392.523 6 125870691.117 6  23952406.445 6  23952405.64546  98081109.49346
  23952405.492 8  93994375.365 8
  22344367.477 8 117420377.327 8  22344379.477 7  22344378.40648  91496423.22648
  22344379.262 9  87684069.995 9
  23808153.773 6 126910857.699 6  23808165.805 1  23808166.496 1  98708504.189 1

  19755969.484 9 105644028.272 9  19755973.398 6  19755973.434 6  82167595.075 6

  19837225.750 9 106041329.756 9  19837231.555 6  19837232.199 6  82476617.575 6

  21831647.664 8 114726264.667 8                  21831655.43049  89396949.86649

  25138210.742 6 132102186.70716  25138221.910 3  25138222.13745 102936823.30455

  20779979.094 9 111276802.273 9  20779984.176 7  20779984.320 7  86547873.724 7

  22174078.758 8 116525616.417 8                  22174086.44148  90799214.17948

  20729811.961 9 108935880.030 9  20729818.270 8  20729818.18049  84885125.10449

  24385709.266 6 128147670.588 6  24385721.547 6  24385721.63746  99855364.25746
  24385721.898 8  95694705.385 8
  20142332.375 9 105848634.244 9                  20142335.78149  82479466.85949

  23981063.875 7 126021330.686 7  23981073.457 6  23981073.37946  98198482.41846

  22806978.219 7 119851349.361 7  22806985.867 6  22806985.68048  93390787.80248

  20155012.344 9 107815865.968 9  20155018.941 7  20155019.227 7  83856678.922 7

  23019332.906 6 122835586.502 6  23019339.816 4  23019340.246 3  95538817.457 3

 15  2  1  0 41 30.0000000  0 16G30G06R10R24R01G10G15R08G13G05G09G02
                                G07G29R23R02
  23940882.469 6 125810208.424 6  23940896.785 5  23940896.14846  98033980.18746
  23940894.707 7  93949209.802 7
  22358660.438 8 117495484.492 8  22358671.574 7  22358671.12949  91554948.18549
  22358671.750 9  87740156.388 9
  23792630.672 6 126828110.099 6  23792643.230 1  23792643.332 1  98644145.130 1

  19747804.195 9 105600366.803 9  19747808.016 6  19747807.852 6  82133636.141 6

  19834209.766 9 106025207.504 9  19834215.832 6  19834216.035 6  82464078.040 6

  21845701.008 8 114800114.577 8                  21845708.90248  89454495.15248

  25116360.313 6 131987358.412 6  25116370.164 3  25116370.55545 102847346.73145

  20794190.211 9 111352901.573 9  20794194.844 7  20794195.203 7  86607062.007 7

  22155861.438 8 116429881.571 8                  22155869.10948  90724615.63348

  20725991.383 9 108915801.553 9  20725997.773 8  20725997.61749  84869479.53649

  24405027.180 5 128249184.159 5  24405039.121 6  24405038.75846  99934465.53346
  24405039.488 8  95770510.743 8
  20141837.469 9 105846031.592 9                  20141840.75049  82477438.80349

  23977099.164 6 126000503.670 6  23977109.707 5  23977109.66046  98182253.55746

  22794895.813 7 119787855.254 7  22794903.613 7  22794904.11348  93341311.91748

  20169763.703 9 107894777.426 9  20169769.938 7  20169770.852 7  83918054.449 7

  23003043.656 7 122748662.251 7  23003050.227 5  23003049.848 4  95471209.851 4

 15  2  1  0 42  0.0000000  0 16G30G06R10R24R01G10G15R08G13G05G09G02
                                G07G29R23R02
  23929430.219 6 125750020.545 6  23929442.453 5  23929442.60546  97987080.62046
  23929442.926 8  93904264.384 8
  22373006.938 8 117570877.593 8  22373018.395 7  22373018.03948  91613695.94748
  22373018.246 9  87796456.310 9
  23777173.672 6 126745721.291 6  23777187.738 1  23777186.785 1  98580065.160 1

  19739778.453 9 105557446.870 9  19739781.406 6  19739781.445 6  82100253.940 6

  19831274.422 9 106009515.269 9  19831279.773 6  19831280.766 6  82451872.967 6

  21859780.969 8 114874102.685 8                  21859787.96549  89512148.13749

  25094516.320 5 131872580.687 5  25094529.160 4  25094528.66845 102757909.67545

  20808433.313 9 111429173.905 9  20808437.496 6  20808437.652 6  86666384.859 6

  22137702.969 8 116334460.223 8                  22137710.79748  90650261.37548

  20722222.422 9 108895997.955 9  20722229.102 8  20722228.64849  84854048.14149

  24424373.938 5 128350853.727 5  24424386.535 6  24424386.09446 100013688.38246
  24424386.945 8  95846432.562 8
  20141420.156 9 105843840.222 9                  20141423.49649  82475731.21349

  23973226.367 7 125980146.237 7  23973236.203 5  23973235.83246  98166390.57446

  22782901.586 7 119724830.836 7  22782910.094 6  22782909.86747  93292201.97647

  20184636.539 9 107974336.829 9  20184643.039 7  20184643.246 7  83979933.916 7

  22986800.539 7 122661990.222 7  22986808.316 4  22986808.547 4  95403798.401 4

 15  2  1  0 42 30.0000000  0 16G30G06R10R24R01G10G15R08G13G05G09G02
                                G07G29R23R02
  23918032.586 6 125690130.317 6  23918045.281 5  23918044.83246  97940412.97946
  23918045.797 8  93859541.279 8
  22387407.805 8 117646555.975 8  22387419.375 7  22387418.75049  91672666.00049
  22387419.133 9  87852969.257 9
  23761785.750 6 126663696.091 6  23761799.082 1  23761798.715 1  98516267.948 1

  19731891.141 9 105515270.801 9  19731894.078 6  19731893.887 6  82067450.321 6

  19828418.719 9 105994251.801 9  19828424.184 6  19828424.988 6  82440001.383 6

  21873885.938 8 114948227.297 8                  21873893.79349  89569907.49749

  25072686.117 5 131757855.818 5  25072696.910 3  25072696.79745 102668513.82345

  20822709.289 9 111505616.759 9  20822713.266 7  20822713.586 7  86725840.354 7

  22119604.984 8 116239354.878 8                  22119612.23048  90576153.33048

  20718506.430 9 108876468.577 9  20718513.031 8  20718512.96949  84838830.42749

  24443749.734 5 128452676.750 5  24443763.133 6  24443763.16046 100093030.76346
  24443763.598 8  95922468.988 8
  20141081.695 9 105842061.181 9                  20141084.98849  82474344.94049

  23969441.625 6 125960259.954 6  23969452.234 5  23969451.60546  98150894.72046

  22770999.000 7 119662278.293 7  22771006.520 6  22771006.25847  93243459.72847

  20199629.977 9 108054540.834 9  20199636.070 7  20199636.559 7  84042314.748 7

  22970606.477 7 122575570.726 7  22970612.238 5  22970612.723 4  95336583.303 4

 15  2  1  0 43  0.0000000  0 16G30G06R10R24R01G10G15R08G13G05G09G02
                                G07G29R23R02
  23906694.242 7 125630540.541 7  23906706.219 6  23906705.71947  97893979.45647
  23906706.449 8  93815042.507 8
  22401863.273 8 117722518.938 8  22401874.930 7  22401874.27748  91731857.81848
  22401875.012 9  87909694.715 9
  23746467.305 6 126582037.982 6  23746480.820 2  23746480.770 1  98452756.274 1

  19724144.109 9 105473841.338 9  19724146.883 6  19724146.957 6  82035227.391 6

  19825643.219 9 105979415.864 9  19825648.867 6  19825650.008 6  82428462.316 6

  21888017.109 8 115022487.424 8                  21888025.23449  89627772.44349

  25050864.477 5 131643185.675 5  25050875.727 3  25050875.26245 102579160.49545

  20837015.828 9 111582228.096 9  20837020.641 7  20837020.430 6  86785426.872 6

  22101567.922 8 116144567.893 8                  22101575.57448  90502293.38048

  20714842.305 9 108857212.745 9  20714848.730 8  20714848.85249  84823825.87649

  24463155.906 5 128554650.682 5  24463167.855 5  24463168.17246 100172490.77846
  24463168.492 8  95998618.129 8
  20140822.164 9 105840695.691 9                  20140825.77049  82473280.90049

  23965748.078 7 125940846.535 7  23965757.820 5  23965757.56646  98135767.31646

  22759185.156 7 119600199.652 7  22759193.613 6  22759193.72348  93195086.74648

  20214742.922 9 108135387.110 9  20214750.109 7  20214750.984 7  84105195.128 7

  22954458.578 7 122489404.083 7  22954465.211 5  22954465.516 4  95269564.867 4

 15  2  1  0 43 30.0000000  0 16G30G06R10R24R01G10G15R08G13G05G09G02
                                G07G29R23R02
  23895411.508 6 125571254.240 6  23895424.129 5  23895423.72746  97847782.40446
  23895424.340 8  93770770.365 8
  22416372.820 8 117798765.905 8  22416384.129 7  22416383.53548  91791270.91848
  22416384.211 9  87966632.257 9
  23731219.891 6 126500752.101 6  23731231.188 1  23731230.820 1  98389534.047 1

  19716535.867 9 105433160.990 9  19716539.441 6  19716539.547 6  82003587.107 6

  19822947.797 9 105965005.830 9  19822953.313 6  19822954.164 6  82417254.510 6

  21902174.289 8 115096882.399 8                  21902181.86749  89685742.45949

  25029054.164 5 131528572.378 5  25029065.957 4  25029065.63745 102489851.49945

  20851353.125 9 111659005.770 9  20851357.043 6  20851357.117 6  86845142.769 6

  22083591.555 8 116050101.871 8                  22083599.23848  90428683.53148

  20711230.094 9 108838230.511 9  20711236.430 8  20711236.28149  84809034.51349

  24482589.039 5 128656773.257 5  24482601.145 5  24482601.15645 100252066.61745
  24482601.477 7  96074878.270 7
  20140641.000 9 105839744.710 9                  20140644.62949  82472539.84149

  23962143.797 6 125921907.136 6  23962153.816 5  23962153.07046  98121009.32146

  22747462.914 7 119538596.880 7  22747471.789 7  22747471.94948  93147084.61648

  20229976.406 9 108216872.656 9  20229983.020 7  20229983.563 7  84168572.702 7

  22938358.500 7 122403491.189 7  22938364.969 3  22938364.844 4  95202743.787 4

 15  2  1  0 44  0.0000000  0 17G30G06R10R24R01G10R17G15R08G13G05G09
                                G02G07G29R23R02
  23884187.398 6 125512274.323 6  23884201.203 6  23884200.76246  97801824.08546
  23884201.082 8  93726726.992 8
  22430936.227 8 117875296.395 8  22430947.891 7  22430947.27748  91850904.96448
  22430948.016 9  88023781.522 9
  23716040.305 6 126419842.595 6  23716051.770 1  23716051.637 1  98326604.632 1

  19709069.617 9 105393232.476 9  19709073.367 6  19709072.523 6  81972531.575 6

  19820331.281 9 105951021.032 9  19820337.016 6  19820337.840 5  82406377.443 5

  21916356.391 8 115171410.975 8                  21916364.55548  89743816.57548

  23532296.484 4 125925912.64714  23532299.316 1  23532299.727 1  97942510.06111

  25007256.688 6 131414018.054 6  25007266.887 4  25007266.58645 102400588.54245

  20865721.023 9 111735947.336 9  20865726.066 6  20865725.555 6  86904986.163 6

  22065676.336 8 115955959.208 8                  22065684.51248  90355325.65548

  20707669.492 9 108819521.421 9  20707676.512 8  20707676.05549  84794455.99649

  24502050.438 5 128759042.099 5  24502062.531 5  24502062.19546 100331756.47346
  24502063.336 7  96151247.642 7
  20140539.180 9 105839210.375 9                  20140542.85949  82472123.44449

  23958629.852 7 125903443.530 7  23958639.891 5  23958639.00046  98106622.03746

  22735831.227 7 119477472.096 7  22735839.633 6  22735839.27348  93099454.90748

  20245328.281 9 108298994.935 9  20245334.438 7  20245334.676 7  84232445.523 7

  22922306.250 7 122317832.582 7  22922312.512 3  22922312.102 3  95136120.526 3

 15  2  1  0 44 30.0000000  0 17G30G06R10R24R01G10R17G15R08G13G05G09
                                G02G07G29R23R02
  23873022.758 6 125453603.385 6  23873036.402 6  23873036.11746  97756106.52546
  23873036.320 8  93682914.358 8
  22445553.000 8 117952109.480 8  22445565.270 7  22445564.40248  91910759.19048
  22445565.020 9  88081141.799 9
  23700932.875 6 126339313.820 6  23700945.660 1  23700944.941 1  98263971.290 1

  19701743.648 9 105354058.083 9  19701748.113 6  19701747.699 6  81942062.592 6

  19817794.203 9 105937459.607 9  19817799.625 6  19817800.371 5  82395829.686 5

  21930564.117 8 115246071.737 8                  21930571.79748  89801993.70548

  23509021.023 4 125801353.239 4  23509023.055 1  23509023.699 1  97845630.579 1

  24985467.578 5 131299524.406 5  24985479.617 3  24985478.82045 102311372.72245

  20880119.945 9 111813050.566 9  20880124.707 6  20880124.457 6  86964955.284 6

  22047824.156 8 115862142.099 8                  22047832.04348  90282221.45948

  20704161.281 9 108801084.827 9  20704168.344 8  20704168.22749  84780089.83149

  24521539.305 5 128861454.499 5  24521552.145 5  24521551.07046 100411558.13446
  24521552.039 7  96227724.196 7
  20140517.266 9 105839093.027 9                  20140520.31349  82472031.98049

  23955207.063 6 125885456.968 6  23955217.172 6  23955217.18446  98092606.48846

  22724291.008 7 119416827.378 7  22724299.320 6  22724299.53548  93052199.29348

  20260798.445 9 108381750.889 9  20260805.160 7  20260805.566 7  84296811.207 7

  22906300.211 7 122232428.410 7  22906308.141 3  22906307.844 3  95069695.132 3

 15  2  1  0 45  0.0000000  0 17G30G06R10R24R01G10R17G15R08G13G05G09
                                G02G07G29R23R02
  23861917.461 6 125395244.194 6  23861930.914 6  23861930.19546  97710631.90646
  23861930.105 7  93639334.517 7
  22460224.000 7 118029204.401 7  22460235.191 7  22460234.78148  91970833.04448
  22460235.926 9  88138712.556 9
  23685896.789 6 126259169.533 6  23685910.117 1  23685909.867 1  98201637.013 1

  19694559.203 9 105315640.150 9  19694563.125 6  19694562.625 6  81912181.969 6

  19815336.805 9 105924320.526 9  19815342.770 6  19815343.137 5  82385610.403 5

  21944796.250 8 115320863.459 8                  21944804.07448  89860272.88448

  23485775.109 2 125676976.717 2  23485781.977 1  23485782.035 1  97748893.391 1

  24963692.289 5 131185094.089 5  24963704.090 4  24963703.43845 102222206.32445

  20894548.164 9 111890313.098 9  20894553.137 6  20894553.266 6  87025048.305 6

  22030033.430 8 115768652.748 8                  22030040.84048  90209372.63648

  20700705.070 9 108782920.381 9  20700711.309 8  20700710.91049  84765935.70049

  24541053.430 5 128964008.021 5  24541066.438 5  24541066.56345 100491469.78445
  24541067.121 7  96304306.129 7
  20140574.484 9 105839394.103 9                  20140578.01649  82472266.56449

  23951875.375 6 125867948.633 6  23951886.164 5  23951885.84846  98078963.58646

  22712842.047 7 119356664.899 7  22712850.867 6  22712850.87547  93005319.47447

  20276387.516 9 108465137.742 9  20276392.883 7  20276393.660 7  84361667.580 7

  22890344.984 7 122147279.201 7  22890350.340 3  22890350.578 3  95003468.009 3

 15  2  1  0 45 30.0000000  0 17G30G06R10R24R01G10R17G15R08G13G05G09
                                G02G07G29R23R02
  23850872.328 6 125337199.664 6  23850885.883 6  23850885.30947  97665402.46647
  23850884.512 8  93595989.621 8
  22474948.391 8 118106580.576 8  22474959.914 7  22474959.17648  92031126.03348
  22474960.266 9  88196493.301 9
  23670936.594 7 126179414.637 7  23670948.070 1  23670947.586 1  98139605.559 1

  19687516.555 9 105277981.482 9  19687520.551 6  19687520.039 6  81882891.887 6

  19812957.594 9 105911602.591 9  19812963.043 6  19812964.000 6  82375718.666 6

  21959053.867 8 115395785.155 8                  21959061.57049  89918653.34249

  23462567.375 1 125552787.058 1  23462575.051 1  23462575.227 1  97652301.502 1

  24941928.945 5 131070729.053 5  24941941.051 5  24941940.69945 102133090.82745

  20909005.539 9 111967732.472 9  20909011.090 7  20909011.258 7  87085263.306 7

  22012305.836 8 115675493.530 8                  22012313.24648  90136781.06548

  20697300.031 9 108765027.544 9  20697306.387 8  20697306.50849  84751993.23049

  24560596.453 5 129066700.246 5  24560608.902 5  24560607.94945 100571489.49345
  24560609.148 7  96380991.650 7
  20140711.555 9 105840114.772 9                  20140715.00449  82472828.09149

  23948635.648 6 125850919.779 6  23948645.398 5  23948645.44546  98065694.32446

  22701486.594 7 119296986.663 7  22701494.668 6  22701494.44948  92958816.95848

  20292092.406 9 108549152.446 9  20292098.809 7  20292099.348 7  84427012.278 7

  22874435.359 7 122062385.523 7  22874442.602 4  22874442.578 4  94937439.632 4

 15  2  1  0 46  0.0000000  0 17G30G06R10R24R01G10G15R08G13G05G09G02
                                G07G29R23R02R09
  23839886.836 6 125279472.583 6  23839900.602 5  23839900.34847  97620420.40947
  23839898.906 7  93552881.798 7
  22489725.898 7 118184237.220 7  22489737.496 7  22489737.06648  92091637.59348
  22489737.918 9  88254483.530 9
  23656048.102 6 126100053.101 6  23656061.160 1  23656060.207 1  98077880.036 1

  19680617.125 9 105241084.005 9  19680620.625 6  19680620.695 6  81854193.830 6

  19810656.563 9 105899304.248 9  19810661.625 5  19810662.863 5  82366153.276 5

  21973335.266 8 115470835.702 8                  21973343.35948  89977134.18948

  24920179.203 6 130956431.305 6  24920190.902 4  24920190.60545 102044027.71345

  20923493.273 9 112045306.886 9  20923497.703 6  20923497.672 6  87145598.894 6

  21994641.242 8 115582666.931 8                  21994648.71148  90064448.67648

  20693946.422 9 108747405.902 9  20693953.273 8  20693952.94949  84738262.08649

  24580164.305 5 129169528.692 5  24580176.809 5  24580175.61345 100651615.33345
  24580176.641 7  96457778.889 7
  20140928.594 9 105841256.042 9                  20140932.17649  82473717.36949

  23945486.172 7 125834371.950 7  23945497.270 5  23945496.60546  98052799.86146

  22690221.617 7 119237794.694 7  22690230.551 6  22690230.37147  92912693.34747

  20307915.547 9 108633791.904 9  20307921.246 6  20307921.867 6  84492842.901 6

  22858573.133 7 121977747.443 7  22858581.176 4  22858581.230 3  94871610.056 3

  23869808.492 2 127463451.21212

 15  2  1  0 46 30.0000000  0 17G30G06R10R24R01G10G15R08G13G05G09G02
                                G07G29R23R02R09
  23828962.938 7 125222065.613 7  23828975.953 5  23828974.66446  97575687.78546
  23828975.629 7  93510013.013 7
  22504557.047 7 118262173.598 7  22504568.637 7  22504567.82048  92152367.11948
  22504568.789 9  88312682.621 9
  23641234.578 6 126021089.496 6  23641246.633 1  23641245.914 1  98016464.029 1

  19673859.750 9 105204950.151 9  19673863.012 6  19673863.199 6  81826089.705 6

  19808434.375 9 105887424.098 9  19808439.965 6  19808441.031 6  82356913.146 6

  21987641.625 8 115546013.771 8                  21987649.88749  90035714.42549

  24898441.469 5 130842202.675 5  24898453.441 4  24898452.98045 101955018.43945

  20938007.281 9 112123033.869 9  20938011.984 7  20938011.996 7  87206053.149 7

  21977041.133 8 115490175.199 8                  21977048.39848  89992377.22248

  20690645.023 9 108730054.986 9  20690651.449 8  20690651.47749  84724741.88649

  24599758.719 5 129272490.859 5  24599770.125 5  24599769.37945 100731845.41245
  24599769.992 7  96534666.010 7
  20141226.023 9 105842819.167 9                  20141229.80949  82474935.37649

  23942429.703 7 125818306.426 7  23942439.059 5  23942438.90646  98040281.21346

  22679051.359 7 119179090.967 7  22679059.180 6  22679059.54748  92866950.20448

  20323854.063 9 108719053.301 9  20323860.078 7  20323860.707 7  84559157.257 7

  22842759.773 7 121893365.654 7  22842767.258 4  22842766.578 4  94805979.799 4

  23869856.078 1 127463693.172 1

 15  2  1  0 47  0.0000000  0 16G30G06R10R24R01G10G15R08G13G05G09G02
                                G07G29R23R02
  23818100.422 7 125164981.738 7  23818112.695 5  23818112.01246  97531206.86646
  23818112.801 8  93467385.477 8
  22519440.828 7 118340389.072 7  22519453.020 7  22519452.26648  92213314.12748
  22519452.824 9  88371090.151 9
  23626496.219 6 125942527.502 6  23626509.438 1  23626507.777 1  97955360.383 1

  19667245.914 9 105169582.520 9  19667249.242 6  19667248.910 6  81798581.538 6

  19806290.289 9 105875961.191 9  19806295.574 6  19806296.559 5  82347997.537 5

  22001971.406 8 115621318.380 8                  22001979.59048  90094393.24348

  24876718.305 5 130728045.458 5  24876730.715 5  24876730.14145 101866064.83445

  20952550.844 9 112200911.209 9  20952555.531 6  20952555.371 6  87266624.341 6

  21959504.281 8 115398020.617 8                  21959511.77048  89920568.47948

  20687394.719 9 108712974.461 9  20687401.141 8  20687400.81649  84711432.38149

  24619375.852 5 129375584.425 5  24619387.582 4  24619387.89545 100812177.87045
  24619388.277 7  96611651.231 7
  20141604.195 9 105844805.284 9                  20141607.97749  82476482.96849

  23939463.961 6 125802724.690 6  23939474.238 5  23939474.26246  98028139.57346

  22667973.516 7 119120877.278 7  22667981.422 6  22667981.07447  92821588.89747

  20339908.430 9 108804933.830 9  20339914.914 7  20339915.488 6  84625953.154 6

  22826996.969 7 121809240.542 7  22827002.781 4  22827002.672 4  94740549.229 4

 15  2  1  0 47 30.0000000  0 17G30G06R10R24R01G10G15R08G13G05G09G02
                                G07G29R23R02R09
  23807299.273 7 125108223.801 7  23807311.605 6  23807311.00847  97486979.90247
  23807312.383 8  93425001.349 8
  22534377.875 7 118418883.019 7  22534389.859 7  22534389.02748  92274478.13148
  22534389.469 9  88429705.626 9
  23611833.695 7 125864372.191 7  23611847.719 1  23611846.531 1  97894573.039 1

  19660774.805 9 105134983.355 9  19660778.445 6  19660778.301 6  81771671.078 6

  19804223.063 9 105864914.047 9  19804228.922 6  19804229.832 6  82339405.321 6

  22016325.664 8 115696748.481 8                  22016333.73449  90153169.87549

  24855009.742 5 130613961.792 5  24855020.531 5  24855021.53145 101777168.54145

  20967121.750 9 112278936.970 9  20967125.883 7  20967126.336 7  87327310.971 7

  21942032.844 9 115306205.740 9                  21942040.39549  89849024.46249

  20684195.516 9 108696164.008 9  20684201.910 8  20684201.74249  84698333.32149

  24639018.711 3 129478807.093 3  24639029.641 4  24639030.75445 100892610.89645
  24639030.258 7  96688732.854 7
  20142062.734 9 105847215.716 9                  20142066.74249  82478361.20349

  23936591.523 7 125787628.058 7  23936601.145 5  23936600.78146  98016375.94146

  22656989.734 8 119063155.686 8  22656997.609 7  22656997.71548  92776611.05748

  20356077.781 9 108891430.609 9  20356083.645 7  20356084.633 7  84693228.356 7

  22811278.500 7 121725372.601 7  22811285.242 5  22811285.355 4  94675318.664 4

  23870342.672 3 127466300.96713

 15  2  1  0 48  0.0000000  0 16G30G06R10R24R01G10G15R08G13G05G09G02
                                G07G29R23R02
  23796561.391 7 125051794.580 7  23796573.355 5  23796572.69546  97443009.11946
  23796574.184 8  93382862.698 8
  22549367.836 7 118497654.766 7  22549379.594 7  22549379.49248  92335858.58948
  22549379.992 9  88488528.544 9
  23597248.852 6 125786627.609 6  23597262.355 1  23597261.637 1  97834105.156 1

  19654450.117 9 105101155.066 9  19654453.352 6  19654453.695 5  81745360.163 5

  19802234.117 9 105854281.557 9  19802240.199 5  19802240.762 5  82331135.622 5

  22030703.047 8 115772303.306 8                  22030711.23848  90212043.70948

  24833315.266 5 130499953.821 5  24833325.953 3  24833326.58645 101688331.27945

  20981719.734 9 112357109.068 9  20981724.945 6  20981724.836 6  87388111.433 6

  21924626.406 9 115214732.912 9                  21924633.01248  89777746.95848

  20681048.320 9 108679623.372 9  20681054.254 8  20681054.07849  84685444.49449

  24658684.797 4 129582156.54614  24658696.926 3  24658696.63743 100973142.72953
  24658697.020 6  96765909.16716
  20142602.422 9 105850051.568 9                  20142606.44149  82480570.93949

  23933811.898 7 125773017.425 7  23933820.582 5  23933820.73446  98004991.02146

  22646099.867 8 119005928.393 8  22646107.328 6  22646107.64548  92732018.37848

  20372362.734 9 108978540.426 9  20372369.375 6  20372369.957 6  84760980.355 6

  22795609.648 7 121641762.368 7  22795616.055 4  22795616.762 3  94610288.510 3

 15  2  1  0 48 30.0000000  0 17G30G06R10R24R01G10G15R08G13G05G09G02
                                G07G29R23R02R09
  23785886.445 7 124995696.750 7  23785899.039 5  23785897.96546  97399296.57546
  23785899.746 8  93340971.511 8
  22564410.641 7 118576703.358 7  22564421.809 7  22564421.22748  92397454.76048
  22564422.371 9  88547558.183 9
  23582742.516 7 125709297.446 7  23582754.547 1  23582753.945 1  97773959.579 1

  19648267.922 9 105068099.795 9  19648271.680 6  19648271.063 6  81719650.489 6

  19800323.016 9 105844061.888 9  19800328.184 6  19800329.156 6  82323186.978 6

  22045104.328 8 115847981.452 8                  22045112.37948  90271013.60648

  24811634.570 5 130386023.256 5  24811645.383 3  24811645.68445 101599554.26545

  20996344.242 9 112435424.968 9  20996349.008 7  20996349.438 7  87449023.725 7

  21907284.438 9 115123604.413 9                  21907291.96949  89706737.75949

  20677951.953 9 108663351.805 9  20677958.137 8  20677957.93049  84672765.33949

  24678375.500 2

  20143222.953 9 105853313.781 9                  20143227.18849  82483112.90049

  23931123.633 7 125758894.185 7  23931133.563 5  23931132.97746  97993985.88946

  22635304.438 8 118949197.184 8  22635311.336 6  22635311.52748  92687812.25248

  20388760.867 9 109066260.482 9  20388767.945 7  20388768.383 7  84829206.998 7

  22779989.836 7 121558410.006 7  22779995.887 3  22779996.305 4  94545458.938 4

  23871362.344 1 127471739.46211

 15  2  1  0 49  0.0000000  0 18G30G06R10R24R01G10R17G15R08G13G05G09
                                G02G07G29R23R02R09
  23775274.938 7 124939932.979 7  23775287.516 5  23775286.87146  97355844.30546
  23775286.953 8  93299329.777 8
  22579505.438 7 118656027.991 7  22579517.551 7  22579516.70748  92459266.05148
  22579517.504 9  88606793.969 9
  23568314.328 7 125632386.222 7  23568326.191 1  23568326.297 1  97714139.831 1

  19642231.234 9 105035819.465 9  19642235.461 6  19642235.086 6  81694543.545 6

  19798488.992 9 105834253.771 9  19798493.379 6  19798494.824 6  82315558.431 6

  22059529.133 8 115923781.652 8                  22059536.48048  90330078.64048

  23301149.883 2 124689017.25912  23301156.539 3  23301158.094 2  96980481.25012

  24789969.383 5 130272172.420 5  24789980.109 3  24789980.14845 101510839.43145

  21010995.570 9 112513882.733 9  21011000.609 6  21011000.531 6  87510046.359 6

  21890009.539 8 115032822.403 8                  21890016.71548  89635998.55548

  20674906.344 9 108647348.675 9  20674912.727 8  20674912.37949  84660295.35449

  24698087.750 2 129789226.35312  24698102.664 3  24698101.50044 101134495.48354
  24698101.707 6  96920539.01016
  20143925.500 9 105857003.299 9                  20143928.96149  82485987.84549

  23928529.727 6 125745259.649 6  23928539.129 5  23928539.03946  97983361.53646

  22624603.070 8 118892963.559 8  22624610.352 6  22624610.24648  92643993.82648

  20405273.352 9 109154587.258 9  20405279.730 7  20405280.332 6  84897905.523 6

  22764417.641 7 121475315.736 7  22764425.465 5  22764424.941 4  94480830.113 4

  23872069.734 2 127475521.85212

 15  2  1  0 49 30.0000000  0 18G30G06R10R24R01G10R17G15R08G13G05G09
                                G02G07G29R23R02R09
  23764727.750 7 124884506.165 7  23764740.273 6  23764739.66047  97312654.61147
  23764740.387 8  93257939.670 8
  22594652.969 7 118735628.104 7  22594664.934 7  22594664.44948  92521291.97948
  22594664.891 9  88666235.460 9
  23553963.969 6 125555898.702 6  23553977.176 1  23553977.395 1  97654649.626 1

  19636340.219 9 105004316.487 9  19636343.992 6  19636343.523 6  81670041.214 6

  19796730.148 9 105824855.990 9  19796735.668 6  19796736.168 6  82308249.052 6

  22073976.492 8 115999703.173 8                  22073984.04349  90389238.18049

  23278247.578 4 124566461.284 4  23278254.609 3  23278256.078 3  96885159.977 3

  24768318.891 5 130158403.724 5  24768330.781 3  24768330.49245 101422188.52045

  21025674.172 9 112592480.137 9  21025678.176 7  21025678.297 7  87571177.605 7

  21872800.031 9 114942389.077 9                  21872807.34049  89565531.04549

  20671912.258 9 108631613.925 9  20671919.020 8  20671918.82849  84648034.49849

  24717823.703 1

  20144709.016 9 105861121.324 9                  20144712.44149  82489196.67849

  23926027.805 6 125732115.054 6  23926038.031 5  23926037.37946  97973118.97246

  22613997.320 8 118837230.118 8  22614005.070 6  22614005.22348  92600565.17048

  20421897.375 9 109243517.955 9  20421903.633 7  20421904.203 7  84967073.765 7

  22748894.641 7 121392480.147 7  22748901.688 5  22748901.398 5  94416402.432 5

  23872910.656 2 127480013.83012

 15  2  1  0 50  0.0000000  0 17G30G06R10R24R01G10R17G15R08G13G05G02
                                G07G29R23R02R09
  23754243.930 7 124829419.117 7  23754256.836 6  23754255.89146  97269729.64946
  23754256.559 8  93216803.269 8
  22609852.742 7 118815503.003 7  22609864.313 7  22609863.52748  92583532.02848
  22609864.613 9  88725882.144 9
  23539695.555 6 125479838.341 6  23539709.813 1  23539708.859 1  97595491.680 1

  19630595.125 9 104973593.142 9  19630597.984 6  19630597.781 6  81646145.255 6

  19795048.578 9 105815867.546 9  19795054.336 6  19795055.121 6  82301258.024 6

  22088446.094 8 116075744.620 8                  22088454.01648  90448491.18748

  23255386.625 5 124444127.400 5  23255394.840 2  23255394.691 2  96790011.441 2

  24746686.547 5 130044718.996 5  24746695.656 2  24746696.02045 101333603.07645

  21040377.180 9 112671215.297 9  21040381.090 6  21040381.801 6  87632415.972 6

  21855658.383 9 114852306.815 9                  21855666.15649  89495337.08649

  20668969.219 9 108616147.209 9  20668975.223 8  20668975.48049  84635982.49849

  20145574.539 9 105865669.225 9                  20145578.40649  82492740.46349

  23923620.359 6 125719461.656 6  23923630.090 5  23923629.62946  97963259.14746

  22603486.969 8 118781998.634 8  22603495.559 6  22603494.88348  92557527.64748

  20438634.570 9 109333049.640 9  20438640.605 7  20438641.297 6  85036709.437 6

  22733420.945 7 121309903.684 7  22733427.590 4  22733426.582 4  94352176.353 4

  23873884.000 2 127485215.813 2

 15  2  1  0 50 30.0000000  0 17G30G06R10R24R01G10R17G15R08G13G05G02
                                G07G29R23R02R09
  23743826.711 7 124774674.146 7  23743839.895 6  23743839.23847  97227071.27847
  23743839.438 8  93175922.307 8
  22625104.781 8 118895651.422 8  22625116.223 7  22625115.87948  92645985.21248
  22625116.555 9  88785733.085 9
  23525508.859 7 125404209.684 7  23525521.238 1  23525520.168 1  97536669.529 1

  19624995.227 9 104943650.779 9  19624998.391 6  19624998.852 6  81622856.732 6

  19793443.883 9 105807286.310 9  19793448.977 6  19793449.480 6  82294583.727 6

  22102939.336 8 116151905.058 8                  22102947.13748  90507836.89748

  23232568.070 3 124322018.983 3  23232573.816 2  23232574.688 1  96695038.264 1

  24725068.375 5

  21055105.023 9 112750085.639 9  21055110.320 7  21055110.328 7  87693759.524 7

  21838583.484 9 114762577.690 9                  21838590.67649  89425418.31749

  20666076.844 9 108600947.721 9  20666082.941 8  20666082.81649  84624138.71749

  20146522.008 9 105870647.633 9                  20146525.13349  82496619.71549

  23921306.023 6 125707300.262 6  23921315.238 5  23921315.29347  97953782.74847

  22593073.070 8 118727270.603 8  22593080.215 7  22593080.77748  92514882.41948

  20455483.125 9 109423178.716 9  20455489.668 7  20455490.457 7  85106809.763 7

  22717993.023 7 121227586.272 7  22718000.852 5  22718000.395 5  94288151.716 5

  23874992.445 3 127491127.753 3

 15  2  1  0 51  0.0000000  0 17G30G06R10R24R01G10R17G15R08G13G05G02
                                G07G29R23R02R09
  23733474.508 7 124720274.273 7  23733488.359 6  23733487.60546  97184681.81346
  23733487.398 8  93135299.091 8
  22640408.391 7 118976072.973 7  22640420.309 6  22640419.78948  92708651.22848
  22640420.523 9  88845787.989 9
  23511402.000 7 125329017.013 7  23511414.043 1  23511413.793 1  97478186.418 1

  19619542.250 9 104914492.118 9  19619545.676 6  19619545.613 5  81600177.754 5

  19791914.281 9 105799111.362 9  19791919.035 5  19791920.047 5  82288225.423 5

  22117454.961 8 116228183.542 8                  22117462.66448  90567274.60248

  23209790.313 2 124200140.313 2  23209798.070 2  23209798.684 1  96600243.773 1

  24703467.516 5 129817609.233 5  24703479.488 4  24703479.02345 101156634.52555

  21069858.422 9 112829089.383 9  21069863.711 6  21069863.969 6  87755206.810 6

  21821576.234 9 114673204.310 9                  21821583.61749  89355776.74849

  20663235.039 9 108586015.342 9  20663241.609 8  20663241.33249  84612503.09149

  20147551.391 9 105876057.906 9                  20147554.94149  82500835.49449

  23919085.539 7 125695632.149 7  23919095.012 5  23919095.06346  97944690.73446

  22582754.734 8 118673047.972 8  22582762.195 6  22582761.77348  92472631.05448

  20472443.172 9 109513902.324 9  20472449.801 7  20472450.570 6  85177372.491 6

  22702616.742 7 121145528.541 7  22702623.277 5  22702622.402 4  94224329.079 4

  23876232.414 3 127497750.416 3

 15  2  1  0 51 30.0000000  0 17G30G06R10R24R01G10R17G15R08G13G05G02
                                G07G29R23R02R09
  23723188.938 7 124666222.453 7  23723202.223 6  23723202.14847  97142563.51647
  23723202.113 8  93094935.717 8
  22655763.883 7 119056766.910 7  22655775.969 7  22655775.80148  92771529.48548
  22655776.184 9  88906046.290 9
  23497378.414 6 125254264.384 6  23497391.383 1  23497391.367 1  97420045.550 1

  19614236.320 9 104886119.228 9  19614240.094 6  19614239.965 6  81578109.933 6

  19790460.609 9 105791341.077 9  19790464.867 6  19790466.344 6  82282181.859 6

  22131992.750 7 116304579.278 7                  22132000.45348  90626803.64848

  23187060.422 3 124078495.690 3  23187065.125 2  23187065.254 1  96505631.294 1

  24681885.031 5 129704188.520 5  24681895.512 3  24681895.34445 101068254.76545

  21084636.469 9 112908224.590 9  21084641.414 7  21084641.230 7  87816756.331 7

  21804637.547 9 114584188.957 9                  21804644.89549  89286414.15349

  20660444.188 9 108571349.394 9  20660451.098 8  20660450.75849  84601075.07849

  20148663.320 9 105881901.195 9                  20148666.81649  82505388.68349

  23916959.484 6 125684458.709 6  23916969.301 5  23916968.77046  97935984.12846

  22572532.625 7 118619332.536 7  22572540.250 6  22572540.89548  92430774.85748

  20489513.094 9 109605217.105 9  20489520.297 7  20489520.648 7  85248395.024 7

  22687287.281 7 121063730.694 7  22687294.621 5  22687293.441 5  94160708.560 5

  23877606.641 3 127505083.893 3

 15  2  1  0 52  0.0000000  0 17G30G06R10R24R01G10R17G15R08G13G05G02
                                G07G29R23R02R09
  23712970.617 7 124612520.803 7  23712983.621 6  23712983.34047  97100718.11347
  23712982.660 8  93054833.884 8
  22671171.320 7 119137732.007 7  22671183.477 7  22671182.55148  92834619.04348
  22671183.520 9  88966507.089 9
  23483438.172 6 125179955.792 6  23483450.813 2  23483450.680 1  97362250.059 1

  19609077.875 9 104858533.452 9  19609081.941 6  19609081.117 6  81556654.318 6

  19789082.172 9 105783974.236 9  19789087.324 6  19789088.020 5  82276452.088 5

  22146551.898 7 116381090.755 7                  22146559.91048  90686422.88348

  23164373.039 3 123957088.395 3  23164378.164 3  23164378.730 2  96411203.465 2

  24660318.289 5 129590859.744 5  24660330.645 5  24660330.37945 100979946.69445

  21099440.086 9 112987488.526 9  21099443.246 6  21099444.000 6  87878405.986 6

  21787766.586 9 114495533.231 9                  21787773.68849  89217331.77949

  20657704.063 9 108556949.730 9  20657710.730 8  20657710.32449  84589854.54349

  20149858.109 9 105888177.962 9                  20149861.68449  82510279.64649

  23914927.711 6 125673780.348 6  23914937.449 5  23914937.01246  97927663.35046

  22562408.414 8 118566126.490 8  22562415.379 6  22562415.74648  92389315.59748

  20506693.734 9 109697119.843 9  20506700.641 7  20506701.242 6  85319874.853 6

  22672006.734 7 120982193.020 7  22672013.336 5  22672013.105 4  94097290.422 4

  23879111.672 5 127513128.317 5

 15  2  1  0 52 30.0000000  0 17G30G06R10R24R01G10R17G15R08G13G05G02
                                G07G29R23R02R09
  23702818.563 7 124559171.982 7  23702831.324 6  23702830.43047  97059147.64747
  23702830.398 8  93014995.488 8
  22686629.516 7 119218967.448 7  22686642.590 7  22686641.85948  92897919.25248
  22686642.770 9  89027169.759 9
  23469582.406 6 125106095.272 6  23469594.824 1  23469594.457 1  97304803.067 1

  19604066.797 9 104831736.668 9  19604070.406 6  19604070.254 6  81535812.353 6

  19787779.156 9 105777008.966 9  19787785.438 6  19787786.133 6  82271034.639 6

  22161133.594 7 116457717.082 7                  22161141.24648  90746131.61748

  23141728.867 5 123835922.550 5  23141735.609 3  23141736.281 3  96316963.457 3

  24638771.078 6 129477624.992 6  24638782.441 4  24638782.03146 100891711.91946

  21114265.086 9 113066879.433 9  21114269.414 7  21114269.484 7  87940154.419 7

  21770965.328 9 114407239.665 9                  21770972.22349  89148531.61349

  20655014.148 9 108542815.497 9  20655021.016 8  20655020.86749  84578840.83949

  20151134.938 9 105894889.308 9                  20151138.37949  82515509.23449

  23912989.805 7 125663598.525 7  23912999.902 5  23912999.02346  97919729.44746

  22552380.422 8 118513431.104 8  22552388.324 7  22552388.32848  92348254.26848

  20523983.539 9 109789607.151 9  20523989.723 7  20523990.191 7  85391809.345 7

  22656776.922 7 120900915.678 7  22656782.563 5  22656782.469 5  94034074.773 5

  23880751.102 3 127521883.695 3  23880758.594 1                  99183710.29111

 15  2  1  0 53  0.0000000  0 17G30G06R10R24R01G10R17G15R08G13G05G02
                                G07G29R23R02R09
  23692733.430 7 124506178.878 7  23692746.301 6  23692746.38747  97017854.31047
  23692745.535 7  92975422.698 7
  22702139.508 7 119300472.524 7  22702152.414 7  22702151.88748  92961429.56648
  22702152.797 9  89088033.787 9
  23455812.391 7 125032686.753 7  23455823.988 1  23455823.738 1  97247707.613 1

  19599204.016 9 104805730.848 9  19599207.824 6  19599207.777 6  81515585.581 6

  19786550.492 9 105770444.090 9  19786556.605 6  19786557.500 5  82265928.620 5

  22175736.734 8 116534457.220 8                  22175744.47348  90805929.04348

  23119133.461 5 123715001.972 5  23119138.742 3  23119139.156 3  96222914.179 3

  24617241.852 6 129364486.499 6  24617251.934 4  24617252.19145 100803552.08545

  21129114.313 9 113146395.457 9  21129118.605 6  21129118.813 6  88002000.131 6

  21754232.469 9 114319310.443 9                  21754239.18449  89080015.35149

  20652375.203 9 108528946.223 9  20652381.496 8  20652381.38749  84568033.60649

  20152495.039 9 105902036.553 9                  20152499.14549  82521078.47749

  23911147.570 7 125653914.235 7  23911157.223 5  23911156.75046  97912183.23746

  22542450.063 7 118461248.148 7  22542457.902 6  22542458.13348  92307592.25048

  20541381.375 9 109882675.813 9  20541388.277 7  20541388.828 6  85464196.011 6

  22641592.305 7 120819898.990 7  22641600.742 5  22641599.555 5  93971061.834 5

  23882524.141 4 127531350.151 4  23882533.637 1                  99191073.152 1

 15  2  1  0 53 30.0000000  0 17G30G06R10R24R01G10R17G15R08G13G05G02
                                G07G29R23R02R09
  23682718.109 7 124453544.234 7  23682730.066 6  23682729.82846  96976840.29846
  23682730.148 8  92936117.597 8
  22717701.211 7 119382246.505 7  22717713.316 7  22717712.91048  93025149.42848
  22717713.234 9  89149098.622 9
  23442127.039 6 124959735.078 6  23442138.945 1  23442137.523 1  97190967.496 1

  19594489.031 9 104780518.320 9  19594492.602 6  19594492.113 6  81495975.818 6

  19785397.797 9 105764278.201 9  19785402.645 6  19785403.859 6  82261132.908 6

  22190361.609 7 116611309.878 7                  22190369.12548  90865814.14248

  23096581.766 5 123594330.913 5  23096588.301 3  23096588.699 2  96129058.991 2

  24595730.852 6 129251446.354 6  24595742.945 6  24595742.68446 100715468.94746

  21143985.406 8 113226034.401 8  21143990.609 6  21143990.648 6  88063941.460 6

  21737570.055 9 114231748.105 9                  21737577.07449  89011784.98649

  20649786.695 9 108515341.813 9  20649792.863 8  20649792.58649  84557432.75049

  20153938.141 9 105909620.605 9                  20153942.35549  82526988.11249

  23909399.727 7 125644728.350 7  23909408.574 5  23909408.56646  97905025.41446

  22532618.305 8 118409579.612 8  22532625.691 6  22532625.85248  92267331.06248

  20558888.195 9 109976322.726 9  20558894.445 7  20558895.156 7  85537032.417 7

  22626458.641 7 120739143.316 7  22626466.609 5  22626466.086 5  93908251.898 5

  23884430.008 3 127541528.245 3

 15  2  1  0 54  0.0000000  0 17G30G06R10R24R01G10R17G15R08G13G05G02
                                G07G29R23R02R09
  23672770.281 7 124401270.604 7  23672782.488 5  23672781.31646  96936107.61446
  23672783.102 8  92897082.117 8
  22733312.977 7 119464288.465 7  22733325.738 7  22733325.07848  93089078.08848
  22733325.754 9  89210363.566 9
  23428527.406 7 124887243.550 7  23428539.473 1  23428538.520 1  97134585.274 1

  19589922.883 9 104756100.650 9  19589927.176 6  19589926.625 6  81476984.274 6

  19784318.617 9 105758509.693 9  19784324.375 6  19784325.285 6  82256646.280 6

  22205007.461 7 116688274.179 7                  22205015.67648  90925786.21748

  23074078.883 5 123473913.401 5  23074085.902 3  23074086.957 3  96035400.958 3

  24574238.547 5 129138506.574 5  24574251.328 5  24574251.44146 100627463.99846

  21158881.047 9 113305794.231 9  21158886.008 6  21158886.082 6  88125976.814 6

  21720977.711 9 114144554.438 9                  21720984.54349  88943841.89449

  20647247.930 9 108502001.572 9  20647254.547 8  20647254.36349  84547037.73949

  20155464.734 9 105917642.068 9                  20155468.54749  82533238.58349

  23907746.508 7 125636042.041 7  23907756.250 5  23907755.50446  97898256.80746

  22522884.211 8 118358427.209 8  22522891.918 6  22522892.23048  92227472.01648

  20576501.656 9 110070544.504 9  20576508.422 7  20576508.922 6  85610315.938 6

  22611374.469 7 120658648.720 7  22611381.309 5  22611381.156 5  93845645.079 5

  23886468.547 1 127552417.840 1

 15  2  1  0 54 30.0000000  0 16G30G06R10R24R01G10R17G15R08G13G05G02
                                G07G29R23R02
  23662891.797 7 124349360.839 7  23662904.500 6  23662904.69146  96895658.45746
  23662904.719 8  92858318.338 8
  22748976.141 7 119546597.826 7  22748988.488 7  22748988.28948  93153215.11748
  22748988.613 9  89271828.193 9
  23415013.711 5 124815216.828 5  23415026.453 1  23415026.203 1  97078564.566 1

  19585505.656 9 104732479.799 9  19585509.355 6  19585509.086 6  81458612.486 6

  19783313.844 9 105753137.642 9  19783320.293 6  19783320.883 6  82252468.013 6

  22219674.328 7 116765349.541 7                  22219682.76648  90985844.85848

  23051623.477 5 123353753.406 5  23051630.324 3  23051631.797 2  95941943.226 2

  24552767.336 5 129025669.527 5  24552778.008 4  24552778.21946 100539539.15846

  21173797.469 8 113385673.373 8  21173801.902 7  21173801.664 6  88188104.975 6

  21704456.141 9 114057732.113 9                  21704463.15649  88876188.14449

  20644759.758 9 108488925.590 9  20644766.320 8  20644766.32049  84536848.65849

  20157074.820 9 105926102.632 9                  20157077.97349  82539831.21749

  23906187.781 6 125627856.774 6  23906198.270 5  23906198.62546  97891878.69146

  22513248.844 7 118307792.739 7  22513256.227 7  22513256.78948  92188016.60048

  20594222.422 9 110165338.218 9  20594228.977 7  20594229.461 7  85684044.298 7

  22596339.406 7 120578415.947 7  22596346.063 6  22596346.234 6  93783241.909 6

 15  2  1  0 55  0.0000000  0 16G30G06R10R24R01G10R17G15R08G13G05G02
                                G07G29R23R02
  23653084.156 7 124297817.404 7  23653096.410 6  23653095.93847  96855494.71547
  23653096.605 8  92819828.126 8
  22764689.992 7 119629173.300 7  22764701.859 6  22764701.96948  93217559.52648
  22764702.000 9  89333491.554 9
  23401589.398 6 124743658.918 6  23401602.039 1  23401602.027 1  97022908.451 1

  19581237.820 9 104709656.843 9  19581241.043 5  19581241.387 5  81440861.272 5

  19782382.492 9 105748160.423 9  19782387.484 6  19782388.574 5  82248596.849 5

  22234362.320 7 116842534.356 7                  22234370.47348  91045988.78348

  23029218.672 6 123233854.877 6  23029225.094 2  23029225.281 1  95848688.836 1

  24531313.828 5 128912936.728 5  24531326.406 5  24531326.19546 100451695.46346

  21188735.641 9 113465669.078 9  21188740.383 6  21188740.703 6  88250323.780 6

  21688005.023 9 113971282.582 9                  21688012.46949  88808824.89449

  20642321.336 9 108476112.903 9  20642328.234 8  20642328.16049  84526864.72649

  20158768.367 9 105935002.854 9                  20158772.18849  82546766.43849

  23904726.273 6 125620173.157 6  23904736.805 5  23904736.14146  97885891.44746

  22503711.898 7 118257677.769 7  22503719.371 6  22503719.47748  92148965.97348

  20612049.305 9 110260699.907 9  20612056.781 6  20612057.172 6  85758214.416 6

  22581351.867 7 120498444.726 7  22581359.074 5  22581359.172 5  93721042.158 5

 15  2  1  0 55 30.0000000  0 16G30G06R10R24R01G10R17G15R08G13G05G02
                                G07G29R23R02
  23643346.492 7 124246642.913 7  23643358.531 6  23643358.45747  96815618.51147
  23643358.953 8  92781613.416 8
  22780453.898 7 119712014.334 7  22780466.605 7  22780466.15648  93282110.81848
  22780466.715 9  89395353.190 9
  23388255.547 7 124672573.642 7  23388267.820 1  23388266.281 1  96967619.982 1

  19577119.617 9 104687634.070 9  19577123.172 6  19577122.672 6  81423732.432 6

  19781525.266 9 105743576.509 9  19781530.137 6  19781531.105 6  82245031.566 6

  22249070.969 7 116919828.049 7                  22249079.09048  91106217.53448

  23006861.781 6 123114221.887 6  23006868.852 1  23006869.148 1  95755640.976 1

  24509882.930 5 128800310.554 5  24509893.496 4  24509894.06345 100363935.02045

  21203696.219 9 113545779.894 9  21203701.406 7  21203701.797 7  88312632.121 7

  21671625.625 9 113885208.541 9                  21671632.99249  88741754.24149

  20639933.445 9 108463563.507 9  20639940.504 8  20639940.19949  84517085.95749

  20160546.055 9 105944343.705 9                  20160549.63349  82554045.00349

  23903359.320 7 125612991.790 7  23903369.855 5  23903370.41846  97880295.54746

  22494274.469 7 118208084.502 7  22494282.734 7  22494282.88748  92110321.87548

  20629981.977 9 110356626.273 9  20629988.914 7  20629989.301 7  85832823.719 7

  22566415.867 7 120418735.595 7  22566421.559 5  22566421.500 5  93659046.270 5

 15  2  1  0 56  0.0000000  0 16G30G06R10R24R01G10R17G15R08G13G05G02
                                G07G29R23R02
  23633678.086 7 124195840.077 7  23633691.570 6  23633691.14846  96776031.90946
  23633691.410 8  92743676.259 8
  22796269.563 7 119795119.906 7  22796281.223 6  22796280.55948  93346868.29348
  22796281.473 9  89457412.411 9
  23375006.445 6 124601965.481 6  23375020.266 1  23375020.016 1  96912702.574 1

  19573150.609 9 104666413.149 9  19573153.758 6  19573154.125 6  81407227.256 6

  19780740.367 9 105739384.224 9  19780747.008 6  19780747.203 6  82241770.906 6

  22263799.914 7 116997229.813 7                  22263807.66848  91166530.51648

  22984556.000 5 122994858.325 5  22984562.605 1  22984563.840 1  95662802.669 1

  24488469.320 4 128687793.154 4  24488481.242 4  24488481.09045 100276259.19145

  21218677.703 9 113626003.825 9  21218681.988 6  21218682.035 6  88375028.445 6

  21655317.992 9 113799512.231 9                  21655325.36749  88674977.91649

  20637595.344 9 108451276.796 9  20637601.652 8  20637601.13349  84507511.86949

  20162407.477 9 105954126.034 9                  20162411.25449  82561667.57449

  23902088.781 7 125606314.039 7  23902098.637 5  23902097.82046  97875092.08246

  22484936.898 8 118159014.100 8  22484944.797 6  22484944.57448  92072085.16248

  20648019.273 9 110453114.564 9  20648026.445 7  20648026.910 7  85907870.086 7

  22551526.445 7 120339288.824 7  22551533.715 5  22551534.074 5  93597254.419 5

 15  2  1  0 56 30.0000000  0 16G30G06R10R24R01G10R17G15R08G13G05G02
                                G07G29R23R02
  23624082.430 6 124145411.384 6  23624095.277 6  23624094.67647  96736736.80647
  23624094.699 8  92706018.466 8
  22812133.648 7 119878489.157 7  22812146.172 7  22812145.64548  93411831.19748
  22812146.500 9  89519668.484 9
  23361853.492 6 124531838.027 6  23361865.359 2  23361865.227 1  96858159.075 1

  19569332.047 9 104645995.235 9  19569335.426 6  19569335.445 6  81391346.648 6

  19780029.805 9 105735582.178 9  19780035.418 6  19780036.250 6  82238813.745 6

  22278549.414 7 117074738.387 7                  22278557.31348  91226926.71048

  22962299.523 6 122875768.383 6  22962308.238 1  22962310.059 1  95570177.200 1

  24467080.086 5 128575386.452 5  24467091.707 6  24467091.71146 100188669.74446

  21233679.500 9 113706338.820 9  21233684.621 6  21233684.656 6  88437511.156 6

  21639082.680 9 113714195.525 9                  21639090.39549  88608497.40149

  20635307.320 9 108439252.359 9  20635313.809 8  20635313.55949  84498142.17549

  20164353.289 9 105964350.723 9                  20164356.72749  82569634.84949

  23900914.531 7 125600140.547 7  23900924.152 5  23900923.78946  97870281.54846

  22475699.242 8 118110468.419 8  22475706.953 6  22475707.05148  92034257.37048

  20666160.734 9 110550160.750 9  20666168.738 7  20666168.863 7  85983350.364 7

  22536687.438 7 120260104.361 7  22536693.629 5  22536693.664 5  93535666.592 5

 15  2  1  0 57  0.0000000  0 16G30G06R10R24R01G10R17G15R08G13G05G02
                                G07G29R23R02
  23614558.141 7 124095359.572 7  23614570.105 6  23614569.84447  96697735.41447
  23614569.281 8  92668642.152 8
  22828048.688 7 119962121.284 7  22828060.820 6  22828060.66048  93476998.95148
  22828061.102 9  89582120.882 9
  23348789.031 7 124462195.912 7  23348800.781 1  23348799.945 1  96803993.100 1

  19565664.539 9 104626382.414 9  19565668.723 6  19565668.477 6  81376092.216 6

  19779391.141 9 105732169.174 9  19779396.555 6  19779397.496 6  82236159.174 6

  22293319.375 8 117152353.048 8                  22293327.06648  91287405.57948

  22940097.594 6 122756956.292 6  22940106.125 1                  95477763.89311

  24445711.352 5 128463092.765 5  24445722.766 5  24445723.19946 100101168.29746

  21248701.813 9 113786783.166 9  21248706.617 6  21248706.844 6  88500078.902 6

  21622920.641 9 113629260.538 9                  21622927.66049  88542314.31649

  20633069.109 9 108427490.040 9  20633075.609 8  20633075.50849  84488976.72349

  20166383.172 9 105975018.946 9                  20166387.12549  82577947.71849

  23899836.039 7 125594472.257 7  23899844.992 5  23899844.96546  97865864.65646

  22466561.258 8 118062449.100 8  22466569.242 6  22466569.06348  91996839.71048

  20684406.906 9 110647761.541 9  20684414.230 6  20684414.410 6  86059261.995 6

  22521897.484 7 120181182.606 7  22521904.965 5  22521904.063 5  93474283.084 5

 15  2  1  0 57 30.0000000  0 16G30G06R10R24R01G10R17G15R08G13G05G02
                                G07G29R23R02
  23605105.969 7 124045687.059 7  23605118.250 6  23605117.74247  96659029.58047
  23605118.297 8  92631549.047 8
  22844013.211 7 120046015.161 7  22844025.293 7  22844024.47748  93542370.65948
  22844024.922 9  89644768.734 9
  23335814.844 6 124393042.312 6  23335826.730 1  23335826.715 1  96750206.998 1

  19562147.344 9 104607575.870 9  19562151.371 6  19562151.582 6  81361464.889 6

  19778824.813 9 105729143.427 9  19778830.676 6  19778831.504 6  82233805.817 6

  22308109.063 7 117230072.530 7                  22308117.11348  91347966.13448

  22917947.156 5 122638425.654 5

  24424363.945 6 128350913.529 6  24424375.008 4  24424375.41845 100013756.05645

  21263744.344 9 113867334.449 9  21263749.328 7  21263749.672 6  88562729.829 6

  21606831.078 9 113544709.421 9                  21606837.99649  88476430.34549

  20630880.430 9 108415988.996 9  20630887.090 8  20630886.92649  84480014.84949

  20168497.727 9 105986131.286 9                  20168501.64149  82586606.65849

  23898852.492 7 125589310.111 7  23898862.535 5  23898862.30546  97861842.18346

  22457523.844 7 118014957.533 7  22457532.098 7  22457532.12548  91959833.27948

  20702755.313 9 110745913.753 9  20702762.316 7  20702763.012 7  86135602.518 7

  22507156.953 7 120102523.686 7  22507163.992 5  22507163.098 5  93413103.996 5

 15  2  1  0 58  0.0000000  0 16G30G06R10R24R01G10R17G15R08G13G05G02
                                G07G29R23R02
  23595724.742 7 123996396.237 7  23595738.367 6  23595737.88346  96620621.16746
  23595737.965 8  92594740.985 8
  22860027.609 7 120130169.789 7  22860039.875 6  22860039.09848  93607945.53348
  22860039.656 9  89707611.308 9
  23322934.023 6 124324381.491 6  23322947.082 1  23322947.070 1  96696804.182 1

  19558781.375 9 104589576.932 9  19558785.273 6  19558785.078 6  81347465.696 6

  19778331.234 9 105726503.419 9  19778336.441 6  19778336.930 6  82231752.480 6

  22322918.195 7 117307895.786 7                  22322926.49248  91408607.54048

  22895849.211 3 122520180.607 3  22895856.246 1                  95293619.34411

  24403039.805 6 128238851.199 6  24403050.805 3  24403049.71146  99926434.89846

  21278806.875 8 113947990.864 8  21278811.438 6  21278811.750 6  88625462.510 6

  21590814.453 9 113460544.214 9                  21590821.79749  88410847.08049

  20628741.484 9 108404748.608 9  20628748.047 8  20628747.77049  84471256.09149

  20170696.961 9 105997688.350 9                  20170701.05549  82595612.15049

  23897967.289 7 125584654.629 7  23897976.676 5  23897977.01647  97858214.54747

  22448586.570 7 117967995.418 7  22448595.277 6  22448594.98448  91923239.41948

  20721206.234 9 110844613.409 9  20721213.184 6  20721213.641 6  86212368.819 6

  22492465.594 7 120024127.529 7  22492472.492 5  22492471.531 5  93352129.296 5

 15  2  1  0 58 30.0000000  0 15G30G06R10R24R01G10G15R08G13G05G02G07
                                G29R23R02
  23586418.453 6 123947489.915 6  23586431.910 6  23586430.88347  96582512.38647
  23586430.500 8  92558220.070 8
  22876091.195 7 120214584.525 7  22876103.566 7  22876103.48448  93673723.11048
  22876103.809 9  89770648.115 9
  23310148.055 6 124256217.247 6  23310159.367 1  23310159.234 1  96643787.600 1

  19555567.586 9 104572387.311 9  19555571.133 6  19555570.715 6  81334095.966 6

  19777909.398 9 105724247.852 9  19777914.570 6  19777915.211 6  82229998.149 6

  22337746.836 7 117385822.209 7                  22337754.89848  91469329.32048

  24381737.578 6 128126907.751 6  24381748.066 5  24381747.21945  99839206.30045

  21293888.234 8 114028750.796 8  21293893.059 6  21293893.152 6  88688275.725 6

  21574872.383 9 113376767.261 9                  21574879.72349  88345566.36849

  20626652.031 9 108393768.696 9  20626658.313 8  20626657.90649  84462700.32349

  20172981.250 9 106009691.395 9                  20172985.30149  82604965.14649

  23897177.273 7 125580506.972 7  23897187.625 5  23897187.11346  97854982.56246

  22439751.703 7 117921564.508 7  22439759.430 7  22439760.03548  91887059.47648

  20739758.672 9 110943857.508 9  20739765.727 7  20739766.543 7  86289558.588 7

  22477823.234 7 119945994.412 7  22477829.906 5  22477829.895 5  93291359.158 5

 15  2  1  0 59  0.0000000  0 15G30G06R10R24R01G10G15R08G13G05G02G07
                                G29R23R02
  23577185.266 7 123898970.711 7  23577198.895 6  23577198.69547  96544705.26647
  23577197.727 8  92521988.231 8
  22892203.797 7 120299258.495 7  22892216.492 6  22892215.65648  93739702.64848
  22892216.863 9  89833878.484 9
  23297454.383 7 124188553.943 7  23297465.711 1  23297465.578 1  96591160.627 1

  19552504.516 9 104556008.313 9  19552508.215 6  19552507.770 6  81321356.730 6

  19777558.578 9 105722375.262 9  19777564.887 6  19777565.578 6  82228541.686 6

  22352595.641 7 117463850.995 7                  22352603.54348  91530130.88548

  24360457.773 6 128015085.370 6  24360469.629 5  24360469.92246  99752072.11346

  21308988.648 8 114109612.308 8  21308993.449 6  21308993.434 6  88751167.926 6

  21559004.289 9 113293380.732 9                  21559011.78549  88280589.88249

  20624611.719 9 108383049.224 9  20624618.844 8  20624618.51249  84454347.49149

  20175350.578 9 106022141.577 9                  20175354.24649  82614666.54949

  23896485.969 7 125576867.867 7  23896495.590 5  23896495.64547  97852146.91547

  22431017.438 7 117875666.317 7  22431025.844 6  22431025.55948  91851294.63448

  20758413.016 9 111043642.661 9  20758419.805 6  20758420.078 6  86367169.166 6

  22463230.398 7 119868124.693 7  22463236.805 5  22463236.848 5  93230793.876 5

 15  2  1  0 59 30.0000000  0 15G30G06R10R24R01G10G15R08G13G05G02G07
                                G29R23R02
  23568026.703 7 123850841.105 7  23568038.828 5  23568038.03147  96507201.69147
  23568038.762 8  92486047.334 8
  22908366.078 7 120384190.592 7  22908378.684 7  22908378.12547  93805883.34947
  22908379.332 9  89897301.624 9
  23284854.844 6 124121395.411 6  23284867.168 1  23284866.332 1  96538926.208 1

  19549592.523 9 104540441.514 9  19549597.797 6  19549597.121 6  81309249.201 6

  19777279.797 9 105720883.964 9  19777286.203 6  19777287.129 6  82227381.775 6

  22367463.672 7 117541981.032 7                  22367472.02048  91591011.33048

  24339201.938 6 127903385.974 6  24339213.672 5  24339212.76246  99665033.76646

  21324107.461 9 114190573.409 9  21324112.301 6  21324112.094 6  88814137.614 6

  21543211.063 9 113210386.576 9                  21543218.02049  88215919.12249

  20622621.430 9 108372589.364 9  20622628.094 8  20622628.07849  84446196.96349

  20177804.828 9 106035039.376 9                  20177808.83249  82624716.75049

  23895890.469 7 125573738.208 7  23895899.703 6  23895899.41447  97849708.21447

  22422385.266 7 117830302.094 7  22422393.461 7  22422393.43048  91815945.88648

  20777166.500 9 111143965.298 9  20777174.711 7  20777174.938 7  86445197.785 7

  22448685.867 7 119790518.395 7  22448693.445 5  22448692.898 5  93170433.496 5

 15  2  1  1  0  0.0000000  0 15G30G06R10R24R01G10G15R08G13G05G02G07
                                G29R23R02
  23558943.055 7 123803103.351 7  23558956.137 6  23558955.84447  96470003.50647
  23558955.520 8  92450399.047 8
  22924577.430 7 120469379.829 7  22924589.996 7  22924589.68447  93872264.41747
  22924590.418 9  89960916.767 9
  23272351.219 6 124054745.528 6  23272365.262 1  23272363.953 1  96487087.465 1

  19546834.391 9 104525687.842 9  19546837.715 6  19546837.836 6  81297774.108 6

  19777072.492 9 105719772.343 9  19777077.402 6  19777078.523 6  82226517.183 6

  22382349.727 7 117620211.068 7                  22382358.43848  91651969.71448

  24317971.180 6 127791811.484 6  24317981.477 5  24317980.69146  99578092.69646

  21339244.297 8 114271632.223 8  21339249.641 6  21339249.473 6  88877183.276 6

  21527492.742 9 113127786.572 9                  21527500.16449  88151555.51349

  20620680.820 9 108362388.822 9  20620687.344 8  20620687.15649  84438248.48049

  20180344.594 9 106048385.339 9                  20180348.72749  82635116.17649

  23895391.344 7 125571118.447 7  23895400.711 5  23895400.89547  97847666.85947

  22413854.625 7 117785473.739 7  22413862.512 6  22413862.74648  91781014.67948

  20796021.008 9 111244821.281 9  20796028.047 7  20796028.762 6  86523641.228 6

  22434191.953 7 119713175.643 7  22434200.277 5  22434199.129 5  93110278.055 5

 15  2  1  1  0 30.0000000  0 16G30G06R10R24R01G10R17G15R08G13G05G02
                                G07G29R23R02
  23549933.516 6 123755759.986 6  23549946.465 6  23549945.40247  96433112.61547
  23549946.129 8  92415045.272 8
  22940837.398 7 120554825.200 7  22940850.063 7  22940848.86747  93938845.06247
  22940849.250 9  90024723.181 9
  23259944.625 6 123988608.125 6  23259957.156 1  23259955.852 1  96435647.252 1

  19544227.773 9 104511748.482 9  19544231.020 6  19544231.398 6  81286932.365 6

  19776934.375 9 105719039.123 9  19776939.941 6  19776940.984 6  82225946.908 6

  22397255.977 7 117698540.502 7                  22397263.71148  91713005.54348

  22786191.180 1 121933646.23511  22786199.355 5  22786199.988 4  94837187.38314

  24296762.797 6 127680363.961 6  24296773.559 5  24296773.47746  99491250.57346

  21354399.508 8 114352786.685 8  21354404.863 7  21354405.203 7  88940303.344 7

  21511849.992 9 113045582.850 9                  21511857.21949  88087500.69349

  20618788.680 9 108352446.963 9  20618795.063 8  20618794.73849  84430501.57249

  20182969.883 9 106062180.508 9                  20182973.34049  82645865.63449

  23894990.266 7 125569009.514 7  23894999.770 5  23895000.24247  97846023.50347

  22405426.461 7 117741182.679 7  22405434.375 7  22405434.34048  91746502.14848

  20814974.969 9 111346207.476 9  20814981.820 7  20814982.121 7  86602497.057 7

  22419748.453 7 119636096.402 7  22419754.777 5  22419753.582 5  93050327.593 5

 15  2  1  1  1  0.0000000  0 16G30G06R10R24R01G10R17G15R08G13G05G02
                                G07G29R23R02
  23541000.063 7 123708813.523 7  23541013.090 6  23541012.33247  96396530.98547
  23541012.707 8  92379987.906 8
  22957145.102 7 120640525.720 7  22957157.777 7  22957157.25847  94005624.52547
  22957158.344 9  90088720.136 9
  23247633.883 7 123922986.919 7  23247646.117 1  23247645.633 1  96384608.599 1

  19541773.680 9 104498625.100 9  19541776.543 6  19541776.871 6  81276725.278 6

  19776867.688 9 105718682.436 9  19776873.531 6  19776874.098 6  82225669.466 6

  22412180.055 8 117776968.385 8                  22412188.60548  91774118.08248

  22764433.109 4 121817200.444 4  22764439.387 5  22764439.434 5  94746618.548 5

  24275579.180 6 127569045.765 6  24275591.047 5  24275590.74246  99404509.22846

  21369572.414 8 114434035.149 8  21369576.797 6  21369576.969 6  89003496.500 6

  21496282.938 9 112963777.399 9                  21496290.11749  88023756.19849

  20616945.953 9 108342763.312 9  20616952.566 8  20616952.22349  84422955.85349

  20185680.242 9 106076425.821 9                  20185684.46949  82656965.83949

  23894686.688 7 125567411.705 7  23894695.961 5  23894695.72747  97844778.44047

  22397100.594 7 117697429.805 7  22397108.613 7  22397108.78148  91712408.98548

  20834026.391 9 111448120.130 9  20834032.449 7  20834033.477 7  86681762.357 7

  22405352.500 7 119559280.770 7  22405360.160 6  22405359.703 5  92990582.099 5

 15  2  1  1  1 30.0000000  0 16G30G06R10R24R01G10R17G15R08G13G05G02
                                G07G29R23R02
  23532142.352 7 123662266.831 7  23532154.480 6  23532153.95346  96360260.90046
  23532154.625 8  92345229.088 8
  22973501.594 7 120726480.809 7  22973514.410 6  22973513.62547  94072602.33547
  22973515.238 9  90152907.165 9
  23235420.156 7 123857886.381 7  23235433.871 1  23235432.566 1  96333974.837 1

  19539472.375 9 104486318.930 9  19539475.953 6  19539475.910 6  81267153.790 6

  19776871.484 9 105718701.603 9  19776876.965 6  19776878.328 6  82225684.372 6

  22427122.828 7 117855494.287 7                  22427131.57448  91835306.98748

  22742730.156 6 121701069.216 6  22742736.199 5  22742736.527 5  94656294.370 5

  24254422.016 7 127457858.865 7  24254432.551 5  24254431.81646  99317870.19746

  21384762.711 8 114515376.159 8  21384766.867 7  21384767.074 6  89066761.630 6

  21480791.977 9 112882372.711 9                  21480798.87549  87960324.00449

  20615152.570 9 108333338.282 9  20615159.273 8  20615159.13349  84415611.66049

  20188477.063 9 106091122.397 9                  20188481.09449  82668417.70649

  23894479.117 7 125566326.677 7  23894489.555 6  23894489.66447  97843932.97847

  22388877.609 7 117654217.869 7  22388885.652 7  22388885.94548  91678737.32948

  20853175.359 9 111550556.244 9  20853182.125 7  20853183.109 7  86761434.789 7

  22391007.203 7 119482729.377 7  22391014.051 5  22391013.559 5  92931042.120 5

 15  2  1  1  2  0.0000000  0 16G30G06R10R24R01G10R17G15R08G13G05G02
                                G07G29R23R02
  23523361.578 7 123616122.079 7  23523374.051 6  23523373.23847  96324303.98147
  23523373.848 8  92310770.368 8
  22989907.266 7 120812689.269 7  22989920.125 6  22989919.40247  94139777.59547
  22989919.785 9  90217283.420 9
  23223306.539 6 123793309.745 6  23223318.633 1  23223318.969 1  96283748.547 1

  19537324.109 9 104474830.870 9  19537327.254 6  19537327.125 6  81258218.613 6

  19776944.336 9 105719094.455 9  19776950.852 6  19776951.262 6  82225989.927 6

  22442084.766 7 117934116.735 7                  22442092.75048  91896571.14148

  22721087.586 7 121585256.277 7  22721094.254 5  22721094.813 5  94566217.728 5

  24233288.195 6 127346805.012 6  24233299.090 5  24233298.81646  99231334.86746

  21399969.148 8 114596807.612 8  21399973.941 6  21399974.430 6  89130097.152 6

  21465377.633 9 112801370.497 9                  21465385.32849  87897205.41449

  20613408.164 9 108324170.765 9  20613414.578 8  20613414.16849  84408468.13349

  20191359.648 9 106106270.156 9                  20191363.66849  82680221.12749

  23894369.984 7 125565754.088 7  23894380.324 5  23894380.50847  97843486.77847

  22380757.398 7 117611547.369 7  22380765.902 6  22380766.00448  91645487.56048

  20872421.914 9 111653511.878 9  20872429.051 7  20872429.246 6  86841511.288 6

  22376710.500 7 119406441.959 7  22376716.520 5  22376716.664 5  92871707.492 5

 15  2  1  1  2 30.0000000  0 16G30G06R10R24R01G10R17G15R08G13G05G02
                                G07G29R23R02
  23514657.523 7 123570381.616 7  23514670.371 6  23514669.21947  96288662.08547
  23514670.063 8  92276613.580 8
  23006360.258 7 120899149.990 7  23006372.605 7  23006372.55947  94207149.41447
  23006373.410 9  90281848.041 9
  23211290.656 7 123729260.978 7  23211303.008 1  23211302.641 1  96233932.914 1

  19535328.492 9 104464161.981 9  19535332.281 6  19535332.352 6  81249920.570 6

  19777088.063 9 105719859.576 9  19777093.773 6  19777094.926 6  82226585.015 6

  22457064.383 7 118012834.934 7                  22457072.26248  91957909.88848

  22699505.633 7 121469765.805 7  22699512.480 5  22699512.703 5  94476391.899 5

  24212180.383 6 127235886.470 6  24212192.473 6  24212191.87546  99144904.88346

  21415192.375 8 114678327.707 8  21415198.645 6  21415197.742 6  89193501.584 6

  21450040.586 9 112720773.116 9                  21450047.46949  87834402.28549

  20611712.398 9 108315260.547 9  20611718.988 8  20611718.57449  84401525.09949

  20194328.422 9 106121870.194 9                  20194332.64849  82692376.95849

  23894359.234 7 125565694.895 7  23894369.348 5  23894368.76246  97843440.66046

  22372741.359 7 117569419.807 7  22372749.398 7  22372749.23048  91612660.88548

  20891764.516 9 111756983.263 9  20891772.188 7  20891772.566 7  86921988.930 7

  22362464.117 7 119330418.574 7  22362470.859 6  22362471.109 5  92812578.158 5

 15  2  1  1  3  0.0000000  0 16G30G06R10R24R01G10R17G15R08G13G05G02
                                G07G29R23R02
  23506030.641 6 123525048.045 6  23506042.949 6  23506042.64847  96253337.26547
  23506042.852 8  92242760.639 8
  23022860.516 7 120985862.107 7  23022873.891 7  23022873.07847  94274717.11647
  23022874.105 9  90346600.383 9
  23199376.703 7 123665744.340 7  23199387.926 1  23199387.207 1  96184531.088 1

  19533487.031 9 104454313.296 9  19533491.340 6  19533491.066 6  81242260.454 6

  19777300.789 9 105720995.446 9  19777306.547 6  19777306.988 6  82227468.449 6

  22472062.469 7 118091648.106 7                  22472070.29748  92019322.66948

  22677984.594 7 121354601.627 7  22677989.836 5  22677991.141 5  94386819.838 5

  24191099.320 6 127125105.124 6  24191110.426 4  24191110.20746  99058581.89246

  21430432.008 8 114759934.929 8  21430437.031 6  21430437.160 6  89256973.774 6

  21434780.719 9 112640582.093 9                  21434788.06349  87771915.79449

  20610065.617 9 108306607.076 9  20610072.402 8  20610071.77349  84394782.13549

  20197383.430 9 106137923.751 9                  20197386.85949  82704886.17349

  23894445.797 7 125566149.662 7  23894456.324 6  23894456.16447  97843795.00547

  22364828.070 7 117527836.796 7  22364836.883 7  22364836.68048  91580258.51848

  20911203.719 9 111860966.957 9  20911210.965 7  20911211.691 7  87002865.024 7

  22348267.430 7 119254659.567 7  22348274.387 5  22348274.234 5  92753654.462 5

 15  2  1  1  3 30.0000000  0 16G30G06R10R24R01G10R17G15R08G13G05G02
                                G07G29R23R02
  23497480.953 6 123480123.520 6  23497494.074 6  23497494.10247  96218331.18047
  23497494.301 8  92209213.150 8
  23039409.656 7 121072824.366 7  23039422.855 7  23039421.98447  94342479.73247
  23039422.547 9  90411539.538 9
  23187560.391 7 123602762.561 7  23187572.789 1  23187572.070 1  96135545.329 1

  19531799.219 9 104445285.771 9  19531802.789 6  19531802.676 6  81235239.034 6

  19777582.375 9 105722500.298 9  19777586.973 6  19777588.309 6  82228638.910 6

  22487077.570 7 118170555.420 7                  22487086.43048  92080808.80348

  22656525.000 7 121239768.042 7  22656530.770 5  22656532.023 5  94297504.893 5

  24170045.750 7 127014462.919 7  24170056.352 5  24170055.41046  98972367.21346

  21445687.813 8 114841626.879 8  21445693.480 6  21445692.898 6  89320511.892 6

  21419598.648 9 112560799.260 9                  21419606.10549  87709747.37549

  20608467.547 9 108298210.184 9  20608474.008 8  20608473.94149  84388239.09349

  20200524.281 9 106154430.602 9                  20200528.26249  82717748.63149

  23894630.016 7 125567119.253 7  23894640.121 5  23894640.63746  97844550.48846

  22357019.172 8 117486799.355 8  22357026.938 7  22357026.71548  91548281.26548

  20930736.945 9 111965459.034 9  20930744.723 7  20930745.180 7  87084136.540 7

  22334119.563 7 119179164.597 7  22334126.875 5  22334125.949 5  92694936.145 5

 15  2  1  1  4  0.0000000  0 16G30G06R10R24R01G10R17G15R08G13G05G02
                                G07G29R23R02
  23489011.086 7 123435610.583 7  23489023.305 6  23489022.87147  96183645.81247
  23489023.422 8  92175973.019 8
  23056005.758 7 121160035.921 7  23056018.844 6  23056018.46547  94410436.60947
  23056019.258 9  90476664.835 9
  23175846.555 7 123540320.187 7  23175857.047 1  23175857.617 1  96086979.106 1

  19530264.344 9 104437080.729 9  19530268.488 6  19530267.984 6  81228857.303 6

  19777932.250 9 105724372.949 9  19777938.445 6  19777938.879 6  82230095.393 6

  22502111.258 7 118249555.836 7                  22502118.99248  92142367.47048

  22635128.148 7 121125269.185 7  22635134.973 5  22635135.184 5  94208450.286 5

  24149017.813 6 126903961.987 6  24149028.891 5  24149027.32446  98886262.74446

  21460959.320 8 114923402.258 8  21460963.328 6  21460963.441 6  89384114.854 6

  21404494.797 9 112481426.890 9                  21404501.99249  87647898.80649

  20606918.656 9 108290069.357 9  20606925.402 8  20606925.56649  84381895.59049

  20203751.938 9 106171391.899 9                  20203755.88749  82730965.19149

  23894913.008 7 125568603.921 7  23894923.129 6  23894922.60946  97845707.38746

  22349313.984 7 117446309.034 7  22349321.910 7  22349322.21148  91516730.36548

  20950366.047 9 112070455.967 9  20950372.898 7  20950373.371 7  87165800.710 7

  22320020.273 7 119103933.732 7  22320027.441 5  22320027.340 5  92636423.225 5

 15  2  1  1  4 30.0000000  0 16G30G06R10R24R01G10R17G15R08G13G05G02
                                G07G29R23R02
  23480619.430 6 123391511.558 6  23480632.355 6  23480631.76247  96149282.99247
  23480631.496 8  92143041.986 8
  23072649.039 7 121247495.711 7  23072661.242 7  23072661.03547  94478586.92347
  23072662.004 9  90541975.506 9
  23164233.883 7 123478420.842 7  23164244.969 1  23164245.543 1  96038835.212 1

  19528884.320 9 104429698.613 9  19528887.789 6  19528887.727 6  81223115.633 6

  19778351.070 9 105726611.616 9  19778357.277 6  19778357.867 6  82231836.577 6

  22517162.344 7 118328648.477 7                  22517170.16448  92203998.00548

  22613794.141 7 121011109.110 7  22613800.297 5  22613800.809 5  94119659.170 5

  24128017.383 6 126793604.319 6  24128027.234 5  24128025.94146  98800269.81046

  21476244.984 8 115005259.135 8  21476249.762 7  21476249.719 6  89447781.245 6

  21389468.852 9 112402466.843 9                  21389476.15649  87586371.50949

  20605418.281 9 108282183.987 9  20605424.598 8  20605424.93049  84375751.13149

  20207066.281 9 106188808.291 9                  20207070.10549  82744536.36549

  23895293.844 7 125570604.233 7  23895303.785 5  23895303.34846  97847266.05046

  22341712.875 7 117406367.132 7  22341721.238 7  22341721.19948  91485606.80148

  20970086.781 9 112175954.040 9  20970094.168 7  20970094.934 7  87247854.664 7

  22305971.984 7 119028967.298 7  22305979.586 5  22305979.086 5  92578115.935 5

 15  2  1  1  5  0.0000000  0 16G30G06R10R24R01G10R17G15R08G13G05G02
                                G07G29R23R02
  23472306.359 6 123347828.963 6  23472319.379 6  23472319.14147  96115244.62447
  23472318.988 8  92110421.917 8
  23089338.461 7 121335202.718 7  23089351.832 6  23089351.23847  94546929.86847
  23089352.094 9  90607470.776 9
  23152724.078 7 123417068.228 7  23152736.531 1  23152736.281 1  95991116.585 1

  19527658.156 9 104423140.564 9  19527661.766 6  19527661.543 6  81218014.918 6

  19778837.805 9 105729214.695 9  19778843.988 6  19778845.160 6  82233861.194 6

  22532229.852 7 118407832.585 7                  22532238.55947  92265699.79347

  22592524.398 7 120897291.681 7  22592530.992 5  22592531.125 5  94031134.559 5

  24107043.906 6 126683392.023 6  24107055.766 5  24107055.26646  98714390.15646

  21491545.625 8 115087195.944 8  21491551.410 6  21491551.695 6  89511509.777 6

  21374522.031 9 112323921.140 9                  21374529.26249  87525167.09349

  20603966.125 9 108274553.794 9  20603972.848 8  20603972.60549  84369805.52949

  20210467.438 9 106206680.630 9                  20210471.43049  82758462.84949

  23895772.492 7 125573121.254 7  23895783.000 5  23895782.25847  97849227.33347

  22334217.273 7 117366975.136 7  22334225.141 7  22334225.11748  91454911.74748

  20989902.445 9 112281949.632 9  20989908.980 7  20989910.004 6  87330295.568 6

  22291973.336 7 118954264.953 7  22291980.152 5  22291979.742 5  92520014.091 5

 15  2  1  1  5 30.0000000  0 16G30G06R10R24R01G10R17G15R08G13G05G02
                                G07G29R23R02
  23464073.688 6 123304565.349 6  23464087.340 6  23464086.35247  96081532.78147
  23464085.672 8  92078114.709 8
  23106075.781 7 121423156.255 7  23106089.742 7  23106089.07447  94615464.88347
  23106089.574 9  90673150.135 9
  23141318.188 7 123356266.422 7  23141329.469 1  23141329.805 1  95943826.330 1

  19526584.820 9 104417407.840 9  19526588.930 6  19526588.926 6  81213556.110 6

  19779393.336 9 105732181.250 9  19779399.422 6  19779399.949 6  82236168.508 6

  22547315.969 7 118487107.647 7                  22547324.41048  92327472.45248

  22571318.609 7 120783821.660 7  22571326.840 5  22571326.367 5  93942880.155 5

  24086099.766 6 126573327.347 6  24086111.211 4  24086109.72346  98628625.58146

  21506861.852 8 115169211.299 8  21506866.539 6  21506866.695 6  89575299.391 6

  21359654.875 9 112245791.974 9                  21359661.66849  87464287.24749

  20602562.891 9 108267178.513 9  20602569.531 8  20602569.11349  84364058.54049

  20213955.383 9 106225009.874 9                  20213959.54749  82772745.34749

  23896349.117 7 125576154.895 7  23896359.813 5  23896359.90246  97851591.16846

  22326826.195 7 117328134.453 7  22326833.746 7  22326833.93848  91424646.26248

  21009809.609 9 112388439.425 9  21009816.891 7  21009817.523 7  87413120.850 7

  22278022.531 7 118879827.518 7  22278030.418 6  22278030.422 5  92462118.284 5

 15  2  1  1  6  0.0000000  0 16G30G06R10R24R01G10R17G15R08G13G05G02
                                G07G29R23R02
  23455920.438 7 123261722.713 7  23455933.742 6  23455933.43047  96048148.93347
  23455933.805 9  92046121.872 9
  23122859.953 7 121511354.811 7  23122872.848 6  23122872.33247  94684190.87047
  23122873.125 9  90739012.489 9
  23130015.359 6 123296018.451 6  23130028.098 1  23130026.438 1  95896966.885 1

  19525668.328 9 104412500.720 9  19525671.734 6  19525671.387 6  81209739.434 6

  19780016.320 9 105735509.097 9  19780021.352 6  19780022.508 6  82238756.817 6

  22562418.547 7 118566472.397 7                  22562427.14548  92389315.01348

  22550181.961 7 120670702.711 7  22550188.418 5  22550188.414 5  93854898.812 5

  24065182.820 6 126463411.987 6  24065194.117 5  24065193.18846  98542977.27946

  21522191.320 8 115251302.973 8  21522196.855 6  21522196.773 6  89639148.396 6

  21344866.617 9 112168080.860 9                  21344874.05549  87403733.15249

  20601207.219 9 108260057.629 9  20601214.031 8  20601213.96949  84358509.79149

  20217530.391 9 106243796.075 9                  20217533.92249  82787383.91049

  23897025.531 7 125579705.666 7  23897036.273 5  23897035.68446  97854357.98546

  22319539.727 7 117289846.124 7  22319547.727 6  22319547.43048  91394811.17948

  21029808.039 9 112495419.143 9  21029815.941 7  21029816.180 7  87496327.185 7

  22264122.898 7 118805654.564 7  22264130.410 5  22264130.266 5  92404428.202 5

 15  2  1  1  6 30.0000000  0 16G30G06R10R24R01G10R17G15R08G13G05G02
                                G07G29R23R02
  23447848.586 7 123219303.579 7  23447862.051 6  23447861.44947  96015095.07947
  23447861.125 8  92014445.272 8
  23139690.516 7 121599797.535 7  23139703.648 7  23139703.34047  94753107.07947
  23139703.957 9  90805057.157 9
  23118817.375 7 123236327.979 7  23118830.430 1  23118829.828 1  95850541.053 1

  19524904.953 9 104408419.971 9  19524908.527 6  19524909.031 6  81206565.490 6

  19780705.672 9 105739196.783 9  19780711.457 6  19780711.664 6  82241624.995 6

  22577536.898 7 118645926.157 7                  22577547.31648  92451226.93648

  22529109.281 7 120557939.138 7  22529116.164 5  22529115.426 5  93767193.840 5

  24044296.656 6 126353647.919 6  24044307.223 5  24044307.04746  98457446.96946

  21537535.477 8 115333469.555 8  21537541.176 6  21537541.082 6  89703055.614 6

  21330158.445 9 112090790.023 9                  21330165.58649  87343506.54749

  20599901.086 9 108253190.869 9  20599907.742 8  20599907.42649  84353159.06349

  20221192.641 9 106263040.052 9                  20221196.20749  82802379.17849

  23897800.281 7 125583774.364 7  23897810.008 5  23897809.94547  97857528.37147

  22312359.375 7 117252111.504 7  22312366.988 6  22312367.32848  91365407.58748

  21049898.492 9 112602885.351 9  21049904.875 7  21049905.609 6  87579911.891 6

  22250273.805 7 118731746.103 7  22250279.980 5  22250279.996 5  92346943.843 5

 15  2  1  1  7  0.0000000  0 16G30G06R10R24R01G10R17G15R08G13G05G02
                                G07G29R23R02
  23439857.906 7 123177309.971 7  23439870.566 6  23439869.96947  95982372.81947
  23439869.875 8  91983086.434 8
  23156566.992 7 121688483.201 7  23156579.633 7  23156579.05147  94822212.59047
  23156580.313 9  90871283.239 9
  23107725.484 7 123177198.841 7  23107737.000 1  23107736.398 1  95804551.812 1

  19524296.500 9 104405166.504 9  19524300.578 6  19524299.777 6  81204034.998 6

  19781463.000 9 105743242.765 9  19781467.883 6  19781469.023 6  82244771.844 6

  22592673.953 7 118725468.267 7                  22592683.35248  92513207.66548

  22508103.867 7 120445534.847 7  22508109.105 5  22508109.242 5  93679768.345 5

  24023437.008 6 126244037.270 6  24023448.840 5  24023448.17246  98372036.12246

  21552894.086 8 115415709.101 8  21552898.574 6  21552898.156 6  89767019.618 6

  21315530.781 9 112013920.750 9                  21315537.97349  87283608.42749

  20598642.195 9 108246577.586 9  20598649.270 8  20598649.19949  84348005.84449

  20224941.516 9 106282742.323 9                  20224945.48049  82817731.55249

  23898671.969 7 125588361.022 7  23898682.492 6  23898682.43446  97861102.40046

  22305284.523 7 117214931.494 7  22305292.012 7  22305292.34049  91336436.11649

  21070078.070 9 112710834.177 9  21070085.465 7  21070085.848 6  87663871.978 6

  22236472.781 7 118658101.884 7  22236479.078 5  22236478.707 5  92289665.000 5

 15  2  1  1  7 30.0000000  0 16G30G06R10R24R01G10R17G15R08G13G05G02
                                G07G29R23R02
  23431947.914 7 123135744.097 7  23431960.711 6  23431960.34047  95949983.85747
  23431960.309 8  91952047.017 8
  23173489.211 7 121777410.486 7  23173502.148 6  23173501.90647  94891506.36747
  23173503.695 9  90937689.733 9
  23096738.563 7 123118634.376 7  23096750.543 2  23096750.648 1  95759001.800 1

  19523843.281 9 104402740.123 9  19523846.539 6  19523846.652 6  81202147.791 6

  19782286.453 9 105747645.253 9  19782292.246 6  19782292.695 6  82248195.972 6

  22607827.563 7 118805097.448 7                  22607836.27748  92575256.27648

  22487166.336 6 120333493.655 6  22487171.719 5  22487172.059 5  93592625.273 5

  24002608.664 6 126134581.634 6  24002619.398 5  24002619.00846  98286746.11746

  21568264.820 8 115498019.987 8  21568269.918 6  21568270.445 6  89831039.099 6

  21300984.102 9 111937475.264 9                  21300991.26249  87224040.52749

  20597432.023 9 108240217.126 9  20597438.047 8  20597438.56649  84343049.62949

  20228778.313 9 106302903.224 9                  20228781.92649  82833441.31349

  23899644.094 7 125593466.295 7  23899654.613 5  23899654.29747  97865080.50847

  22298315.305 7 117178307.194 7  22298322.434 6  22298322.20348  91307897.67448

  21090347.000 8 112819261.189 8  21090354.656 6  21090355.152 6  87748203.981 6

  22222720.641 8 118584721.772 8  22222727.578 5  22222727.914 5  92232591.597 5

 15  2  1  1  8  0.0000000  0 16G30G06R10R24R01G10R17G15R08G13G05G02
                                G07G29R23R02
  23424120.414 7 123094608.509 7  23424132.398 6  23424131.96147  95917930.17447
  23424132.863 8  91921328.913 8
  23190457.453 7 121866578.693 7  23190470.688 6  23190469.80147  94960987.89847
  23190471.238 9  91004276.145 9
  23085859.203 7 123060638.457 7  23085870.574 1  23085870.441 1  95713893.918 1

  19523544.023 9 104401142.185 9  19523547.293 6  19523547.348 6  81200904.924 6

  19783176.742 9 105752402.710 9  19783182.059 6  19783182.996 6  82251896.184 6

  22622997.641 7 118884813.040 7                  22623005.57047  92637372.21347

  22466296.250 6 120221820.200 6  22466303.777 5  22466303.883 5  93505768.238 5

  23981810.531 7 126025283.370 7  23981821.742 6  23981821.33646  98201578.77446

  21583649.086 8 115580400.568 8  21583653.941 6  21583653.609 6  89895112.780 6

  21286518.016 9 111861455.374 9                  21286524.81649  87164804.27049

  20596269.906 9 108234109.413 9  20596276.406 8  20596276.57849  84338290.35149

  20232702.164 9 106323523.818 9                  20232706.00449  82849509.27749

  23900714.055 7 125599090.325 7  23900724.379 5  23900724.22746  97869462.86546

  22291451.469 7 117142240.424 7  22291459.598 7  22291459.91448  91279793.68248

  21110705.836 9 112928163.199 9  21110713.023 7  21110713.461 7  87832905.445 7

  22209018.984 7 118511606.071 7  22209025.906 6  22209025.949 5  92175723.878 5

 15  2  1  1  8 30.0000000  0 16G30G06R10R24R01G10R17G15R08G13G05G02
                                G07G29R23R02
  23416374.641 6 123053905.583 6  23416387.449 6  23416387.04747  95886213.60547
  23416386.840 8  91890933.864 8
  23207471.852 7 121955986.712 7  23207485.090 6  23207484.46147  95030656.28547
  23207485.844 9  91071041.640 9
  23075086.367 7 123003214.878 7  23075098.227 1  23075097.508 1  95669231.235 1

  19523399.883 9 104400373.403 9  19523403.961 6  19523403.758 6  81200306.943 6

  19784132.344 9 105757513.952 9  19784138.895 6  19784139.645 6  82255871.565 6

  22638182.898 7 118964614.326 7                  22638191.48048  92699554.93948

  22445496.891 6 120110518.541 6  22445503.164 5  22445504.324 5  93419200.396 5

  23961041.609 6 125916144.629 6  23961052.477 6  23961052.69946  98116535.69246

  21599045.656 8 115662849.528 8  21599051.172 6  21599051.238 6  89959239.642 6

  21272133.219 9 111785862.944 9                  21272140.29749  87105901.09749

  20595155.836 9 108228254.456 9  20595162.461 8  20595162.24649  84333728.03349

  20236713.453 9 106344604.414 9                  20236717.44949  82865935.66349

  23901884.078 7 125605233.528 7  23901893.055 5  23901893.16046  97874249.75146

  22284694.594 8 117106732.210 8  22284702.453 6  22284702.38348  91252124.92648

  21131152.547 9 113037536.838 9  21131159.406 7  21131159.871 6  87917973.704 6

  22195366.734 7 118438754.882 7  22195373.043 5  22195373.008 5  92119061.869 5

 15  2  1  1  9  0.0000000  0 16G30G06R10R24R01G10R17G15R08G13G05G02
                                G07G29R23R02
  23408712.523 7 123013637.497 7  23408724.332 6  23408723.27047  95854835.89547
  23408724.117 8  91860863.567 8
  23224530.492 7 122045633.462 7  23224543.785 6  23224543.04747  95100510.67847
  23224545.129 9  91137985.389 9
  23064421.953 7 122946367.082 7  23064433.336 3  23064433.004 1  95625016.339 1

  19523411.961 9 104400434.084 9  19523415.164 6  19523415.152 6  81200354.116 6

  19785154.563 9 105762977.380 9  19785160.844 6  19785161.039 6  82260120.861 6

  22653384.227 7 119044500.746 7                  22653393.13347  92761803.98347

  22424768.414 7 119999592.810 7  22424774.914 5  22424775.215 5  93332924.884 5

  23940303.063 6 125807167.338 6  23940314.813 6  23940314.66046  98031618.44646

  21614454.703 8 115745365.062 8  21614460.039 6  21614460.516 6  90023418.287 6

  21257829.883 9 111710700.076 9                  21257837.22349  87047332.65949

  20594089.211 9 108222651.324 9  20594095.977 8  20594095.68449  84329361.93749

  20240812.641 9 106366145.899 9                  20240816.70749  82882721.19149

  23903151.148 7 125611896.709 7  23903162.262 5  23903161.80946  97879441.84046

  22278043.656 7 117071783.543 7  22278052.449 7  22278052.55548  91224892.18548

  21151685.453 9 113147377.932 9  21151693.191 7  21151693.789 6  88003405.556 6

  22181763.867 7 118366167.935 7  22181771.207 6  22181770.863 6  92062605.372 6

 15  2  1  1  9 30.0000000  0 16G30G06R10R24R01G10R17G15R08G13G05G02
                                G07G29R23R02
  23401132.156 6 122973806.473 6  23401144.820 6  23401144.06347  95823798.75347
  23401144.383 8  91831119.626 8
  23241634.070 7 122135517.811 7  23241648.613 6  23241648.05147  95170550.20947
  23241648.844 8  91205106.565 8
  23053865.266 7 122890098.204 7  23053878.137 2  23053877.656 2  95581251.747 2

  19523578.516 9 104401324.727 9  19523582.250 6  19523581.973 6  81201046.801 6

  19786242.227 9 105768791.310 9  19786247.652 6  19786248.547 6  82264642.771 6

  22668602.820 7 119124471.236 7                  22668610.90247  92824118.55147

  22404109.453 7 119889047.021 7  22404115.715 5  22404116.285 5  93246944.878 5

  23919597.063 7 125698353.587 7  23919607.504 5  23919607.20746  97946828.66346

  21629875.625 8 115827945.700 8  21629881.789 6  21629881.551 6  90087647.570 6

  21243609.258 9 111635968.294 9                  21243615.97749  86989100.13249

  20593071.195 9 108217299.946 9  20593078.051 8  20593077.80949  84325192.00149

  20244999.703 9 106388148.617 9                  20245003.65649  82899866.13149

  23904518.555 7 125619080.026 7  23904528.258 5  23904528.07046  97885039.22646

  22271500.352 8 117037395.529 8  22271508.707 6  22271508.53548  91198096.29448

  21172306.156 9 113257682.595 9  21172313.141 7  21172313.684 7  88089197.961 7

  22168211.586 7 118293845.332 7  22168217.977 6  22168218.152 5  92006354.493 5

 15  2  1  1 10  0.0000000  0 17G30G06R10R24R11R01G10R17G15R08G13G05
                                G02G07G29R23R02
  23393635.945 6 122934414.871 6  23393648.836 6  23393648.26247  95793103.98347
  23393648.988 9  91801703.818 9
  23258784.883 7 122225638.706 7  23258798.336 6  23258797.43847  95240774.05747
  23258798.641 9  91272404.395 9
  23043419.563 7 122834412.092 7  23043432.484 1  23043431.184 1  95537940.393 1

  19523899.766 9 104403045.794 9  19523904.383 6  19523904.402 6  81202385.386 6

  23937222.797 5 127913037.81015  23937238.516 1                  99488161.20211

  19787395.172 9 105774954.157 9  19787400.504 6  19787400.801 6  82269436.071 6

  22683836.516 7 119204525.256 7                  22683845.17647  92886498.19147

  22383523.828 7 119778885.475 7  22383528.777 5  22383529.895 5  93161263.704 5

  23898922.000 7 125589705.259 7  23898933.375 5  23898933.11347  97862167.78847

  21645309.250 8 115910589.797 8  21645314.656 6  21645315.293 6  90151926.201 6

  21229470.570 9 111561669.470 9                  21229477.39149  86931204.96249

  20592100.813 9 108212199.886 9  20592107.398 8  20592107.50449  84321217.89849

  20249274.711 9 106410613.304 9                  20249278.78149  82917371.03949

  23905983.578 6 125626783.465 6  23905994.512 6  23905994.60546  97891041.89746

  22265063.266 7 117003569.415 7  22265071.656 7  22265071.40648  91171738.27148

  21193012.352 8 113368447.042 8  21193019.660 7  21193020.102 6  88175347.970 6

  22154707.586 7 118221786.828 7  22154714.234 5  22154713.258 5  91950309.040 5

 15  2  1  1 10 30.0000000  0 17G30G06R10R24R11R01G10R17G15R08G13G05
                                G02G07G29R23R02
  23386224.477 7 122895464.602 7  23386236.551 6  23386236.31647  95762753.13347
  23386237.047 8  91772617.588 8
  23275978.930 7 122315994.833 7  23275993.461 6  23275992.32047  95311181.24447
  23275993.820 9  91339877.885 9
  23033081.688 7 122779312.011 7  23033094.469 1  23033093.676 1  95495084.868 1

  19524377.523 9 104405597.469 9  19524381.551 6  19524381.066 6  81204370.002 6

  23916892.945 5 127804419.339 5  23916909.223 1  23916909.551 1  99403665.43811

  19788612.891 9 105781464.241 9  19788618.813 6  19788619.313 5  82274499.413 5

  22699085.742 7 119284661.862 7                  22699095.05947  92948942.19347

  22363011.367 7 119669112.178 7  22363016.293 5  22363016.316 5  93075884.518 5

  23878278.250 7 125481224.086 7  23878289.285 5  23878288.32047  97777637.17147

  21660753.969 8 115993295.561 8  21660759.949 6  21660759.469 6  90216252.806 6

  21215414.422 9 111487805.286 9                  21215421.56349  86873648.48349

  20591178.109 9 108207350.674 9  20591184.516 8  20591184.34849  84317439.26349

  20253637.719 9 106433540.100 9                  20253641.85249  82935236.04449

  23907548.852 6 125635007.388 6  23907559.117 5  23907558.90246  97897450.15446

  22258733.750 7 116970306.199 7  22258740.945 6  22258741.44948  91145818.85748

  21213804.313 9 113479667.621 9  21213811.508 7  21213812.352 6  88261852.757 6

  22141253.250 7 118149992.690 7  22141259.203 5  22141259.191 5  91894469.204 5

 15  2  1  1 11  0.0000000  0 17G30G06R10R24R11R01G10R17G15R08G13G05
                                G02G07G29R23R02
  23378897.023 7 122856958.019 7  23378909.242 6  23378908.41447  95732748.02747
  23378909.141 8  91743862.689 8
  23293218.172 7 122406585.194 7  23293232.270 6  23293231.64147  95381770.91647
  23293232.258 9  91407526.293 9
  23022857.648 7 122724800.989 7  23022867.668 2  23022866.949 1  95452687.478 1

  19525009.992 9 104408980.231 9  19525013.805 6  19525013.824 6  81207001.009 6

  23896579.289 5 127695852.610 5  23896592.961 1  23896592.938 1  99319217.91311

  19789896.031 9 105788320.107 9  19789901.180 6  19789901.500 6  82279831.742 6

  22714351.445 7 119364880.323 7                  22714359.94947  93011450.00747

  22342568.648 7 119559731.314 7  22342575.129 5  22342575.129 5  92990810.594 5

  23857667.953 7 125372912.170 7  23857678.008 5  23857676.84447  97693238.46447

  21676210.758 8 116076061.753 8  21676216.277 6  21676216.430 6  90280626.401 6

  21201441.813 9 111414377.641 9                  21201449.19149  86816432.16849

  20590302.852 9 108202751.588 9  20590308.891 8  20590308.80149  84313855.51949

  20258088.008 9 106456929.587 9                  20258092.62549  82953461.56549

  23909213.656 7 125643752.112 7  23909223.688 5  23909223.27746  97904264.24546

  22252511.266 7 116937606.778 7  22252519.207 6  22252519.02348  91120338.76548

  21234680.000 9 113591340.168 9  21234687.777 7  21234687.477 6  88348709.063 6

  22127848.000 7 118078462.491 7  22127854.629 6  22127854.195 5  91838834.645 5

 15  2  1  1 11 30.0000000  0 17G30G06R10R24R11R01G10R17G15R08G13G05
                                G02G07G29R23R02
  23371654.297 7 122818897.170 7  23371666.109 6  23371665.62547  95703090.24647
  23371666.176 8  91715440.645 8
  23310501.070 7 122497408.541 7  23310515.008 6  23310514.88747  95452542.13647
  23310516.207 9  91475348.667 9
  23012741.789 7 122670882.917 7  23012753.461 1  23012752.859 1  95410751.257 1

  19525798.328 9 104413194.194 9  19525801.656 6  19525801.332 6  81210278.510 6

  23876272.219 5 127587342.163 5  23876287.031 1  23876287.828 1  99234821.134 1

  19791242.055 9 105795520.094 9  19791248.566 6  19791249.660 6  82285431.711 6

  22729632.227 7 119445179.793 7                  22729640.94947  93074020.93347

  22322203.063 7 119450746.892 7  22322208.676 5  22322208.773 5  92906044.995 5

  23837089.195 7 125264771.497 7  23837099.188 5  23837099.14146  97608973.17346

  21691676.984 8 116158886.557 8  21691683.078 6  21691682.875 6  90345045.594 6

  21187552.469 9 111341388.625 9                  21187559.32849  86759557.64549

  20589475.297 9 108198402.556 9  20589481.824 8  20589481.40649  84310466.64249

  20262627.367 9 106480782.214 9                  20262631.46549  82972047.99749

  23910977.125 7 125653017.886 7  23910986.797 5  23910986.34847  97911484.34947

  22246396.305 8 116905472.306 8  22246404.422 6  22246404.38748  91095298.87748

  21255639.813 8 113703460.993 8  21255648.336 6  21255648.230 6  88435914.043 6

  22114492.820 7 118007196.307 7  22114499.152 5  22114499.477 5  91783405.409 5

 15  2  1  1 12  0.0000000  0 17G30G06R10R24R11R01G10R17G15R08G13G05
                                G02G07G29R23R02
  23364496.133 6 122781284.289 6  23364509.004 6  23364508.53547  95673781.52047
  23364509.031 8  91687353.113 8
  23327829.328 7 122588463.798 7  23327842.094 6  23327841.64847  95523494.04647
  23327843.793 9  91543344.189 9
  23002738.109 7 122617561.462 7  23002749.676 1  23002749.309 1  95369279.098 1

  19526741.094 9 104418239.843 9  19526745.492 6  19526745.055 6  81214202.867 6

  23855979.555 5 127478891.745 5  23855990.664 1                  99150493.06611

  19792653.141 9 105803062.762 9  19792659.109 6  19792659.477 6  82291298.185 6

  22744927.383 7 119525559.557 7                  22744936.86747  93136654.41647

  22301912.102 8 119342163.213 8  22301917.301 5  22301917.551 5  92821591.052 5

  23816543.289 7 125156803.942 7  23816553.648 5  23816554.24646  97524842.82246

  21707154.938 8 116241768.538 8  21707160.145 6  21707160.465 6  90409509.248 6

  21173746.820 9 111268839.297 9                  21173753.98449  86703025.73049

  20588695.164 9 108194303.356 9  20588701.469 8  20588701.12549  84307272.41949

  20267254.977 9 106505098.474 9                  20267258.96149  82990995.69949

  23912838.922 7 125662805.104 7  23912849.180 5  23912848.99646  97919110.76646

  22240389.250 7 116873903.847 7  22240396.879 7  22240396.49249  91070700.05549

  21276682.859 9 113816026.185 9  21276690.414 7  21276691.199 7  88523464.633 7

  22101186.844 7 117936193.837 7  22101193.031 6  22101193.289 6  91728181.306 6

 15  2  1  1 12 30.0000000  0 17G30G06R10R24R11R01G10R17G15R08G13G05
                                G02G07G29R23R02
  23357424.656 6 122744121.724 6  23357437.789 6  23357436.67247  95644823.69847
  23357436.871 8  91659601.879 8
  23345200.813 7 122679750.032 7  23345214.145 6  23345213.22347  95594625.98147
  23345214.719 8  91611512.228 8
  22992847.836 7 122564839.792 7  22992858.590 1  22992858.691 1  95328273.371 1

  19527840.711 9 104424117.537 9  19527844.508 6  19527844.141 6  81218774.377 6

  23835693.703 3 127370506.635 3  23835709.074 1  23835708.813 1  99066178.93311

  19794127.648 9 105810946.459 9  19794134.266 6  19794134.711 5  82297429.924 5

  22760238.367 7 119606019.153 7                  22760247.83247  93199350.10947

  22281696.094 7 119233984.384 7  22281701.742 5  22281702.211 5  92737452.040 5

  23796031.172 7 125049011.795 7  23796041.367 5  23796040.40646  97440849.11846

  21722642.352 8 116324706.386 8  21722648.703 6  21722648.938 5  90474016.367 5

  21160024.852 9 111196731.996 9                  21160032.08649  86646838.24449

  20587962.633 9 108190454.150 9  20587969.297 8  20587969.00049  84304273.00849

  20271970.063 9 106529878.970 9                  20271974.31649  83010305.13049

  23914801.172 7 125673113.839 7  23914811.098 5  23914810.50446  97927143.55646

  22234489.797 8 116842902.403 8  22234497.945 6  22234497.60248  91046543.05548

  21297808.031 8 113929032.065 8  21297816.309 6  21297816.523 6  88611357.974 6

  22087930.398 7 117865455.370 7  22087937.629 5  22087937.879 5  91673162.493 5

 15  2  1  1 13  0.0000000  0 17G30G06R10R24R11R01G10R17G15R08G13G05
                                G02G07G29R23R02
  23350438.945 6 122707411.455 6  23350451.910 6  23350451.40247  95616218.31447
  23350451.309 8  91632188.386 8
  23362615.109 7 122771265.859 7  23362628.195 6  23362628.17247  95665936.79147
  23362629.141 8  91679851.717 8
  22983070.547 7 122512721.123 7  22983081.504 3  22983082.176 2  95287736.669 2

  19529095.117 9 104430827.032 9  19529099.281 6  19529099.035 6  81223992.828 6

  23815425.563 6 127262191.128 6  23815437.090 1  23815438.473 1  98981933.843 1

  19795666.641 9 105819169.623 9  19795673.250 6  19795673.988 6  82303825.673 6

  22775564.570 7 119686557.753 7                  22775573.57847  93262107.35547

  22261555.945 7 119126214.608 7  22261561.609 6  22261562.352 5  92653631.152 5

  23775552.539 7 124941396.916 7  23775562.594 5  23775561.80546  97356993.59046

  21738141.211 8 116407698.277 8  21738147.531 6  21738147.668 6  90538565.492 6

  21146387.977 9 111125068.084 9                  21146394.44949  86590996.26649

  20587277.766 9 108186853.769 9  20587284.488 8  20587284.63749  84301467.47349

  20276774.406 9 106555124.104 9                  20276778.48449  83029976.61849

  23916860.570 7 125683944.200 7  23916871.098 5  23916871.20746  97935582.82346

  22228698.945 8 116812468.814 8  22228706.090 7  22228705.93849  91022828.54349

  21319014.867 8 114042474.536 8  21319022.977 7  21319023.238 6  88699590.894 6

  22074723.664 8 117794980.610 8  22074729.742 6  22074729.688 5  91618348.792 5

 15  2  1  1 13 30.0000000  0 17G30G06R10R24R11R01G10R17G15R08G13G05
                                G02G07G29R23R02
  23343539.617 6 122671155.842 6  23343552.523 6  23343552.16847  95587967.23647
  23343552.430 8  91605114.424 8
  23380073.359 7 122863010.483 7  23380087.965 6  23380087.77047  95737425.87647
  23380087.570 8  91748362.059 8
  22973407.414 7 122461209.444 7  22973418.141 1  22973417.188 1  95247672.114 1

  19530505.930 9 104438369.093 9  19530509.434 6  19530509.594 6  81229858.836 6

  23795166.984 5 127153949.885 5  23795180.953 1  23795181.633 1  98897736.53811

  19797268.000 9 105827731.028 9  19797273.785 6  19797274.926 5  82310484.528 5

  22790905.734 7 119767174.666 7                  22790914.64847  93324925.64947

  22241493.867 7 119018858.513 7  22241499.402 5  22241499.980 5  92570132.029 5

  23755107.914 7 124833961.274 7  23755118.117 5  23755117.61746  97273277.69746

  21753650.586 8 116490743.257 8  21753655.895 6  21753656.063 6  90603155.893 6

  21132835.281 9 111053849.662 9                  21132842.14549  86535501.41549

  20586639.898 9 108183502.414 9  20586646.824 8  20586647.19549  84298856.00049

  20281666.773 9 106580834.576 9                  20281671.21949  83050010.72149

  23919021.719 7 125695296.691 7  23919031.840 5  23919031.11347  97944428.94547

  22223015.258 8 116782604.497 8  22223023.438 6  22223023.60948  90999557.61848

  21340303.344 8 114156350.093 8  21340311.051 6  21340311.684 6  88788160.659 6

  22061566.594 7 117724769.783 7  22061573.016 5  22061572.840 5  91563740.378 5

 15  2  1  1 14  0.0000000  0 17G30G06R10R24R11R01G10R17G15R08G13G05
                                G02G07G29R23R02
  23336727.203 6 122635356.864 6  23336740.066 6  23336739.79347  95560071.94647
  23336739.699 8  91578381.466 8
  23397576.336 7 122954982.528 7  23397589.684 6  23397588.98447  95809092.16947
  23397589.719 9  91817042.204 9
  22963858.422 7 122410307.263 7  22963869.078 3  22963869.023 2  95208081.617 2

  19532071.313 9 104446743.551 9  19532075.598 6  19532075.699 6  81236372.269 6

  23774926.789 5 127045787.086 5  23774941.348 1  23774940.973 1  98813610.117 1

  19798932.617 9 105836628.810 9  19798938.395 6  19798939.754 6  82317404.985 6

  22806261.516 7 119847869.110 7                  22806270.55947  93387804.35247

  22221509.578 7 118911919.255 7  22221514.867 6  22221515.336 5  92486957.104 5

  23734697.305 7 124726706.819 7  23734707.031 5  23734707.12546  97189702.97346

  21769167.305 8 116573839.652 8  21769173.398 6  21769172.621 6  90667786.320 6

  21119367.641 9 110983078.303 9                  21119374.48049  86480354.92249

  20586049.563 9 108180399.100 9  20586055.910 8  20586056.07849  84296437.79049

  20286648.188 9 106607010.632 9                  20286652.41049  83070407.60549

  23921280.656 7 125707171.140 7  23921291.754 6  23921291.90646  97953681.77446

  22217440.695 8 116753309.719 8  22217449.004 7  22217449.09849  90976730.49849

  21361670.828 8 114270654.440 8  21361679.559 7  21361679.352 6  88877063.918 6

  22048458.336 7 117654822.525 7  22048464.945 6  22048464.211 5  91509336.975 5

 15  2  1  1 14 30.0000000  0 17G30G06R10R24R11R01G10R17G15R08G13G05
                                G02G07G29R23R02
  23330002.266 6 122600016.243 6  23330015.445 6  23330014.30147  95532533.81247
  23330014.441 8  91551990.768 8
  23415120.852 7 123047180.504 7  23415135.020 6  23415133.93047  95880934.53647
  23415135.430 8  91885891.088 8
  22954423.766 7 122360017.805 7  22954435.098 1  22954434.379 1  95168967.616 1

  19533794.094 9 104455949.897 9  19533797.539 6  19533797.762 6  81243532.708 6

  23754700.461 4 126937707.045 4  23754713.078 1                  98729573.26011

  19800659.820 9 105845861.352 9  19800665.918 6  19800667.051 6  82324585.825 6

  22821631.563 7 119928640.246 7                  22821640.43447  93450742.82647

  22201604.555 7 118805401.352 7  22201610.324 6  22201610.824 5  92404109.929 5

  23714323.008 7 124619635.284 7  23714332.895 5  23714332.32047  97106270.81647

  21784694.055 8 116656985.719 8  21784700.055 6  21784700.656 6  90732455.383 6

  21105986.008 9 110912755.515 9                  21105992.45749  86425557.96449

  20585506.070 9 108177543.556 9  20585512.309 8  20585512.15649  84294212.65449

  20291717.922 9 106633652.125 9                  20291721.94149  83091167.16649

  23923640.578 7 125719567.536 7  23923650.395 5  23923649.99246  97963341.32146

  22211974.617 8 116724585.536 8  22211982.984 6  22211983.23848  90954347.98748

  21383118.719 8 114385383.525 8  21383126.590 6  21383126.969 6  88966297.527 6

  22035399.219 7 117585138.521 7  22035405.629 5  22035405.309 5  91455138.312 5

 15  2  1  1 15  0.0000000  0 17G30G06R10R24R11R01G10R17G15R08G13G05
                                G02G07G29R23R02
  23323364.688 7 122565136.275 7  23323377.340 7  23323377.01647  95505354.68347
  23323376.746 8  91525944.098 8
  23432708.602 7 123139603.486 7  23432722.262 6  23432721.82047  95952952.18947
  23432723.203 9  91954907.952 9
  22945104.867 7 122310344.434 7  22945115.840 1  22945115.703 1  95130332.828 1

  19535671.102 9 104465988.496 9  19535674.449 6  19535674.637 6  81251340.450 6

  23734491.211 5 126829714.357 5  23734505.141 1  23734505.465 1  98645558.28611

  19802449.836 9 105855426.729 9  19802455.789 6  19802456.141 6  82332025.538 6

  22837015.875 7 120009487.401 7                  22837026.25047  93513740.52047

  22181777.625 7 118699308.793 7  22181784.770 6  22181785.301 6  92321593.582 6

  23693981.352 7 124512748.660 7  23693992.941 6  23693992.90646  97022982.69846

  21800231.102 8 116740179.938 8  21800235.965 6  21800236.301 6  90797161.848 6

  21092689.539 9 110842882.834 9                  21092696.58649  86371111.74349

  20585010.219 9 108174935.784 9  20585016.449 8  20585016.35249  84292180.59349

  20296876.352 9 106660759.744 9                  20296880.53949  83112289.94449

  23926098.273 6 125732486.079 6  23926108.633 6  23926108.22347  97973407.72447

  22206617.852 8 116696433.209 8  22206625.719 7  22206625.52048  90932411.10248

  21404645.539 8 114500533.769 8  21404652.879 6  21404653.113 6  89055858.718 6

  22022390.148 8 117515717.466 8  22022396.871 6  22022396.129 5  91401144.174 5

 15  2  1  1 15 30.0000000  0 17G30G06R10R24R11R01G10R17G15R08G13G05
                                G02G07G29R23R02
  23316815.500 7 122530719.320 7  23316828.188 6  23316827.85947  95478536.33347
  23316827.414 8  91500243.179 8
  23450339.016 7 123232250.452 7  23450352.535 6  23450351.84046  96025144.42246
  23450353.512 8  92024092.118 8
  22935903.258 7 122261291.304 7  22935913.840 3  22935914.730 2  95092180.468 2

  19537704.242 9 104476859.550 9  19537707.512 6  19537707.887 6  81259795.677 6

  23714298.281 5 126721813.766 5  23714312.566 1                  98561656.86411

  19804301.320 9 105865324.415 9  19804307.129 6  19804307.875 6  82339723.708 6

  22852415.961 7 120090409.937 7                  22852424.64147  93576796.96747

  22162032.789 7 118593646.390 7  22162038.348 5  22162038.828 5  92239411.771 5

  23673678.656 7 124406049.191 7  23673688.484 5  23673688.30547  96939840.41347

  21815775.406 8 116823421.489 8  21815781.027 6  21815780.926 5  90861905.178 5

  21079479.484 9 110773462.381 9                  21079486.32449  86317017.90449

  20584561.055 9 108172575.473 9  20584567.406 8  20584566.98449  84290341.35949

  20302123.609 9 106688334.729 9                  20302127.66049  83133776.91249

  23928656.813 6 125745926.975 6  23928666.457 5  23928666.66847  97983881.18247

  22201369.305 8 116668853.228 8  22201377.336 6  22201377.09448  90910920.19748

  21426248.781 8 114616101.282 8  21426257.531 6  21426257.645 6  89145744.442 6

  22009429.594 7 117446559.972 7  22009436.250 5  22009436.395 5  91347354.982 5

 15  2  1  1 16  0.0000000  0 17G30G06R10R24R11R01G10R17G15R08G13G05
                                G02G07G29R23R02
  23310354.102 6 122496766.562 6  23310367.402 7  23310367.11347  95452079.67747
  23310366.902 8  91474888.928 8
  23468010.969 7 123325119.571 7  23468025.070 6  23468024.14847  96097509.69547
  23468027.230 9  92093442.121 9
  22926816.719 7 122212859.938 7  22926828.387 2  22926827.539 1  95054511.692 1

  19539892.570 9 104488562.121 9  19539897.035 6  19539896.547 6  81268897.611 6

  23694125.664 6 126614009.434 6  23694139.023 1  23694138.766 1  98477781.35111

  19806214.047 9 105875551.512 9  19806220.184 6  19806220.723 6  82347678.113 6

  22867828.586 7 120171406.609 7                  22867837.77047  93639911.15747

  22142368.711 7 118488417.221 7  22142374.230 6  22142374.699 5  92157566.916 5

  23653410.195 7 124299538.413 7  23653419.285 6  23653419.98847  96856845.14647

  21831327.852 8 116906707.922 8  21831334.746 6  21831334.605 6  90926683.403 6

  21066355.156 9 110704494.957 9                  21066362.39849  86263277.07749

  20584158.430 9 108170461.789 9  20584165.453 8  20584165.02749  84288694.30249

  20307459.734 9 106716375.834 9                  20307463.62149  83155627.09849

  23931313.398 6 125759889.561 6  23931323.105 6  23931323.17246  97994761.15046

  22196229.789 8 116641846.244 8  22196238.102 7  22196237.75448  90889875.75148

  21447930.781 8 114732081.334 8  21447938.195 7  21447938.902 6  89235951.008 6

  21996518.727 7 117377664.836 7  21996524.883 5  21996525.012 5  91293769.878 5

 15  2  1  1 16 30.0000000  0 17G30G06R10R24R11R01G10R17G15R08G13G05
                                G02G07G29R23R02
  23303982.922 7 122463280.471 7  23303994.633 6  23303994.03147  95425986.68747
  23303994.176 8  91449883.155 8
  23485725.773 6 123418210.036 6  23485739.734 6  23485738.39146  96170047.42646
  23485741.410 8  92162957.413 8
  22917849.125 7 122165054.115 7  22917859.891 2  22917859.734 1  95017329.465 1

  19542236.313 9 104501096.428 9  19542240.328 6  19542240.004 6  81278646.475 6

  23673968.984 4 126506305.693 4  23673982.770 1  23673983.215 1  98394012.057 1

  19808188.875 9 105886106.670 9  19808193.406 6  19808195.324 6  82355887.651 6

  22883255.953 7 120252477.406 7                  22883265.32047  93703083.08147

  22122785.156 7 118383625.815 7  22122791.832 5  22122792.418 5  92076062.536 5

  23633177.602 6 124193218.300 6  23633187.285 5  23633187.27746  96773998.42946

  21846889.172 8 116990038.577 8  21846896.410 6  21846896.098 6  90991496.009 6

  21053317.680 9 110635982.664 9                  21053324.91849  86209890.89249

  20583803.508 9 108168594.419 9  20583810.145 8  20583809.69549  84287239.18049

  20312884.578 9 106744884.043 9                  20312888.82849  83177841.24049

  23934070.391 6 125774374.216 6  23934080.082 5  23934080.02047  98006047.90547

  22191200.273 8 116615413.436 8  22191208.105 7  22191208.50449  90869278.73949

  21469688.414 8 114848470.631 8  21469696.727 6  21469696.711 6  89326475.886 6

  21983657.055 7 117309032.542 7  21983663.223 5  21983663.164 5  91240389.195 5

 15  2  1  1 17  0.0000000  0 17G30G06R10R24R11R01G10R17G15R08G13G05
                                G02G07G29R23R02
  23297699.219 7 122430262.967 7  23297711.695 6  23297711.26247  95400258.83447
  23297711.930 8  91425227.304 8
  23503482.461 7 123511520.451 7  23503496.813 6  23503495.52047  96242756.63347
  23503498.426 9  92232637.005 9
  22908998.141 7 122117877.433 7  22909008.836 3  22909009.102 2  94980636.546 2

  19544735.758 9 104514462.405 9  19544739.336 6  19544739.383 6  81289042.189 6

  23653833.703 6 126398707.513 6  23653845.691 1  23653846.605 1  98310324.917 1

  19810224.180 9 105896988.839 9  19810230.715 6  19810231.684 6  82364351.529 6

  22898697.172 7 120333621.522 7                  22898706.69947  93766312.18647

  22103285.406 7 118279276.475 7  22103291.367 6  22103292.090 5  91994901.960 5

  23612981.875 6 124087090.909 6  23612992.023 6  23612991.77347  96691301.89447

  21862459.133 8 117073411.930 8  21862465.871 6  21862465.621 6  91056341.844 6

  21040367.055 9 110567926.831 9                  21040374.44549  86156860.39149

  20583494.609 9 108166973.003 9  20583501.121 8  20583500.87949  84285975.70849

  20318398.750 9 106773859.600 9                  20318402.75849  83200419.54949

  23936925.242 6 125789381.030 6  23936935.391 6  23936935.26246  98017741.53446

  22186279.570 8 116589555.197 8  22186287.254 7  22186287.07049  90849129.44949

  21491521.664 8 114965264.986 8  21491529.602 6  21491529.832 6  89417315.812 6

  21970844.352 7 117240662.734 7  21970852.141 6  21970851.684 6  91187212.712 6

 15  2  1  1 17 30.0000000  0 17G30G06R10R24R11R01G10R17G15R08G13G05
                                G02G07G29R23R02
  23291505.602 7 122397716.182 7  23291517.754 6  23291516.97347  95374897.80247
  23291516.938 8  91400922.998 8
  23521280.633 6 123605049.921 6  23521295.375 6  23521294.35246  96315636.48646
  23521296.203 8  92302480.131 8
  22900266.398 7 122071332.648 7  22900277.785 2  22900277.957 1  94944435.154 1

  19547390.875 9 104528659.815 9  19547394.984 6  19547394.805 5  81300084.570 5

  23633718.320 5 126291219.198 5  23633729.848 1  23633730.527 1  98226711.12911

  19812321.203 9 105908196.378 9  19812326.902 6  19812327.695 5  82373068.454 5

  22914152.477 7 120414838.141 7                  22914161.53547  93829597.76047

  22083869.328 7 118175373.115 7  22083873.629 5  22083873.977 5  91914088.287 5

  23592824.031 6 123981158.256 6  23592833.781 5  23592833.36747  96608757.05747

  21878036.969 8 117156826.860 8  21878043.258 6  21878043.203 6  91121220.022 6

  21027504.148 9 110500329.571 9                  21027511.10249  86104187.21149

  20583232.953 9 108165597.486 9  20583239.684 8  20583239.53949  84284903.85849

  20324001.703 9 106803303.098 9                  20324005.78549  83223362.49049

  23939879.266 6 125804910.135 6  23939890.461 5  23939889.86346  98029842.14746

  22181468.586 9 116564272.552 9  22181476.859 6  22181476.62948  90829428.64248

  21513429.695 8 115082460.610 8  21513439.191 6  21513439.379 6  89508467.837 6

  21958080.492 7 117172555.356 7  21958088.000 5  21958087.539 5  91134240.310 5

 15  2  1  1 18  0.0000000  0 17G30G06R10R24R11R01G10R17G15R08G13G05
                                G02G07G29R23R02
  23285402.109 7 122365641.945 7  23285414.770 6  23285414.34847  95349904.96747
  23285414.957 8  91376971.566 8
  23539120.750 6 123698796.940 6  23539134.566 6  23539133.99647  96388685.83847
  23539135.262 9  92372485.719 9
  22891653.313 7 122025422.750 7  22891666.184 2  22891665.098 1  94908727.559 1

  19550201.219 9 104543688.282 9  19550205.656 6  19550205.219 6  81311773.328 6

  23613625.273 6 126183845.429 6  23613635.887 1  23613636.801 1  98143197.47311

  19814477.773 9 105919727.445 9  19814484.219 6  19814484.449 6  82382037.043 6

  22929621.031 7 120496126.249 7                  22929629.94947  93892939.05947

  22064536.047 7 118071919.927 7  22064542.258 6  22064541.258 5  91833624.738 5

  23572702.766 6 123875422.051 6  23572712.953 6  23572713.11347  96526365.32947

  21893621.805 8 117240281.667 8  21893627.031 6  21893627.715 6  91186129.191 6

  21014727.938 9 110433192.055 9                  21014734.66049  86051872.27249

  20583018.086 9 108164467.626 9  20583024.781 8  20583025.00049  84284023.43049

  20329693.523 9 106833214.601 9                  20329697.65249  83246670.11749

  23942935.172 6 125820961.212 6  23942944.840 6  23942945.27047  98042349.48347

  22176766.500 8 116539566.179 8  22176774.164 7  22176774.55149  90810176.89849

  21535413.273 8 115200053.148 8  21535421.336 6  21535422.242 6  89599928.561 6

  21945366.016 7 117104710.136 7  21945372.527 6  21945372.910 6  91081471.810 6

 15  2  1  1 18 30.0000000  0 17G30G06R10R24R11R01G10R17G15R08G13G05
                                G02G07G29R23R02
  23279388.219 6 122334042.113 6  23279400.848 6  23279400.70747  95325281.82747
  23279400.793 8  91353374.393 8
  23557002.492 7 123792760.316 7  23557015.117 5  23557013.89847  96461903.81747
  23557015.570 8  92442652.890 8
  22883161.523 7 121980150.817 7  22883170.773 2  22883171.531 1  94873516.145 1

  19553166.695 9 104559547.385 9  19553171.996 6  19553171.305 6  81324108.127 6

  23593552.813 6 126076590.653 6  23593565.496 1  23593566.059 1  98059777.374 1

  19816695.477 9 105931580.467 9  19816701.430 6  19816702.930 5  82391256.026 5

  22945103.664 7 120577485.664 7                  22945113.07447  93956335.89347

  22045287.383 7 117968920.893 7  22045293.957 6  22045294.203 5  91753514.426 5

  23552619.070 6 123769884.251 6  23552629.805 5  23552629.73847  96444128.18047

  21909213.672 8 117323774.928 8  21909219.570 6  21909219.281 5  91251068.303 5

  21002039.945 9 110366515.947 9                  21002046.87149  85999916.87649

  20582849.297 9 108163582.608 9  20582856.902 8  20582856.35249  84283333.78049

  20335474.516 9 106863594.187 9                  20335478.71549  83270342.49149

  23946088.172 7 125837534.156 7  23946098.238 5  23946097.99246  98055263.45346

  22172175.477 8 116515436.636 8  22172183.129 6  22172183.38748  90791374.63248

  21557468.594 8 115318039.118 8  21557477.074 6  21557477.883 6  89691695.298 6

  21932701.828 8 117037126.870 8  21932708.574 5  21932709.008 5  91028907.100 5

 15  2  1  1 19  0.0000000  0 17G30G06R10R24R11R01G10R17G15R08G13G05
                                G02G07G29R23R02
  23273466.586 7 122302918.677 7  23273478.480 6  23273477.92647  95301029.88147
  23273478.125 9  91330132.989 9
  23574923.844 7 123886938.820 7  23574937.316 6  23574936.00047  96535289.37947
  23574938.379 8  92512980.663 8
  22874787.211 6 121935519.805 6  22874800.555 3  22874799.188 3  94838803.226 3

  19556288.031 9 104576237.162 9  19556292.340 6  19556292.195 6  81337089.022 6

  23573504.742 5 125969459.428 5  23573516.969 1  23573517.063 1  97976453.299 1

  19818973.117 9 105943754.048 9  19818978.602 6  19818979.168 6  82400724.345 6

  22960599.789 7 120658915.664 7                  22960608.23047  94019787.71547

  22026125.445 8 117866380.334 8  22026131.516 6  22026132.051 6  91673760.702 6

  23532574.719 6 123664546.767 6  23532583.953 5  23532584.21947  96362047.07947

  21924812.594 8 117407305.314 8  21924817.848 6  21924818.410 6  91316036.267 6

  20989440.156 9 110300302.494 9                  20989446.91449  85948321.98949

  20582727.711 9 108162942.196 9  20582734.250 8  20582733.91849  84282834.73649

  20341344.688 9 106894442.007 9                  20341348.58649  83294379.70449

  23949341.273 7 125854628.823 7  23949351.918 5  23949351.28546  98068583.97846

  22167692.711 8 116491884.563 8  22167701.410 7  22167701.48848  90773022.34948

  21579598.813 8 115436414.077 8  21579607.289 7  21579607.488 6  89783764.561 6

  21920086.414 7 116969805.320 7  21920093.035 6  21920092.902 6  90976545.869 6

 15  2  1  1 19 30.0000000  0 17G30G06R10R24R11R01G10R17G15R08G13G05
                                G02G07G29R23R02
  23267634.703 7 122272273.689 7  23267647.020 6  23267646.52747  95277150.77947
  23267646.555 8  91307248.864 8
  23592885.141 6 123981331.440 6  23592899.770 6  23592899.19146  96608841.79146
  23592900.980 8  92583468.330 8
  22866537.031 7 121891533.175 7  22866547.914 3  22866547.715 2  94804591.519 2

  19559564.750 9 104593756.453 9  19559568.723 6  19559568.434 6  81350715.082 6

  23553480.102 6 125862457.029 6  23553492.645 1  23553492.387 1  97893229.476 1

  19821310.695 9 105956246.776 9  19821315.949 6  19821317.352 6  82410440.880 6

  22976108.063 7 120740415.777 7                  22976117.05147  94083294.20947

  22007050.133 7 117764302.433 7  22007055.461 5  22007055.344 5  91594366.820 5

  23512567.820 6 123559411.746 6  23512577.520 5  23512576.89546  96280123.74446

  21940417.945 8 117490871.918 8  21940423.305 6  21940423.059 5  91381032.386 5

  20976928.500 9 110234553.625 9                  20976935.19149  85897089.11049

  20582652.797 9 108162546.529 9  20582659.578 8  20582659.35549  84282526.41049

  20347304.297 9 106925759.029 9                  20347308.43049  83318782.52249

  23952694.125 6 125872245.419 6  23952703.414 5  23952703.60246  98082311.16346

  22163321.844 8 116468910.879 8  22163330.035 6  22163329.94548  90755120.76248

  21601799.570 8 115555174.395 8  21601807.945 6  21601808.641 6  89876133.556 6

  21907519.711 8 116902745.558 8  21907525.809 5  21907525.543 5  90924388.270 5

 15  2  1  1 20  0.0000000  0 17G30G06R10R24R11R01G10R17G15R08G13G05
                                G02G07G29R23R02
  23261893.852 6 122242108.817 6  23261906.488 6  23261905.93847  95253645.78547
  23261906.902 9  91284723.239 9
  23610888.148 6 124075936.678 6  23610903.527 6  23610902.34047  96682559.86147
  23610904.305 8  92654114.741 8
  22858406.242 7 121848193.366 7  22858417.363 2  22858416.988 1  94770882.855 1

  19562996.031 9 104612105.231 9  19562999.844 6  19562999.949 6  81364986.301 6

  23533478.711 5 125755587.360 5  23533494.656 1  23533493.813 1  97810108.920 1

  19823706.406 9 105969056.824 9  19823712.691 6  19823713.234 6  82420404.201 6

  22991630.234 7 120821984.947 7                  22991639.55147  94146854.48447

  21988061.258 7 117662691.073 7  21988066.684 5  21988066.914 5  91515335.796 5

  23492600.273 7 123454480.949 7  23492610.215 5  23492609.96947  96198359.56847

  21956030.430 8 117574473.019 8  21956036.055 6  21956036.629 6  91446055.365 6

  20964505.117 9 110169270.732 9                  20964512.65649  85846219.32149

  20582623.570 9 108162394.475 9  20582630.406 8  20582630.31649  84282407.90449

  20353353.180 9 106957544.857 9                  20353357.36749  83343550.65049

  23956145.789 6 125890383.576 6  23956155.668 5  23956154.85946  98096444.80746

  22159060.266 8 116446516.077 8  22159068.242 7  22159068.09848  90737670.25148

  21624072.328 8 115674315.820 8  21624080.113 6  21624080.492 6  89968798.960 6

  21895001.328 8 116835947.035 8  21895007.480 6  21895007.004 6  90872433.865 6

 15  2  1  1 20 30.0000000  0 17G30G06R10R24R11R01G10R17G15R08G13G05
                                G02G07G29R23R02
  23256245.984 7 122212425.968 7  23256257.828 6  23256257.53547  95230516.38947
  23256258.383 9  91262557.592 9
  23628932.055 6 124170753.320 6  23628946.125 6  23628945.65247  96756442.69347
  23628946.914 8  92724919.043 8
  22850397.289 7 121805503.537 7  22850408.527 2  22850408.168 1  94737679.782 1

  19566582.141 9 104631282.978 9  19566586.758 6  19566586.406 6  81379902.265 6

  23513506.453 5 125648855.030 5  23513519.777 1  23513520.457 1  97727095.116 1

  19826162.133 9 105982182.809 9  19826167.508 6  19826168.719 5  82430613.279 5

  23007165.305 7 120903622.736 7                  23007174.85247  94210468.23347

  21969159.703 7 117561550.328 7  21969166.883 5  21969167.020 5  91436670.833 5

  23472671.438 6 123349756.140 6  23472681.215 5  23472681.21546  96116755.85346

  21971647.758 8 117658107.587 8  21971654.113 6  21971653.723 5  91511104.359 5

  20952171.266 9 110104455.304 9                  20952178.48049  85795713.80149

  20582641.133 9 108162486.713 9  20582648.027 8  20582647.53149  84282479.75549

  20359490.883 9 106989799.776 9                  20359495.04749  83368684.29749

  23959697.117 7 125909043.252 7  23959707.594 5  23959706.30947  98110984.78147

  22154908.406 8 116424701.008 8  22154917.824 6  22154917.80148  90720671.45048

  21646415.102 8 115793834.491 8  21646422.918 6  21646423.500 6  90061757.783 6

  21882532.141 7 116769409.616 7  21882538.551 5  21882537.984 5  90820682.564 5

 15  2  1  1 21  0.0000000  0 17G30G06R10R24R11R01G10R17G15R08G13G05
                                G02G07G29R23R02
  23250688.594 7 122183226.885 7  23250701.387 6  23250701.35947  95207763.93147
  23250701.090 8  91240753.172 8
  23647015.078 6 124265779.924 6  23647030.055 6  23647029.53547  96830489.11547
  23647029.508 8  92795880.165 8
  22842511.313 7 121763466.267 7  22842522.520 3  22842522.457 1  94704984.247 1

  19570323.570 9 104651289.089 9  19570327.070 6  19570327.395 6  81395462.507 6

  23493559.961 6 125542264.575 6  23493571.055 1  23493572.203 1  97644191.595 1

  19828676.094 9 105995622.768 9  19828682.387 6  19828683.082 6  82441066.530 6

  23022713.930 7 120985328.634 7                  23022723.09847  94274135.05647

  21950348.891 8 117460884.379 8  21950354.141 6  21950354.418 5  91358375.139 5

  23452782.547 7 123245239.242 7  23452792.574 6  23452792.79747  96035314.20347

  21987272.883 8 117741774.151 8  21987277.762 6  21987277.438 6  91576178.219 6

  20939926.617 9 110040108.599 9                  20939934.08249  85745573.52449

  20582705.031 9 108162822.166 9  20582711.750 8  20582711.43449  84282741.12549

  20365718.070 9 107022523.795 9                  20365721.82849  83394183.47849

  23963346.898 6 125928224.230 6  23963356.656 5  23963356.37546  98125930.94146

  22150867.992 8 116403465.909 8  22150876.648 7  22150876.34449  90704124.59949

  21668828.250 8 115913726.318 8  21668835.508 6  21668836.754 6  90155006.840 6

  21870110.813 7 116703132.837 7  21870118.941 6  21870118.207 6  90769133.970 6

 15  2  1  1 21 30.0000000  0 17G30G06R10R24R11R01G10R17G15R08G13G05
                                G02G07G29R23R02
  23245225.484 7 122154513.137 7  23245237.121 6  23245236.39847  95185389.66247
  23245237.012 9  91219311.180 9
  23665137.234 6 124361015.118 6  23665152.914 6  23665152.31646  96904698.04246
  23665153.465 8  92866997.003 8
  22834747.672 7 121722084.524 7  22834760.070 2  22834759.453 1  94672798.570 1

  19574219.328 9 104672122.429 9  19574224.145 6  19574223.375 6  81411666.158 6

  23473640.227 6 125435820.584 6  23473652.906 1  23473653.348 1  97561402.042 1

  19831249.234 9 106009375.340 9  19831255.664 6  19831255.758 6  82451762.951 6

  23038275.297 7 121067101.614 7                  23038283.82847  94337854.12747

  21931625.469 8 117360696.808 8  21931631.730 5  21931631.941 5  91280451.545 5

  23432933.781 7 123140932.129 7  23432943.047 5  23432943.16447  95954035.95947

  22002902.438 7 117825471.121 7  22002907.914 6  22002908.379 5  91641275.745 5

  20927771.414 9 109976232.105 9                  20927778.25849  85695799.63049

  20582815.117 9 108163400.444 9  20582821.582 8  20582821.60549  84283191.70549

  20372034.492 9 107055716.990 9                  20372038.87149  83420048.24549

  23967095.383 7 125947925.853 7  23967104.883 5  23967105.36346  98141282.81146

  22146937.289 8 116382811.307 8  22146945.598 6  22146945.39848  90688030.08248

  21691308.445 8 116033986.998 8  21691317.348 6  21691318.887 6  90248542.778 6

  21857740.109 8 116637116.601 8  21857747.402 6  21857747.141 5  90717787.983 5

 15  2  1  1 22  0.0000000  0 17G30G06R10R24R11R01G10R17G15R08G13G05
                                G02G07G29R23R02
  23239853.898 7 122126286.804 7  23239865.898 6  23239865.11347  95163395.19547
  23239865.605 9  91198233.154 9
  23683300.445 6 124456457.827 6  23683315.270 6  23683314.78147  96979068.64247
  23683316.102 8  92938268.762 8
  22827109.250 7 121681361.107 7  22827119.031 3  22827118.891 2  94641124.909 2

  19578270.711 9 104693782.622 9  19578274.426 6  19578274.008 6  81428512.920 6

  23453749.141 6 125329527.372 6  23453760.582 1  23453761.613 1  97478729.686 1

  19833879.734 9 106023438.915 9  19833887.176 6  19833886.984 6  82462701.257 6

  23053848.594 7 121148941.239 7                  23053857.78947  94401625.14947

  21912994.227 8 117260992.139 8  21912999.563 6  21912999.227 5  91202903.512 5

  23413125.484 7 123036836.869 7  23413134.590 6  23413134.82847  95872922.80447

  22018536.664 7 117909197.585 7  22018543.965 6  22018543.758 6  91706396.205 6

  20915705.695 9 109912827.379 9                  20915713.05149  85646393.35349

  20582970.984 9 108164221.146 9  20582977.676 8  20582977.55149  84283831.17749

  20378440.680 9 107089379.835 9                  20378444.83249  83446278.96649

  23970944.430 7 125968148.087 7  23970953.988 5  23970953.82046  98157040.39446

  22143117.453 8 116362737.720 8  22143125.992 7  22143126.08248  90672388.28248

  21713859.680 8 116154612.752 8  21713867.043 6  21713867.004 6  90342362.634 6

  21845417.547 7 116571360.646 7  21845423.949 6  21845424.500 5  90666644.468 5

 15  2  1  1 22 30.0000000  0 17G30G06R10R24R11R01G10R17G15R08G13G05
                                G02G07G29R23R02
  23234575.609 7 122098549.422 7  23234587.934 6  23234587.80147  95141781.72847
  23234588.059 9  91177520.266 9
  23701501.797 6 124552106.543 6  23701516.910 6  23701516.23047  97053599.82947
  23701517.199 8  93009694.416 8
  22819593.477 7 121641298.713 7  22819602.695 3  22819603.000 2  94609965.362 2

  19582475.594 9 104716268.899 9  19582479.895 6  19582479.023 6  81446002.180 6

  23433885.117 6 125223389.678 6  23433897.113 1  23433897.789 1  97396178.331 1

  19836568.555 9 106037811.668 9  19836574.184 6  19836575.512 5  82473880.035 5

  23069434.508 7 121230846.938 7                  23069443.94947  94465447.66047

  21894452.086 8 117161774.224 8  21894458.566 6  21894458.930 5  91125734.075 5

  23393357.445 7 122932954.990 7  23393366.441 5  23393366.08647  95791975.93347

  22034178.516 7 117992952.158 7  22034184.602 6  22034183.961 5  91771538.519 5

  20903730.289 9 109849895.426 9                  20903737.30949  85597355.46849

  20583173.563 9 108165284.107 9  20583180.859 8  20583180.62549  84284659.44249

  20384935.875 9 107123512.173 9                  20384940.18849  83472875.52249

  23974891.336 7 125988890.824 7  23974901.613 5  23974900.83647  98173203.48647

  22139408.492 9 116343245.455 9  22139416.371 6  22139416.55949  90657199.46249

  21736475.711 8 116275598.996 8  21736484.391 6  21736484.789 6  90436462.877 6

  21833143.773 8 116505864.650 8  21833150.172 6  21833149.617 5  90615703.150 5

 15  2  1  1 23  0.0000000  0 17G30G06R10R24R11R01G10R17G15R08G13G05
                                G02G07G29R23R02
  23229391.141 7 122071303.197 7  23229402.652 6  23229402.00847  95120550.95747
  23229402.094 9  91157174.120 9
  23719742.367 6 124647960.230 6  23719757.418 6  23719756.38746  97128290.69546
  23719758.410 8  93081273.092 8
  22812200.859 7 121601900.295 7  22812212.781 3  22812212.395 1  94579322.253 1

  19586834.617 9 104739580.776 9  19586839.961 6  19586839.035 6  81464133.593 6

  23414054.078 6 125117412.524 6  23414065.793 1  23414066.355 1  97313751.832 1

  19839315.148 9 106052492.437 9  19839321.164 6  19839321.344 6  82485298.382 6

  23085032.938 7 121312818.142 7                  23085042.64847  94529321.21547

  21876002.711 7 117063047.441 7  21876008.875 6  21876009.496 6  91048946.607 6

  23373629.797 7 122829288.536 7  23373639.785 6  23373639.50847  95711196.95447

  22049824.508 8 118076733.862 8  22049830.020 6  22049829.824 6  91836701.947 6

  20891844.953 9 109787438.260 9                  20891851.93449  85548687.54349

  20583421.906 9 108166589.561 9  20583428.926 8  20583428.57849  84285676.67149

  20391520.359 9 107158114.307 9                  20391524.91049  83499838.16349

  23978936.617 7 126010153.868 7  23978947.328 6  23978947.76647  98189772.05047

  22135809.945 8 116324335.465 8  22135818.488 7  22135818.80949  90642464.38249

  21759160.805 8 116396942.771 8  21759168.602 6  21759168.809 6  90530841.209 6

  21820918.492 7 116440628.662 7  21820925.523 6  21820925.102 6  90564964.047 6

 15  2  1  1 23 30.0000000  0 17G30G06R10R24R11R01G10R17G15R08G13G05
                                G02G07G29R23R02
  23224299.211 7 122044549.579 7  23224311.453 6  23224311.74247  95099704.05747
  23224311.531 9  91137195.849 9
  23738021.656 6 124744017.469 6  23738036.801 6  23738036.21546  97203140.19546
  23738038.121 8  93153003.768 8
  22804936.242 7 121563168.497 7  22804946.875 2  22804946.418 2  94549197.647 2

  19591348.648 9 104763717.420 9  19591352.828 6  19591352.344 6  81482906.463 6

  23394250.680 6 125011600.689 6  23394265.227 1  23394265.320 1  97231453.810 1

  19842118.320 9 106067479.519 9  19842124.750 6  19842125.215 6  82496954.968 6

  23100644.461 7 121394854.173 7                  23100653.42647  94593245.27747

  21857646.648 8 116964815.472 8  21857652.297 6  21857652.734 6  90972544.030 6

  23353943.555 7 122725839.427 7  23353953.617 6  23353953.76647  95630587.32547

  22065474.727 7 118160541.477 7  22065480.477 6  22065480.809 6  91901885.519 6

  20880050.531 9 109725457.101 9                  20880057.71549  85500390.52049

  20583716.125 9 108168136.758 9  20583722.984 8  20583722.79349  84286882.23949

  20398194.594 9 107193186.247 9                  20398198.34049  83527166.88549

  23983082.422 7 126031936.901 7  23983092.551 5  23983091.98846  98206745.79146

  22132322.508 8 116306008.037 8  22132330.609 6  22132330.25448  90628183.24748

  21781911.031 8 116518639.070 8  21781918.930 6  21781919.313 6  90625493.713 6

  21808742.422 8 116375652.276 8  21808748.398 5  21808748.180 5  90514426.828 5

 15  2  1  1 24  0.0000000  0 17G30G06R10R24R11R01G10R17G15R08G13G05
                                G02G07G29R23R02
  23219302.008 7 122018290.346 7  23219314.730 6  23219313.57447  95079242.36647
  23219313.895 9  91117586.751 9
  23756338.797 6 124840276.952 6  23756354.633 6  23756354.29346  97278147.26246
  23756355.379 8  93224885.478 8
  22797793.781 7 121525106.009 7  22797806.637 3  22797805.813 2  94519593.592 2

  19596016.313 9 104788677.689 9  19596020.691 6  19596020.691 6  81502319.950 6

  23374481.484 5 124905958.205 5  23374496.578 1  23374496.320 1  97149287.553 1

  19844978.836 9 106082771.760 9  19844984.840 6  19844986.086 6  82508848.900 6

  23116267.383 7 121476954.420 7                  23116277.29347  94657219.37047

  21839382.125 8 116867082.731 8  21839388.973 6  21839389.168 6  90896529.712 6

  23334299.820 7 122622609.323 7  23334309.957 6  23334309.64147  95550148.36247

  22081128.695 7 118244373.575 7  22081135.852 6  22081136.152 6  91967088.160 6

  20868346.641 9 109663953.184 9                  20868354.03149  85452465.38449

  20584056.891 9 108169925.276 9  20584063.531 8  20584063.38349  84288275.86749

  20404958.070 9 107228727.939 9                  20404962.06649  83554861.64549

  23987326.055 6 126054239.416 6  23987336.785 5  23987336.06646  98224124.35546

  22128946.172 8 116288263.576 8  22128954.180 7  22128954.22349  90614356.36649

  21804724.797 8 116640684.276 8  21804733.270 6  21804734.047 6  90720417.598 6

  21796613.273 8 116310934.866 8  21796621.563 6  21796620.574 6  90464091.040 6

 15  2  1  1 24 30.0000000  0 17G30G06R10R24R11R01G10R17G15R08G13G05
                                G02G07G29R23R02
  23214400.273 7 121992527.080 7  23214412.410 6  23214412.01247  95059167.15347
  23214411.922 9  91098348.005 9
  23774696.352 6 124936737.361 6  23774711.465 6  23774711.03946  97353310.86246
  23774711.719 8  93296917.210 8
  22790780.344 7 121487715.738 7  22790792.406 1  22790791.641 1  94490512.353 1

  19600837.992 9 104814461.028 9  19600842.371 6  19600841.813 6  81522373.590 6

  23354746.289 6 124800490.100 6  23354758.680 1  23354758.773 1  97067256.925 1

  19847896.859 9 106098366.707 9  19847903.109 6  19847903.961 5  82520978.272 5

  23131902.375 7 121559118.237 7                  23131912.42247  94721242.99947

  21821212.633 8 116769852.938 8  21821218.863 6  21821219.125 5  90820906.595 5

  23314698.313 7 122519600.336 7  23314707.512 5  23314707.38347  95469881.71847

  22096788.750 7 118328229.004 7  22096795.148 5  22096795.012 5  92032308.892 5

  20856734.422 9 109602927.933 9                  20856740.84849  85404913.23749

  20584442.922 9 108171955.008 9  20584450.004 8  20584449.85949  84289857.46249

  20411810.758 9 107264739.693 9                  20411815.28549  83582922.68149

  23991669.859 7 126077061.009 7  23991679.730 5  23991679.47746  98241907.38046

  22125680.078 7 116271102.550 7  22125688.383 6  22125688.62549  90600984.10149

  21827604.680 8 116763073.913 8  21827613.926 6  21827613.965 5  90815609.346 5

  21784534.023 8 116246476.464 8  21784542.199 6  21784542.352 5  90413956.698 5

 15  2  1  1 25  0.0000000  0 17G30G06R10R24R11R01G10R17G15R08G13G05
                                G02G07G29R23R02
  23209592.305 7 121967261.551 7  23209604.102 6  23209603.91447  95039479.75547
  23209603.941 9  91079480.927 9
  23793089.945 7 125033397.302 7  23793105.023 6  23793104.35947  97428629.95547
  23793105.270 8  93369097.949 8
  22783893.352 7 121451000.122 7  22783903.262 3  22783903.234 3  94461955.866 3

  19605813.234 9 104841066.349 9  19605817.906 6  19605817.059 6  81543066.559 6

  23335041.203 5 124695200.758 5  23335055.047 1  23335054.785 1  96985365.319 1

  19850870.203 9 106114263.315 9  19850876.219 6  19850877.238 6  82533342.264 6

  23147550.180 7 121641345.070 7                  23147559.41047  94785315.75547

  21803137.930 8 116673130.010 8  21803143.613 6  21803144.234 6  90745677.683 6

  23295138.734 7 122416814.100 7  23295147.930 6  23295147.91447  95389788.64647

  22112453.078 7 118412106.846 7  22112459.250 6  22112459.563 6  92097547.087 6

  20845212.781 9 109542382.472 9                  20845219.77349  85357734.93449

  20584874.977 9 108174225.442 9  20584881.762 8  20584881.64149  84291626.59249

  20418753.180 9 107301221.334 9                  20418757.35549  83611349.87849

  23996110.141 6 126100401.407 6  23996121.223 5  23996120.85246  98260094.65246

  22122526.016 7 116254525.456 7  22122534.207 7  22122533.85548  90588066.87548

  21850548.891 8 116885804.594 8  21850557.074 6  21850557.902 6  90911066.347 6

  21772504.156 8 116182276.634 8  21772509.504 6  21772509.664 5  90364023.517 5

 15  2  1  1 25 30.0000000  0 17G30G06R10R24R11R01G10R17G15R08G13G05
                                G02G07G29R23R02
  23204879.328 7 121942495.814 7  23204891.105 6  23204890.71947  95020181.83447
  23204890.629 9  91060987.094 9
  23811522.117 6 125130255.786 6  23811536.750 6  23811535.93447  97504103.77047
  23811536.902 8  93441426.956 8
  22777131.336 7 121414962.330 7  22777143.012 2  22777142.941 2  94433926.572 2

  19610942.359 9 104868493.203 9  19610946.887 6  19610946.488 6  81564398.498 6

  23315373.984 6 124590095.654 6  23315385.988 1  23315385.496 1  96903617.041 1

  19853900.680 9 106130460.560 9  19853906.586 6  19853907.227 6  82545940.108 6

  23163209.422 7 121723634.794 7                  23163219.16847  94849437.47847

  21785159.063 8 116576918.695 8  21785164.406 6  21785164.641 6  90670846.691 6

  23275621.219 6 122314252.900 6  23275631.207 6  23275630.93447  95309870.91047

  22128121.000 7 118496005.994 7  22128126.746 6  22128126.859 5  92162801.857 5

  20833782.977 9 109482318.644 9                  20833789.76249  85310931.95449

  20585352.969 9 108176736.770 9  20585359.613 8  20585359.07449  84293583.45349

  20425784.508 9 107338173.228 9                  20425788.98049  83640143.50149

  24000651.047 7 126124260.706 7  24000661.828 5  24000661.17646  98278686.26546

  22119482.305 7 116238532.729 7  22119490.965 7  22119490.92249  90575604.96749

  21873554.461 8 117008872.170 8  21873562.758 6  21873563.914 6  91006785.396 6

  21760520.484 8 116118335.724 8  21760527.418 6  21760527.172 6  90314291.710 6

 15  2  1  1 26  0.0000000  0 17G30G06R10R24R11R01G10R17G15R08G13G05
                                G02G07G29R23R02
  23200261.477 7 121918231.086 7  23200273.930 6  23200273.13747  95001274.27847
  23200273.395 9  91042867.364 9
  23829991.336 7 125227311.275 7  23830005.930 6  23830005.32046  97579731.08846
  23830008.051 8  93513903.047 8
  22770498.961 7 121379604.325 7  22770508.152 1  22770508.723 1  94406425.958 1

  19616223.563 9 104896739.724 9  19616228.875 6  19616228.309 6  81586367.956 6

  23295740.031 6 124485178.462 6  23295751.305 1  23295751.633 1  96822014.922 1

  19856986.125 9 106146956.135 9  19856992.461 6  19856993.199 6  82558769.952 6

  23178880.648 7 121805986.309 7                  23178890.05947  94913607.36147

  21767275.547 7 116481222.309 7  21767280.527 6  21767281.254 6  90596416.233 6

  23256147.922 7 122211918.252 7  23256157.168 6  23256156.97747  95230129.72547

  22143791.898 7 118579925.161 7  22143798.586 6  22143798.117 6  92228072.174 6

  20822445.008 9 109422737.384 9                  20822451.76249  85264504.98549

  20585876.461 9 108179488.180 9  20585883.191 8  20585882.66049  84295727.37849

  20432905.664 9 107375595.187 9                  20432910.16049  83669303.39649

  24005289.930 6 126148637.853 6  24005300.148 5  24005300.17246  98297681.37846

  22116550.219 8 116223124.392 8  22116558.277 7  22116558.22349  90563598.43549

  21896622.906 8 117132272.179 8  21896632.004 6  21896632.379 6  91102762.992 6

  21748587.461 8 116054652.683 8  21748592.723 6  21748593.043 6  90264760.426 6

 15  2  1  1 26 30.0000000  0 17G30G06R10R24R11R01G10R17G15R08G13G05
                                G02G07G29R23R02
  23195739.602 7 121894468.952 7  23195752.348 6  23195751.95747  94982758.38647
  23195751.629 9  91025122.972 9
  23848497.258 6 125324562.252 6  23848513.434 6  23848512.98046  97655510.69946
  23848514.773 8  93586525.100 8
  22763993.586 7 121344928.401 7  22764004.938 1  22764004.652 1  94379455.887 1

  19621659.461 9 104925805.186 9  19621664.840 6  19621664.086 6  81608974.355 6

  23276140.883 6 124380454.327 6  23276153.164 1  23276153.844 1  96740562.878 1

  19860128.031 9 106163748.871 9  19860133.672 6  19860134.738 6  82571830.926 6

  23194563.180 7 121888399.261 7                  23194572.96547  94977825.10747

  21749488.961 8 116386045.120 8  21749494.863 6  21749494.660 5  90522389.574 5

  23236717.250 6 122109811.856 6  23236727.180 6  23236727.17247  95150566.38047

  22159466.992 7 118663863.086 7  22159472.996 6  22159473.336 6  92293357.073 6

  20811198.711 9 109363640.061 9                  20811205.59849  85218455.11049

  20586445.617 9 108182479.402 9  20586452.598 8  20586452.79749  84298058.16949

  20440116.727 9 107413487.174 9                  20440121.07049  83698829.55149

  24010027.398 7 126173532.665 7  24010037.527 5  24010037.72746  98317079.90046

  22113729.359 8 116208300.542 8  22113737.980 7  22113737.81649  90552047.34549

  21919752.914 8 117256000.830 8  21919761.906 6  21919762.250 6  91198996.179 6

  21736700.719 8 115991227.527 8  21736707.570 6  21736706.883 6  90215429.736 6

 15  2  1  1 27  0.0000000  0 17G30G06R10R24R11R01G10R17G15R08G13G05
                                G02G07G29R23R02
  23191313.547 7 121871210.962 7  23191325.992 6  23191325.51247  94964635.30347
  23191326.242 9  91007755.026 9
  23867040.070 5 125422007.321 5  23867056.707 6  23867056.75046  97731441.59346
  23867057.660 8  93659292.094 8
  22757615.891 7 121310937.103 7  22757626.863 1  22757626.848 1  94353018.285 1

  19627247.992 9 104955688.032 9  19627251.918 6  19627251.992 6  81632216.509 6

  23256580.523 6 124275927.665 6  23256592.859 1  23256593.188 1  96659264.526 1

  19863324.906 9 106180836.869 9  19863330.734 6  19863331.125 6  82585121.553 6

  23210257.789 7 121970872.862 7                  23210267.78547  95042090.13847

  21731800.602 8 116291390.958 8  21731806.648 6  21731807.125 6  90448769.662 6

  23217331.172 6 122007935.657 6  23217340.793 6  23217340.76247  95071182.45447

  22175145.477 7 118747818.606 7  22175151.473 6  22175151.816 5  92358655.673 5

  20800045.625 9 109305027.759 9                  20800052.66449  85172783.17749

  20587060.266 9 108185710.267 9  20587067.270 8  20587067.24649  84300575.69749

  20447416.547 9 107451848.907 9                  20447421.27749  83728721.74249

  24014863.344 7 126198944.479 7  24014873.770 5  24014873.10946  98336881.23546

  22111019.828 7 116194061.639 7  22111028.320 7  22111028.42249  90540952.06649

  21942943.500 8 117380053.532 8  21942952.477 6  21942952.863 6  91295481.411 6

  21724862.789 8 115928059.581 8  21724870.223 6  21724869.875 6  90166299.138 6

 15  2  1  1 27 30.0000000  0 17G30G06R10R24R11R01G10R17G15R08G13G05
                                G02G07G29R23R02
  23186984.289 6 121848458.692 6  23186996.688 6  23186995.94947  94946906.28747
  23186996.031 9  90990764.733 9
  23885621.055 6 125519645.205 6  23885637.285 6  23885637.72746  97807522.71446
  23885637.172 7  93732203.126 7
  22751368.883 7 121277633.000 7  22751380.879 2  22751380.035 1  94327115.187 1

  19632989.563 9 104986387.668 9  19632993.250 6  19632993.133 6  81656093.941 6

  23237057.563 6 124171602.981 6  23237070.012 1  23237069.867 1  96578123.196 1

  19866576.180 9 106198218.449 9  19866582.074 6  19866582.465 6  82598640.506 6

  23225963.023 7 122053406.609 7                  23225972.98447  95106402.02147

  21714210.984 8 116197263.715 8  21714216.930 6  21714216.660 6  90375559.646 6

  23197988.125 7 121906291.466 7  23197997.316 6  23197997.71947  94991979.26947

  22190826.023 7 118831790.581 7  22190832.363 5  22190831.887 5  92423967.099 5

  20788984.578 9 109246901.690 9                  20788991.51649  85127490.13249

  20587721.125 9 108189180.554 9  20587728.027 8  20587728.24649  84303279.79149

  20454806.141 9 107490680.486 9                  20454810.67649  83758980.04249

  24019797.180 6 126224872.996 6  24019806.953 5  24019807.15646  98357085.22446

  22108421.672 7 116180408.141 7  22108430.574 7  22108430.68049  90530312.94149

  21966193.531 8 117504426.629 8  21966202.855 6  21966203.180 5  91392215.835 5

  21713073.938 7 115865148.762 7  21713080.875 6  21713079.848 6  90117368.536 6

 15  2  1  1 28  0.0000000  0 17G30G06R10R24R11R01G10R17G15R08G13G05
                                G02G07G29R23R02
  23182751.227 7 121826213.740 7  23182763.164 6  23182762.62547  94929572.58247
  23182762.297 9  90974153.276 9
  23904237.773 6 125617474.456 6  23904254.039 6  23904253.40247  97883752.93547
  23904253.316 7  93805257.009 7
  22745250.188 7 121245018.888 7  22745262.055 3  22745261.949 2  94301748.748 2

  19638882.828 9 105017902.644 9  19638887.641 6  19638887.391 6  81680605.523 6

  23217575.383 6 124067485.419 6  23217585.684 1  23217585.895 1  96497143.048 1

  19869882.758 9 106215892.338 9  19869888.508 6  19869889.305 6  82612386.834 6

  23241680.273 7 122136000.005 7                  23241689.68847  95170760.38947

  21696720.344 8 116103667.380 8  21696725.191 6  21696725.711 6  90302762.510 6

  23178690.258 6 121804880.712 6  23178699.738 5  23178699.49647  94912958.00047

  22206510.750 8 118915777.979 8  22206516.965 6  22206516.711 5  92489290.493 5

  20778016.500 9 109189263.117 9                  20778023.31349  85082576.94849

  20588426.719 9 108192889.549 9  20588433.379 8  20588433.55949  84306169.89649

  20462284.656 9 107529981.495 9                  20462289.57049  83789604.12849

  24024830.141 7 126251317.530 7  24024839.520 5  24024839.21146  98377691.30246

  22105935.383 8 116167340.048 8  22105943.281 7  22105942.92649  90520129.99149

  21989503.680 8 117629115.675 8  21989512.945 6  21989512.656 6  91489195.984 6

  21701332.578 8 115802494.496 8  21701339.645 6  21701339.629 6  90068637.446 6

 15  2  1  1 28 30.0000000  0 17G30G06R10R24R11R01G10R17G15R08G13G05
                                G02G07G29R23R02
  23178615.242 7 121804477.490 7  23178626.914 6  23178626.57447  94912635.27347
  23178626.598 9  90957921.683 9
  23922891.594 6 125715493.592 6  23922906.711 6  23922906.39846  97960131.11046
  23922907.250 8  93878452.727 8
  22739262.508 7 121213096.434 7  22739273.152 2  22739272.066 1  94276920.244 1

  19644928.469 9 105050231.426 9  19644932.352 6  19644932.555 6  81705750.065 6

  23198128.078 5 123963579.089 5  23198141.273 1  23198140.781 1  96416327.205 1

  19873242.422 9 106233857.109 9  19873249.637 6  19873250.383 6  82626359.387 6

  23257408.258 7 122218652.035 7                  23257418.37947  95235164.42947

  21679329.875 8 116010606.082 8  21679334.398 6  21679334.879 6  90230381.522 6

  23159437.406 7 121703705.819 7  23159446.832 6  23159446.87947  94834120.54047

  22222198.305 7 118999779.736 7  22222203.324 6  22222203.383 5  92554625.048 5

  20767140.813 9 109132113.184 9                  20767147.80149  85038044.52049

  20589177.945 9 108196837.103 9  20589184.660 8  20589184.58249  84309245.87149

  20469853.102 9 107569752.121 9                  20469857.26649  83820594.15149

  24029960.172 7 126278277.764 7  24029970.809 5  24029970.48046  98398699.21046

  22103559.945 7 116154857.210 7  22103567.617 7  22103567.98049  90510403.06149

  22012871.555 8 117754116.726 8  22012880.113 6  22012880.945 6  91586418.811 6

  21689639.273 8 115740096.590 8  21689645.551 6  21689645.063 6  90020105.752 6

 15  2  1  1 29  0.0000000  0 17G30G06R10R24R11R01G10R17G15R08G13G05
                                G02G07G29R23R02
  23174575.750 7 121783251.681 7  23174588.543 6  23174587.96947  94896095.70047
  23174587.934 9  90942071.258 9
  23941577.750 5 125813701.536 5  23941595.051 6  23941594.66446  98036656.43346
  23941595.867 8  93951789.399 8
  22733403.953 7 121181868.576 7  22733413.414 3  22733414.539 3  94252631.977 3

  19651125.680 9 105083373.177 9  19651131.020 6  19651130.328 6  81731526.928 6

  23178725.070 6 123859888.835 6  23178736.820 1  23178736.563 1  96335679.405 1

  19876657.734 9 106252111.166 9  19876663.965 6  19876664.977 6  82640556.943 6

  23273148.859 7 122301362.993 7                  23273157.97347  95299614.42047

  21662038.742 8 115918083.590 8  21662044.590 6  21662044.926 6  90158419.598 6

  23140230.305 7 121602768.100 7  23140239.438 6  23140239.18847  94755467.89247

  22237885.656 7 119083794.769 7  22237893.191 5  22237893.289 6  92619969.953 6

  20756358.883 9 109075453.115 9                  20756365.89149  84993893.81249

  20589974.891 9 108201023.219 9  20589981.344 8  20589981.37149  84312507.74949

  20477510.938 9 107609992.515 9                  20477515.03149  83851950.22249

  24035188.156 6 126305752.794 6  24035198.734 5  24035197.69546  98420108.27046

  22101295.898 8 116142960.519 8  22101303.813 7  22101303.82049  90501132.87549

  22036297.445 8 117879425.781 8  22036305.250 6  22036306.258 6  91683881.184 6

  21677993.156 7 115677954.600 7  21678000.645 6  21678000.758 6  89971773.130 6

 15  2  1  1 29 30.0000000  0 17G30G06R10R24R11R01G10R17G15R08G13G05
                                G02G07G29R23R02
  23170633.930 7 121762537.534 7  23170646.414 6  23170645.90647  94879954.82647
  23170645.109 9  90926602.923 9
  23960303.352 6 125912096.550 6  23960319.059 6  23960318.36346  98113327.47546
  23960321.035 8  94025265.719 8
  22727675.945 7 121151337.218 7  22727685.801 2  22727685.320 2  94228885.439 2

  19657475.133 9 105117326.068 9  19657479.441 6  19657479.359 6  81757934.666 6

  23159363.328 6 123756419.605 6  23159373.141 1  23159373.469 1  96255203.495 1

  19880126.492 9 106270652.777 9  19880132.895 6  19880133.254 6  82654978.178 6

  23288899.031 7 122384131.826 7                  23288908.22347  95364109.45147

  21644850.273 8 115826103.657 8  21644855.723 6  21644856.375 6  90086879.673 6

  23121067.211 7 121502069.650 7  23121076.664 6  23121077.12147  94677001.64647

  22253578.391 7 119167822.002 7  22253585.043 6  22253585.324 5  92685324.329 5

  20745670.266 9 109019284.189 9                  20745677.44549  84950125.81649

  20590816.641 9 108205447.234 9  20590823.008 8  20590822.83649  84315954.99049

  20485257.234 9 107650702.131 9                  20485261.69949  83883671.91649

  24040513.664 7 126333742.190 7  24040525.051 5  24040524.43446  98441918.11346

  22099143.766 7 116131649.465 7  22099151.496 7  22099151.40649  90492319.03249

  22059779.367 8 118005038.513 8  22059787.414 6  22059787.711 6  91781579.747 6

  21666395.734 8 115616068.419 8  21666403.484 6  21666402.691 5  89923639.434 5

 15  2  1  1 30  0.0000000  0 17G30G06R10R24R11R01G10R17G15R08G13G05
                                G02G07G29R23R02
  23166790.344 7 121742336.892 7  23166801.566 6  23166801.22347  94864214.08847
  23166801.484 9  90911518.052 9
  23979062.727 6 126010677.622 6  23979079.027 6  23979078.45746  98190143.52746
  23979080.660 8  94098880.998 8
  22722079.469 7 121121505.196 7  22722089.160 3  22722090.004 2  94205682.804 2

  19663976.438 9 105152089.509 9  19663980.500 6  19663980.379 6  81784972.832 6

  23140041.594 6 123653176.095 6  23140053.215 1  23140053.191 1  96174903.243 1

  19883649.133 9 106289480.800 9  19883654.793 6  19883655.473 6  82669622.149 6

  23304660.289 7 122466958.239 7                  23304670.07847  95428649.39147

  21627763.977 8 115734670.722 8  21627769.637 6  21627769.813 6  90015765.183 6

  23101950.570 7 121401612.198 7  23101959.930 6  23101959.95347  94598723.20247

  22269271.922 7 119251860.456 7  22269278.848 6  22269278.855 6  92750687.435 6

  20735075.344 9 108963607.698 9                  20735082.18049  84906741.52649

  20591703.563 9 108210109.328 9  20591710.633 8  20591710.54749  84319587.77849

  20493093.461 9 107691881.153 9                  20493098.05549  83915759.38849

  24045939.430 7 126362245.698 7  24045948.891 5  24045948.54746  98464128.56446

  22097102.117 8 116120924.680 8  22097111.215 7  22097111.12149  90483962.00549

  22083316.531 8 118130951.417 8  22083326.289 6  22083326.848 6  91879511.780 6

  21654846.758 8 115554437.531 8  21654853.750 6  21654853.254 6  89875704.350 6

 15  2  1  1 30 30.0000000  0 17G30G06R10R24R11R01G10R17G15R08G13G05
                                G02G07G29R23R02
  23163043.906 7 121722651.050 7  23163056.168 6  23163056.01247  94848874.47347
  23163055.391 9  90896817.588 9
  23997857.477 6 126109443.178 6  23997874.004 6  23997872.92246  98267103.35146
  23997875.648 8  94172634.078 8
  22716614.719 7 121092374.506 7  22716626.223 2  22716625.645 1  94183025.671 1

  19670628.945 9 105187661.308 9  19670633.668 6  19670633.328 6  81812639.731 6

  23120762.289 6 123550162.828 6  23120773.969 1  23120774.297 1  96094782.021 1

  19887224.203 9 106308593.408 9  19887230.098 6  19887231.180 6  82684487.484 6

  23320432.484 7 122549841.495 7                  23320442.30146  95493233.61146

  21610779.875 8 115643788.285 8  21610786.426 6  21610786.289 6  89945078.893 6

  23082879.789 7 121301397.311 7  23082889.926 6  23082890.05947  94520633.78147

  22284966.930 7 119335909.137 7  22284974.215 5  22284974.102 5  92816058.494 5

  20724575.102 9 108908424.653 9                  20724581.09849  84863741.75149

  20592636.133 9 108215008.999 9  20592643.031 8  20592643.05149  84323405.66849

  20501019.125 9 107733529.450 9                  20501023.57849  83948212.53849

  24051460.680 7 126391262.526 7  24051470.813 5  24051470.77346  98486738.98646

  22095173.469 8 116110786.168 8  22095181.980 6  22095181.55148  90476061.84348

  22106910.766 7 118257159.785 7  22106919.215 6  22106919.969 5  91977673.605 5

  21643343.938 8 115493061.718 8  21643351.754 5  21643351.461 5  89827967.629 5

 15  2  1  1 31  0.0000000  0 17G30G06R10R24R11R01G10R17G15R08G13G05
                                G02G07G29R23R02
  23159395.477 6 121703480.849 6  23159407.879 6  23159407.37547  94833936.66247
  23159407.750 9  90882502.193 9
  24016686.875 6 126208391.401 6  24016703.309 6  24016703.03546  98344205.44246
  24016703.246 7  94246523.518 7
  22711281.031 7 121063946.896 7  22711291.641 3  22711291.973 1  94160915.356 1

  19677432.336 9 105224039.879 9  19677436.492 6  19677435.973 6  81840934.111 6

  23101529.070 6 123447384.048 6  23101541.141 1  23101541.469 1  96014843.204 1

  19890852.555 9 106327988.992 9  19890859.035 6  19890859.770 6  82699572.901 6

  23336215.211 7 122632780.727 7                  23336224.75447  95557861.45947

  21593901.055 8 115553460.279 8  21593905.746 6  21593906.574 6  89874823.798 6

  23063856.383 7 121201426.709 7  23063866.266 6  23063865.91447  94442734.66047

  22300666.195 7 119419966.599 7  22300671.035 6  22300672.121 5  92881436.353 5

  20714167.672 9 108853735.446 9                  20714174.39549  84821126.77749

  20593613.570 9 108220145.440 9  20593620.484 8  20593620.65249  84327408.07149

  20509033.430 9 107775646.198 9                  20509038.26249  83981030.71549

  24057081.008 7 126420791.886 7  24057089.863 5  24057090.11747  98509748.77847

  22093355.563 8 116101233.384 8  22093363.809 7  22093363.84049  90468618.06649

  22130558.141 8 118383659.246 8  22130567.430 6  22130567.629 5  92076061.837 5

  21631890.742 8 115431940.025 8  21631896.684 6  21631896.363 6  89780428.589 6

 15  2  1  1 31 30.0000000  0 17G30G06R10R24R11R01G10R17G15R08G13G05
                                G02G07G29R23R02
  23155847.008 7 121684829.009 7  23155858.355 6  23155858.18447  94819402.75247
  23155858.324 9  90868573.859 9
  24035550.813 5 126307521.987 5  24035568.004 6  24035567.05546  98421449.67546
  24035568.551 7  94320549.182 7
  22706081.289 7 121036225.792 7  22706091.395 3  22706092.426 2  94139354.542 2

  19684385.328 9 105261224.704 9  19684389.418 6  19684389.500 6  81869855.587 6

  23082340.438 6 123344845.504 6  23082352.156 1  23082352.484 1  95935091.242 1

  19894533.484 9 106347666.521 9  19894539.098 6  19894540.000 5  82714877.625 5

  23352008.742 7 122715776.498 7                  23352018.04347  95622533.35847

  21577125.039 8 115463691.470 8  21577130.461 6  21577130.793 6  89805003.624 6

  23044880.102 7 121101703.050 7  23044889.301 6  23044888.89147  94365028.00047

  22316363.359 7 119504032.918 7  22316370.965 6  22316370.828 5  92946821.131 5

  20703854.977 9 108799542.401 9                  20703861.82449  84778898.42049

  20594636.078 9 108225519.538 9  20594643.230 8  20594643.10249  84331595.65749

  20517137.898 9 107818232.377 9                  20517142.10549  84014214.67749

  24062796.172 7 126450833.144 7  24062806.414 5  24062806.36746  98533157.46046

  22091648.961 8 116092267.583 8  22091657.301 6  22091657.51649  90461631.67449

  22154260.000 7 118510446.842 7  22154269.688 6  22154269.711 5  92174674.160 5

  21620484.125 8 115371073.223 8  21620491.078 6  21620490.953 6  89733087.778 6

 15  2  1  1 32  0.0000000  0 17G30G06R10R24R11R01G10R17G15R08G13G05
                                G02G07G29R23R02
  23152396.305 7 121666696.037 7  23152408.305 6  23152407.69947  94805273.18347
  23152407.781 9  90855033.021 9
  24054449.320 5 126406832.801 5  24054466.906 6  24054466.35546  98498834.33946
  24054467.621 8  94394709.419 8
  22701013.445 7 121009212.580 7  22701024.652 2  22701023.988 2  94118344.323 2

  19691490.336 9 105299213.805 9  19691494.121 6  19691494.219 6  81899402.614 6

  23063197.594 6 123242551.468 6  23063208.184 1  23063207.922 1  95855529.414 1

  19898267.539 9 106367624.331 9  19898273.430 6  19898274.316 6  82730400.328 6

  23367812.977 7 122798827.615 7                  23367823.39846  95687248.38046

  21560454.836 8 115374484.747 8  21560459.664 6  21560460.238 6  89735620.649 6

  23025949.719 7 121002227.471 7  23025959.652 6  23025959.02347  94287514.60047

  22332064.328 7 119588106.363 7  22332070.355 5  22332070.117 5  93012211.452 5

  20693637.078 9 108745846.458 9                  20693643.73449  84737057.42049

  20595703.906 9 108231130.525 9  20595710.469 8  20595710.64149  84335967.81749

  20525330.742 9 107861287.000 9                  20525335.35949  84047763.66749

  24068610.594 7 126481385.925 7  24068621.145 5  24068620.50446  98556964.74346

  22090055.195 8 116083888.334 8  22090063.504 7  22090063.14849  90455102.32449

  22178015.039 7 118637517.930 7  22178023.754 6  22178025.113 5  92273506.974 5

  21609125.320 8 115310460.136 8  21609132.160 6  21609131.914 6  89685944.293 6

 15  2  1  1 32 30.0000000  0 17G30G06R10R24R11R01G10R17G15R08G13G05
                                G02G07G29R23R02
  23149044.602 7 121649083.363 7  23149056.453 6  23149055.62547  94791549.03947
  23149056.176 9  90841880.720 9
  24073381.617 5 126506322.353 5  24073398.332 5  24073398.75446  98576358.29946
  24073400.250 8  94469003.119 8
  22696079.750 7 120982909.264 7  22696089.863 3  22696090.168 3  94097886.215 3

  19698743.961 9 105338005.049 9  19698748.016 6  19698747.836 6  81929573.510 6

  23044099.578 6 123140506.192 6  23044111.910 1  23044111.535 1  95776161.097 1

  19902052.625 9 106387860.980 9  19902058.895 6  19902059.391 5  82746139.910 5

  23383627.625 7 122881933.769 7                  23383637.37147  95752006.27647

  21543890.359 8 115285844.143 8  21543896.297 6  21543897.180 6  89666677.968 6

  23007067.555 7 120903001.264 7  23007077.418 6  23007077.25847  94210195.53347

  22347764.586 7 119672186.021 7  22347771.777 5  22347771.965 5  93077606.589 5

  20683513.781 9 108692648.053 9                  20683520.39849  84695604.12149

  20596816.563 9 108236978.130 9  20596823.348 8  20596823.28149  84340524.38949

  20533613.000 9 107904810.118 9                  20533617.64549  84081677.71349

  24074521.680 7 126512449.715 7  24074531.801 5  24074531.73846  98581170.19046

  22088572.352 8 116076095.100 8  22088580.902 7  22088580.91049  90449029.62449

  22201821.313 7 118764868.173 7  22201831.199 6  22201831.664 5  92372556.940 5

  21597813.578 8 115250100.612 8  21597820.754 6  21597820.484 6  89638998.034 6

 15  2  1  1 33  0.0000000  0 17G30G06R10R24R11R01G10R17G15R08G13G05
                                G02G07G29R23R02
  23145792.141 7 121631992.253 7  23145803.770 6  23145803.29347  94778231.29647
  23145803.258 9  90829117.874 9
  24092348.469 5 126605989.201 5  24092365.875 5  24092364.97745  98654020.41145
  24092365.832 7  94543429.191 7
  22691278.422 7 120957317.775 7  22691289.172 2  22691288.086 1  94077981.776 1

  19706147.570 9 105377597.155 9  19706152.336 6  19706152.254 6  81960367.319 6

  23025052.492 6 123038714.603 6  23025062.137 1  23025063.168 1  95696990.117 1

  19905890.367 9 106408374.433 9  19905896.656 6  19905897.199 6  82762094.806 6

  23399453.125 7 122965094.104 7                  23399462.67647  95816806.40947

  21527431.914 8 115197773.377 8  21527437.488 6  21527438.324 6  89598178.498 6

  22988233.883 7 120804026.497 7  22988243.469 6  22988243.47747  94133072.38247

  22363467.992 8 119756270.709 8  22363474.793 6  22363474.359 5  93143005.652 5

  20673485.242 9 108639948.318 9                  20673492.03149  84654539.39749

  20597974.469 9 108243062.026 9  20597981.285 8  20597981.17649  84345265.07649

  20541984.102 9 107948801.120 9                  20541988.79349  84115956.35049

  24080530.141 6 126544023.446 6  24080540.344 5  24080540.21146  98605772.96946

  22087200.648 8 116068888.056 8  22087209.180 7  22087208.88749  90443413.69149

  22225679.969 7 118892493.308 7  22225689.355 6  22225689.848 5  92471820.671 5

  21586549.156 8 115189993.923 8  21586557.148 6  21586556.941 6  89592248.423 6

 15  2  1  1 33 30.0000000  0 17G30G06R10R24R11R01G10R17G15R08G13G05
                                G02G07G29R23R02
  23142639.266 7 121615423.951 7  23142651.242 6  23142650.74247  94765320.91947
  23142650.824 9  90816745.428 9
  24111348.500 6 126705831.805 6  24111365.590 5  24111363.74246  98731819.41646
  24111366.000 8  94617986.484 8
  22686611.375 7 120932440.337 7  22686622.566 3  22686621.504 2  94058632.701 2

  19713700.906 9 105417988.249 9  19713705.953 6  19713705.609 6  81991782.549 6

  23006050.305 6 122937181.217 6  23006062.859 1  23006061.895 1  95618019.971 1

  19909779.641 9 106429163.447 9  19909785.707 6  19909786.496 6  82778264.018 6

  23415288.039 7 123048308.349 7                  23415298.46547  95881648.53247

  21511080.719 8 115110276.326 8  21511086.332 6  21511087.113 6  89530125.265 6

  22969447.266 7 120705304.918 7  22969457.441 6  22969456.69947  94056146.53047

  22379170.531 7 119840359.496 7  22379177.996 5  22379177.801 5  93208407.895 5

  20663552.000 9 108587748.467 9                  20663559.16049  84613864.19249

  20599176.906 9 108249381.576 9  20599183.910 8  20599183.39549  84350189.39149

  20550444.727 9 107993259.840 9                  20550448.93449  84150599.42649

  24086636.320 7 126576105.954 7  24086644.953 5  24086645.56346  98630772.24146

  22085940.430 8 116062267.193 8  22085949.430 7  22085949.21949  90438254.51849

  22249589.242 7 119020389.644 7  22249598.676 6  22249598.328 5  92571295.344 5

  21575333.141 8 115130139.514 8  21575340.191 6  21575339.801 6  89545695.010 6

 15  2  1  1 34  0.0000000  0 17G30G06R10R24R11R01G10R17G15R08G13G05
                                G02G07G29R23R02
  23139585.828 7 121599379.797 7  23139598.090 6  23139597.94547  94752818.97447
  23139598.500 9  90804764.401 9
  24130381.188 6 126805848.681 6  24130398.402 5  24130397.07846  98809754.27146
  24130399.047 8  94692673.950 8
  22682079.922 7 120908278.580 7  22682089.578 2  22682089.203 2  94039840.253 2

  19721404.000 9 105459176.688 9  19721407.738 6  19721407.316 6  82023817.943 6

  22987098.914 5 122835910.837 5  22987110.445 1  22987110.301 1  95539254.346 1

  19913719.805 9 106450226.571 9  19913726.055 6  19913727.250 6  82794646.419 6

  23431133.352 7 123131576.098 7                  23431144.39147  95946532.37047

  21494838.320 8 115023357.036 8  21494843.625 6  21494844.465 6  89462521.369 6

  22950709.859 7 120606838.104 7  22950719.789 6  22950719.63347  93979419.17447

  22394873.680 7 119924451.625 7  22394881.742 5  22394881.434 5  93273812.723 5

  20653713.813 9 108536049.257 9                  20653720.54349  84573579.09849

  20600424.344 9 108255936.743 9  20600430.984 8  20600430.83249  84355297.29649

  20558993.695 9 108038185.822 9                  20558997.95749  84185606.61149

  24092837.188 7 126608696.682 7  24092848.031 5  24092846.95746  98656167.49946

  22084792.664 8 116056232.425 8  22084801.012 6  22084800.95349  90433552.04349

  22273547.797 7 119148552.479 7  22273556.180 6  22273557.668 5  92670977.292 5

  21564163.664 8 115070537.339 8  21564170.836 6  21564170.457 5  89499337.771 5

 15  2  1  1 34 30.0000000  0 17G30G06R10R24R11R01G10R17G15R08G13G05
                                G02G07G29R23R02
  23136633.000 7 121583861.080 7  23136645.020 6  23136644.57847  94740726.48047
  23136644.250 9  90793175.747 9
  24149446.188 5 126906038.560 5  24149464.191 6  24149463.17646  98887823.87846
  24149464.789 8  94767490.588 8
  22677681.766 7 120884834.523 7  22677689.918 3  22677690.766 2  94021606.018 2

  19729254.719 9 105501160.670 9  19729258.988 6  19729258.910 6  82056472.093 6

  22968197.703 6 122734907.947 6  22968208.633 1  22968209.668 1  95460696.822 1

  19917711.078 9 106471562.154 9  19917716.578 6  19917717.656 6  82811240.743 6

  23446989.531 7 123214896.810 7                  23446999.39546  96011457.44646

  21478703.570 8 114937019.131 8  21478709.117 6  21478709.281 6  89395369.680 6

  22932021.438 7 120508627.843 7  22932030.613 6  22932030.34447  93902891.74547

  22410578.711 7 120008546.213 7  22410585.695 5  22410584.992 5  93339219.479 5

  20643971.148 9 108484851.577 9                  20643977.80549  84533684.80549

  20601716.828 9 108262727.222 9  20601723.648 8  20601723.30549  84360588.57049

  20567631.633 9 108083579.023 9                  20567636.75449  84220977.86449

  24099135.398 6 126641794.989 6  24099145.910 5  24099146.13746  98681958.26146

  22083755.172 8 116050783.483 8  22083764.223 6  22083764.40649  90429306.07749

  22297556.555 7 119276978.288 7  22297565.660 6  22297566.676 5  92770863.749 5

  21553042.078 8 115011186.968 8  21553047.750 6  21553048.484 6  89453176.391 6

 15  2  1  1 35  0.0000000  0 17G30G06R10R24R11R01G10R17G15R08G13G05
                                G02G07G29R23R02
  23133780.469 7 121568869.014 7  23133792.250 6  23133791.26247  94729044.34947
  23133791.988 9  90781980.377 9
  24168545.789 6 127006399.968 6  24168562.480 6  24168561.40646  98966027.09846
  24168562.785 7  94842435.271 7
  22673418.023 7 120862110.395 7  22673428.496 2  22673427.891 2  94003931.701 2

  19737254.289 9 105543938.239 9  19737259.598 5  19737259.023 5  82089743.480 5

  22949348.016 6 122634177.834 6  22949357.801 1  22949358.598 1  95382351.386 1

  19921752.891 9 106493168.702 9  19921759.066 6  19921760.125 5  82828045.814 5

  23462854.344 7 123298269.892 7                  23462864.67646  96076423.36946

  21462678.570 8 114851266.331 8  21462684.059 6  21462684.543 6  89328673.084 6

  22913381.445 7 120410676.002 7  22913391.230 6  22913390.71547  93826565.65247

  22426283.188 7 120092642.073 7  22426290.352 5  22426290.633 5  93404627.215 5

  20634324.445 9 108434156.738 9                  20634331.43849  84494182.33649

  20603053.805 9 108269752.641 9  20603060.398 8  20603059.82849  84366062.88549

  20576358.539 9 108129439.122 9                  20576362.89549  84256712.91749

  24105531.086 6 126675400.087 6  24105540.117 5  24105539.71146  98708143.97546

  22082830.125 8 116045920.132 8  22082838.598 6  22082838.59048  90425516.38848

  22321612.258 7 119405662.443 7  22321622.238 6  22321622.746 5  92870951.149 5

  21541966.125 8 114952087.780 8  21541972.859 5  21541972.168 5  89407210.381 5

 15  2  1  1 35 30.0000000  0 17G30G06R10R24R11R01G10R17G15R08G13G05
                                G02G07G29R23R02
  23131027.953 7 121554404.798 7  23131040.195 7  23131039.87547  94717773.53947
  23131039.551 9  90771179.178 9
  24187676.133 6 127106931.294 6  24187693.320 6  24187692.25046  99044362.75246
  24187694.219 7  94917506.852 7
  22669290.000 7 120840107.871 7  22669300.883 3  22669301.172 3  93986818.645 3

  19745402.313 9 105587507.892 9  19745407.070 6  19745406.563 6  82123630.925 6

  22930549.609 6 122533724.759 6  22930559.898 1  22930559.637 1  95304221.473 1

  19925845.438 9 106515044.908 9  19925852.047 6  19925852.465 6  82845060.612 6

  23478729.492 7 123381694.762 7                  23478740.34447  96141429.64947

  21446763.969 8 114766102.438 8  21446769.141 6  21446769.430 6  89262434.524 6

  22894791.266 7 120312984.309 7  22894800.793 6  22894800.37547  93750442.28047

  22441988.211 7 120176738.520 7  22441994.664 6  22441994.891 5  93470035.418 5

  20624773.617 9 108383965.598 9                  20624780.22349  84455072.36849

  20604435.484 9 108277013.085 9  20604441.977 8  20604441.60949  84371720.35649

  20585174.578 9 108175765.540 9                  20585179.23849  84292811.35449

  24112021.781 6 126709510.957 6  24112032.988 5  24112032.39846  98734723.74246

  22082016.133 8 116041642.769 8  22082024.668 7  22082024.88749  90422183.29849

  22345716.836 7 119534601.043 7  22345726.137 6  22345726.711 6  92971236.424 6

  21530937.969 8 114893239.582 8  21530945.320 6  21530944.773 5  89361439.554 5

 15  2  1  1 36  0.0000000  0 17G30G06R10R24R11R01G10R17G15R08G13G05
                                G02G07G29R23R02
  23128376.672 7 121540469.839 7  23128388.109 6  23128387.27047  94706915.12647
  23128387.820 9  90760773.212 9
  24206838.531 5 127207631.373 5  24206855.758 5  24206854.78545  99122829.96645
  24206856.695 6  94992704.529 6
  22665298.844 7 120818829.552 7  22665308.254 3  22665308.359 2  93970268.845 2

  19753698.289 9 105631867.634 9  19753702.273 6  19753701.621 6  82158132.886 6

  22911804.328 6 122433553.455 6  22911813.871 1  22911814.082 1  95226310.717 1

  19929988.063 9 106537189.605 9  19929994.746 6  19929995.266 6  82862284.235 6

  23494614.875 7 123465171.193 7                  23494624.98846  96206476.06946

  21430959.508 8 114681531.286 8  21430965.566 6  21430965.664 6  89196656.963 6

  22876251.258 7 120215554.392 7  22876260.051 6  22876260.27747  93674522.88747

  22457691.875 7 120260834.613 7  22457697.898 5  22457698.125 5  93535443.328 5

  20615318.391 9 108334279.108 9                  20615325.44949  84416355.63449

  20605861.914 9 108284508.540 9  20605868.285 8  20605868.08649  84377560.95349

  20594078.633 9 108222558.184 9                  20594083.52349  84329273.06449

  24118609.531 6 126744127.052 6  24118619.539 5  24118619.46946  98761697.22546

  22081313.695 8 116037950.962 8  22081322.355 6  22081321.97348  90419306.53848

  22369867.000 7 119663790.299 7  22369877.297 6  22369878.633 5  93071716.663 5

  21519957.016 8 114834641.821 8  21519962.809 6  21519962.914 6  89315863.539 6

 15  2  1  1 36 30.0000000  0 17G30G06R10R24R11R01G10R17G15R08G13G05
                                G02G07G29R23R02
  23125825.047 7 121527065.170 7  23125837.133 6  23125836.75847  94696469.92347
  23125837.133 9  90750763.223 9
  24226032.906 3

  22661443.000 7 120798276.266 7  22661453.461 3  22661453.035 2  93954282.965 2

  19762140.859 9 105677015.407 9  19762145.363 6  19762145.477 6  82193247.756 6

  22893108.117 6 122333668.672 6  22893122.020 2  22893122.465 1  95148622.851 1

  19934180.711 9 106559600.777 9  19934186.797 6  19934187.895 6  82879715.115 6

  23510509.148 7 123548698.487 7                  23510520.08246  96271562.17246

  21415267.367 8 114597556.634 8  21415273.188 6  21415273.363 6  89131343.350 6

  22857760.742 7 120118387.908 7  22857769.656 6  22857769.73447  93598808.76947

  22473396.164 7 120344929.554 7  22473403.105 6  22473403.359 5  93600850.347 5

  20605959.492 9 108285098.169 9                  20605966.14149  84378032.82949

  20607332.602 9 108292238.472 9  20607339.730 8  20607339.24649  84383584.27049

  20603072.047 9 108269816.726 9                  20603076.39149  84366097.82849

  24125292.094 5 126779247.794 5  24125303.430 5  24125302.84446  98789063.92346

  22080722.719 8 116034844.297 8  22080731.281 7  22080731.09448  90416885.68348

  22394062.938 7 119793225.833 7  22394074.164 5  22394074.465 5  93172388.489 5

  21509023.188 8 114776294.197 8  21509029.395 6  21509029.000 6  89270482.082 6

 15  2  1  1 37  0.0000000  0 17G30G06R10R24R11R01G10R17G15R08G13G05
                                G02G07G29R23R02
  23123375.539 7 121514191.876 7  23123386.902 6  23123386.93847  94686438.78547
  23123386.672 9  90741150.046 9
  24245259.156 2 127409531.40812  24245276.160 3  24245274.84045  99280153.94555
  24245278.859 7  95143473.16117
  22657724.703 8 120778450.254 8  22657733.367 2  22657733.867 2  93938862.726 2

  19770730.609 9 105722948.955 9  19770734.941 6  19770734.914 6  82228973.792 6

  22874472.414 6 122234075.008 6  22874482.176 1  22874482.973 1  95071161.338 1

  19938422.539 9 106582277.099 9  19938428.738 6  19938429.469 6  82897352.227 6

  23526414.313 7 123632276.282 7                  23526424.84046  96336687.55946

  21399686.813 8 114514181.999 8  21399691.770 6  21399692.148 6  89066496.454 6

  22839320.859 7 120021486.613 7  22839330.551 6  22839330.42247  93523301.27047

  22489099.516 7 120429022.264 7  22489107.625 5  22489107.145 5  93666255.644 5

  20596696.813 9 108236423.472 9                  20596703.78149  84340104.50849

  20608847.992 9 108300202.191 9  20608854.871 8  20608854.71549  84389789.74549

  20612153.508 9 108317540.583 9                  20612158.00049  84403285.16649

  24132072.141 6 126814871.716 6  24132082.906 5  24132082.27746  98816822.66846

  22080242.695 9 116032322.476 9  22080251.152 6  22080251.42248  90414920.56948

  22418307.000 7 119922903.498 7  22418316.805 5  22418316.328 5  93273248.581 5

  21498135.680 8 114718196.094 8  21498141.656 6  21498141.012 5  89225294.646 5

