     3.04           OBSERVATION DATA    G: GPS              RINEX VERSION / TYPE
RTKCONV demo5 b34k  INHA                20250529 110551 UTC PGM / RUN BY / DATE 
format: u-blox UBX                                          COMMENT             
log: C:\Users\wnwjd\Desktop\2025_1\GPSapp\project_RTK\data_0COMMENT             
  529\0529_1628250529_0829.ubx                              COMMENT             
INHA                                                        MARKER NAME         
INHA                                                        MARKER NUMBER       
INHA                                                        MARKER TYPE         
                                                            OBSERVER / AGENCY   
                    ZED-F9P                                 REC # / TYPE / VERS 
                                                            ANT # / TYPE        
 -3026409.9221  4067423.5282  3857156.3012                  APPROX POSITION XYZ 
        0.0000        0.0000        0.0000                  ANTENNA: DELTA H/E/N
G    8 C1C L1C D1C S1C C2X L2X D2X S2X                      SYS / # / OBS TYPES 
  2025    05    29    08    29   48.0070000     GPS         TIME OF FIRST OBS   
  2025    05    29    08    45   45.0080000     GPS         TIME OF LAST OBS    
G L1C                                                       SYS / PHASE SHIFT   
G L2X  0.00000                                              SYS / PHASE SHIFT   
  0                                                         GLONASS SLOT / FRQ #
                                                            GLONASS COD/PHS/BIS 
                                                            END OF HEADER       
> 2025 05 29 08 29 48.0070000  0  9                     
G20  23426329.281   123106175.7811      -2578.181          45.000                                                                  
G07  27392219.061   143947040.5341      -3300.424          40.000    27392215.520   112166532.3051      -2571.662          36.000  
G11  24962980.839   131181305.2621      -4263.473          43.000    24962977.699   102219180.6211      -3322.000          43.000  
G05  22664539.608   119102958.6781      -1201.805          43.000    22664533.556    92807471.2441       -936.654          40.000  
G13  21883271.375   114997378.9641       -979.352          40.000                                                                  
G15  23307477.298   122481651.8841       1197.722          43.000    23307471.920    95440225.6381        933.249          41.000  
G29  24604470.545   129297349.2961      -2291.629          39.000    24604466.771   100751168.8111      -1785.777          40.000  
G18  26219013.911   137782535.4461       2232.002          38.000    26219011.384   107362476.7421       1739.021          42.000  
G30  25173589.635   132288118.9111      -1952.168          42.000    25173588.165   103081655.3501      -1520.970          41.000  
> 2025 05 29 08 29 49.0070000  0  9                     
G20  23426820.034   123108754.110       -2578.547          45.000                                                                  
G07  27392847.152   143950341.024       -3300.796          40.000    27392843.646   112169104.139       -2572.265          36.000  
G11  24963792.257   131185568.795       -4263.785          43.000    24963788.941   102222502.871       -3322.412          42.000  
G05  22664768.342   119104160.675       -1202.114          43.000    22664762.238    92808407.870        -936.887          39.000  
G13  21883457.870   114998358.727        -980.129          40.000                                                                  
G15  23307249.386   122480454.210        1197.700          43.000    23307244.004    95439292.403         933.067          40.000  
G29  24604906.701   129299641.299       -2292.361          40.000    24604902.972   100752954.801       -1786.483          39.000  
G18  26218589.251   137780303.531        2232.099          39.000    26218586.553   107360737.580        1739.177          42.000  
G30  25173961.218   132290071.308       -1952.640          42.000    25173959.721   103083176.693       -1521.566          41.000  
> 2025 05 29 08 29 50.0070000  0  9                     
G20  23427310.703   123111332.532       -2578.840          45.000                                                                  
G07  27393475.244   143953641.735       -3300.997          40.000    27393471.739   112171676.104       -2572.337          35.000  
G11  24964603.599   131189832.509       -4264.341          43.000    24964600.231   102225825.228       -3322.549          42.000  
G05  22664997.119   119105362.819       -1202.690          43.000    22664991.076    92809344.613        -937.402          39.000  
G13  21883644.331   114999338.959        -980.759          40.000                                                                  
G15  23307021.467   122479256.825        1196.867          43.000    23307016.198    95438359.368         932.696          39.000  
G29  24605342.978   129301933.768       -2293.256          40.000    24605339.277   100754741.118       -1786.912          39.000  
G18  26218164.434   137778071.619        2231.835          38.000    26218161.815   107358998.413        1739.095          40.000  
G30  25174332.771   132292024.138       -1953.241          42.000    25174331.321   103084698.381       -1522.016          39.000  
> 2025 05 29 08 29 51.0070000  0  9                     
G20  23427801.502   123113911.318       -2578.955          45.000                                                                  
G07  27394103.469   143956942.921       -3301.107          41.000    27394100.023   112174248.450       -2572.758          35.000  
G11  24965414.994   131194096.625       -4264.414          43.000    24965411.678   102229147.934       -3323.079          41.000  
G05  22665225.936   119106565.324       -1202.698          43.000    22665219.781    92810281.606        -936.820          39.000  
G13  21883831.042   115000319.933        -981.260          40.000                                                                  
G15  23306793.653   122478059.933        1196.627          44.000    23306788.446    95437426.725         932.340          39.000  
G29  24605779.325   129304226.906       -2293.622          40.000    24605775.639   100756527.973       -1787.276          39.000  
G18  26217739.823   137775839.921        2231.477          40.000    26217737.099   107357259.412        1738.931          40.000  
G30  25174704.552   132293977.624       -1953.823          42.000    25174703.059   103086220.582       -1522.534          40.000  
> 2025 05 29 08 29 52.0070000  0  9                     
G20  23428292.324   123116490.469       -2579.523          45.000                                                                  
G07  27394731.831   143960244.612       -3302.221          41.000    27394728.347   112176821.176       -2572.668          36.000  
G11  24966226.631   131198361.181       -4264.912          44.000    24966223.177   102232470.961       -3323.355          42.000  
G05  22665454.788   119107768.236       -1203.335          44.000    22665448.612    92811218.945        -937.315          40.000  
G13  21884017.891   115001301.656        -982.344          40.000                                                                  
G15  23306565.976   122476863.572        1195.900          44.000    23306560.818    95436494.490         931.959          40.000  
G29  24606215.853   129306520.757       -2294.387          40.000    24606212.176   100758315.393       -1787.782          39.000  
G18  26217315.332   137773608.444        2231.240          39.000    26217312.373   107355520.606        1738.813          41.000  
G30  25175076.335   132295931.814       -1954.817          42.000    25175074.981   103087743.332       -1523.112          40.000  
> 2025 05 29 08 29 53.0070000  0  9                     
G20  23428783.237   123119069.801       -2579.421          45.000                                                                  
G07  27395360.244   143963546.570       -3301.859          41.000    27395356.707   112179394.133       -2572.855          36.000  
G11  24967038.234   131202625.992       -4264.924          44.000    24967034.761   102235794.195       -3323.424          43.000  
G05  22665683.735   119108971.343       -1203.206          44.000    22665677.631    92812156.436        -937.377          41.000  
G13  21884204.800   115002283.933        -982.645          40.000                                                                  
G15  23306338.375   122475667.539        1195.717          43.000    23306333.205    95435562.508         932.039          41.000  
G29  24606652.535   129308815.133       -2294.599          40.000    24606648.743   100760103.201       -1787.976          39.000  
G18  26216890.850   137771377.057        2230.965          39.000    26216887.739   107353781.836        1738.704          41.000  
G30  25175448.249   132297886.473       -1954.588          42.000    25175447.016   103089266.439       -1523.050          42.000  
> 2025 05 29 08 29 54.0070000  0  9                     
G20  23429274.186   123121649.326       -2579.473          45.000                                                                  
G07  27395988.738   143966848.866       -3302.393          41.000    27395985.142   112181967.355       -2572.925          36.000  
G11  24967849.741   131206891.044       -4265.059          44.000    24967846.249   102239117.622       -3323.595          42.000  
G05  22665912.730   119110174.677       -1203.399          44.000    22665906.657    92813094.098        -937.737          40.000  
G13  21884391.836   115003266.795        -983.142          39.000                                                                  
G15  23306110.828   122474471.838        1195.387          43.000    23306105.739    95434630.793         931.626          40.000  
G29  24607089.276   129311110.043       -2295.150          41.000    24607085.440   100761891.452       -1788.391          39.000  
G18  26216466.353   137769145.693        2230.907          39.000    26216463.083   107352043.093        1738.823          40.000  
G30  25175820.322   132299841.695       -1955.496          42.000    25175819.190   103090789.976       -1523.728          41.000  
> 2025 05 29 08 29 55.0070000  0  9                     
G20  23429765.144   123124229.022       -2579.634          44.000                                                                  
G07  27396617.207   143970151.441       -3302.758          41.000    27396613.653   112184540.794       -2573.152          34.000  
G11  24968661.392   131211156.336       -4265.319          43.000    24968657.904   102242441.199       -3323.577          40.000  
G05  22666141.801   119111378.185       -1203.453          44.000    22666135.698    92814031.891        -937.837          38.000  
G13  21884579.019   115004250.174        -983.577          40.000                                                                  
G15  23305883.402   122473276.437        1195.444          44.000    23305878.298    95433699.329         931.311          38.000  
G29  24607526.146   129313405.462       -2295.544          41.000    24607522.217   100763680.087       -1788.728          36.000  
G18  26216041.822   137766914.346        2231.458          39.000    26216038.410   107350304.399        1738.611          38.000  
G30  25176192.516   132301797.348       -1955.844          42.000    25176191.373   103092313.883       -1524.136          39.000  
> 2025 05 29 08 29 56.0070000  0  9                     
G20  23430256.081   123126808.935       -2580.280          44.000                                                                  
G07  27397245.818   143973454.330       -3302.887          41.000    27397242.148   112187114.466       -2573.906          35.000  
G11  24969473.102   131215421.899       -4265.904          43.000    24969469.694   102245765.026       -3323.984          41.000  
G05  22666370.880   119112581.932       -1204.050          44.000    22666364.780    92814969.886        -938.006          39.000  
G13  21884766.243   115005234.160        -984.400          40.000                                                                  
G15  23305655.874   122472081.441        1194.578          43.000    23305650.933    95432768.167         930.690          39.000  
G29  24607963.029   129315701.398       -2296.330          42.000    24607959.103   100765469.138       -1789.506          38.000  
G18  26215617.303   137764683.094        2231.074          39.000    26215613.798   107348565.765        1738.565          39.000  
G30  25176564.710   132303753.546       -1956.234          42.000    25176563.531   103093838.190       -1524.497          40.000  
> 2025 05 29 08 29 57.0070000  0  9                     
G20  23430747.084   123129388.977       -2580.099          44.000                                                                  
G07  27397874.382   143976757.517       -3303.461          41.000    27397870.748   112189688.378       -2574.067          38.000  
G11  24970284.972   131219687.678       -4266.082          43.000    24970281.531   102249089.008       -3323.979          44.000  
G05  22666599.989   119113785.849       -1204.091          44.000    22666593.849    92815907.979        -937.871          42.000  
G13  21884953.705   115006218.720        -985.072          39.000                                                                  
G15  23305428.467   122470886.758        1194.213          43.000    23305423.592    95431837.216         930.667          42.000  
G29  24608400.109   129317997.848       -2296.357          42.000    24608396.094   100767258.570       -1789.285          41.000  
G18  26215192.777   137762451.853        2231.368          39.000    26215189.102   107346827.141        1738.688          40.000  
G30  25176937.005   132305710.222       -1956.943          41.000    25176935.820   103095362.866       -1524.703          43.000  
> 2025 05 29 08 29 58.0070000  0  9                     
G20  23431238.171   123131969.043       -2580.250          44.000                                                                  
G07  27398503.069   143980060.806       -3303.602          42.000    27398499.415   112192262.353       -2574.213          37.000  
G11  24971096.696   131223953.515       -4266.051          43.000    24971093.299   102252413.045       -3324.462          43.000  
G05  22666829.242   119114989.781       -1204.159          45.000    22666822.895    92816846.133        -938.333          41.000  
G13  21885141.286   115007203.584        -985.289          38.000                                                                  
G15  23305201.136   122469692.180        1194.287          43.000    23305196.307    95430906.390         930.736          41.000  
G29  24608837.154   129320294.647       -2297.089          43.000    24608833.136   100769048.288       -1790.099          40.000  
G18  26214768.253   137760220.502        2231.105          39.000    26214764.361   107345088.422        1738.626          39.000  
G30  25177309.334   132307667.211       -1957.359          42.000    25177308.156   103096887.789       -1525.191          42.000  
> 2025 05 29 08 29 59.0070000  0  9                     
G20  23431729.166   123134549.353       -2580.677          45.000                                                                  
G07  27399131.842   143983364.450       -3303.923          42.000    27399128.162   112194836.653       -2574.717          38.000  
G11  24971908.482   131228219.685       -4266.565          43.000    24971905.082   102255737.317       -3324.558          43.000  
G05  22667058.398   119116194.001       -1204.452          45.000    22667052.055    92817784.479        -938.528          40.000  
G13  21885328.934   115008189.138        -986.236          38.000                                                                  
G15  23304973.890   122468498.025        1193.718          43.000    23304969.056    95429975.889         930.329          41.000  
G29  24609274.307   129322592.057       -2297.972          43.000    24609270.220   100770838.470       -1790.755          40.000  
G18  26214343.641   137757989.269        2231.093          39.000    26214339.548   107343349.797        1738.445          39.000  
G30  25177681.879   132309624.762       -1958.059          42.000    25177680.597   103098413.154       -1525.705          41.000  
> 2025 05 29 08 30 00.0070000  0  9                     
G20  23432220.346   123137129.904       -2580.706          45.000                                                                  
G07  27399760.540   143986668.486       -3304.321          42.000    27399756.980   112197411.189       -2574.519          37.000  
G11  24972720.259   131232486.150       -4266.607          43.000    24972716.994   102259061.836       -3324.693          43.000  
G05  22667287.589   119117398.476       -1204.522          45.000    22667281.209    92818723.040        -938.679          40.000  
G13  21885516.485   115009175.270        -986.573          39.000                                                                  
G15  23304746.624   122467304.251        1193.489          43.000    23304741.961    95429045.677         929.926          41.000  
G29  24609711.724   129324890.029       -2298.473          43.000    24609707.494   100772629.089       -1791.296          39.000  
G18  26213919.006   137755758.133        2231.211          40.000    26213914.931   107341611.262        1738.580          38.000  
G30  25178054.525   132311582.864       -1958.393          42.000    25178053.262   103099938.961       -1525.936          41.000  
> 2025 05 29 08 30 01.0070000  0  9                     
G20  23432711.437   123139710.727       -2581.041          45.000                                                                  
G07  27400389.304   143989972.890       -3304.788          42.000    27400385.867   112199986.081       -2575.385          36.000  
G11  24973532.210   131236752.953       -4267.132          43.000    24973529.057   102262386.620       -3325.126          43.000  
G05  22667516.883   119118603.263       -1205.091          45.000    22667510.466    92819661.825        -939.100          40.000  
G13  21885704.345   115010162.053        -987.198          38.000                                                                  
G15  23304519.498   122466110.927        1192.719          43.000    23304514.939    95428115.826         929.251          41.000  
G29  24610149.079   129327188.587       -2298.907          42.000    24610144.826   100774420.173       -1791.393          39.000  
G18  26213494.477   137753527.161        2230.684          40.000    26213490.361   107339872.846        1737.820          38.000  
G30  25178427.277   132313541.559       -1959.043          42.000    25178426.004   103101465.216       -1526.510          41.000  
> 2025 05 29 08 30 02.0070000  0  9                     
G20  23433202.581   123142291.801       -2580.889          45.000                                                                  
G07  27401018.158   143993277.655       -3304.749          42.000    27401014.752   112202561.196       -2574.801          36.000  
G11  24974344.315   131241020.077       -4267.163          43.000    24974341.100   102265711.644       -3325.140          42.000  
G05  22667746.230   119119808.317       -1204.815          45.000    22667739.807    92820600.824        -938.657          40.000  
G13  21885892.139   115011149.484        -987.624          39.000                                                                  
G15  23304292.449   122464917.956        1193.209          43.000    23304287.996    95427186.239         929.567          41.000  
G29  24610586.560   129329487.754       -2299.171          42.000    24610582.258   100776211.732       -1791.667          39.000  
G18  26213069.985   137751296.267        2231.169          40.000    26213065.771   107338134.525        1738.189          38.000  
G30  25178800.001   132315500.821       -1959.185          43.000    25178798.860   103102991.917       -1526.749          41.000  
> 2025 05 29 08 30 03.0070000  0  9                     
G20  23433693.782   123144872.778       -2581.174          45.000                                                                  
G07  27401646.964   143996582.445       -3304.826          41.000    27401643.694   112205136.346       -2574.830          36.000  
G11  24975156.352   131245287.141       -4267.156          43.000    24975153.076   102269036.621       -3324.975          42.000  
G05  22667975.428   119121013.289       -1204.863          44.000    22667969.192    92821539.764        -938.936          40.000  
G13  21886080.061   115012137.164        -987.948          38.000                                                                  
G15  23304065.343   122463725.052        1192.762          43.000    23304060.984    95426256.704         929.484          41.000  
G29  24611024.177   129331787.143       -2299.774          42.000    24611019.689   100778003.452       -1791.755          39.000  
G18  26212645.590   137749065.178        2231.168          40.000    26212641.091   107336396.005        1738.235          38.000  
G30  25179172.766   132317460.283       -1959.594          43.000    25179171.720   103104518.764       -1527.016          41.000  
> 2025 05 29 08 30 04.0070000  0  9                     
G20  23434185.035   123147454.041       -2581.398          45.000                                                                  
G07  27402275.928   143999887.631       -3305.469          41.000    27402272.680   112207711.829       -2575.612          36.000  
G11  24975968.399   131249554.564       -4267.677          43.000    24975965.147   102272361.882       -3325.305          43.000  
G05  22668204.811   119122218.588       -1205.513          44.000    22668198.574    92822478.957        -939.389          40.000  
G13  21886268.138   115013125.544        -988.675          38.000                                                                  
G15  23303838.296   122462532.597        1192.283          43.000    23303834.135    95425327.527         928.759          41.000  
G29  24611461.908   129334087.165       -2300.539          41.000    24611457.466   100779795.669       -1792.426          39.000  
G18  26212221.055   137746834.228        2230.825          40.000    26212216.517   107334657.598        1738.288          37.000  
G30  25179545.769   132319420.349       -1960.132          43.000    25179544.721   103106046.092       -1527.551          41.000  
> 2025 05 29 08 30 05.0070000  0  9                     
G20  23434676.289   123150035.497       -2581.760          45.000                                                                  
G07  27402904.954   144003193.153       -3305.799          41.000    27402901.701   112210287.568       -2576.038          36.000  
G11  24976780.606   131253822.254       -4267.785          44.000    24976777.268   102275687.362       -3325.596          42.000  
G05  22668434.210   119123424.092       -1205.751          45.000    22668428.008    92823418.311        -939.584          40.000  
G13  21886456.344   115014114.510        -989.379          38.000                                                                  
G15  23303611.453   122461340.479        1192.148          43.000    23303607.306    95424398.609         928.538          41.000  
G29  24611899.728   129336387.703       -2301.030          42.000    24611895.292   100781588.322       -1792.995          38.000  
G18  26211796.580   137744603.363        2230.589          40.000    26211792.006   107332919.296        1737.975          37.000  
G30  25179918.813   132321380.963       -1961.023          42.000    25179917.709   103107573.837       -1528.072          41.000  
> 2025 05 29 08 30 06.0070000  0  9                     
G20  23435167.688   123152617.219       -2581.812          45.000                                                                  
G07  27403534.049   144006499.070       -3306.162          41.000    27403530.701   112212863.579       -2576.194          36.000  
G11  24977592.862   131258090.273       -4267.977          44.000    24977589.482   102279013.090       -3325.720          43.000  
G05  22668663.738   119124629.884       -1205.916          45.000    22668657.495    92824357.901        -939.709          40.000  
G13  21886644.524   115015104.090        -989.835          39.000                                                                  
G15  23303384.711   122460148.790        1191.760          43.000    23303380.575    95423470.014         928.700          41.000  
G29  24612337.645   129338688.857       -2301.334          41.000    24612333.150   100783381.418       -1793.176          38.000  
G18  26211372.039   137742372.601        2230.644          42.000    26211367.436   107331181.088        1738.033          37.000  
G30  25180291.971   132323342.143       -1961.402          42.000    25180290.918   103109102.014       -1527.917          41.000  
> 2025 05 29 08 30 07.0070000  0  9                     
G20  23435659.033   123155199.030       -2581.702          45.000                                                                  
G07  27404163.185   144009805.170       -3306.282          41.000    27404159.902   112215439.770       -2576.429          34.000  
G11  24978405.050   131262358.448       -4268.207          43.000    24978401.614   102282338.926       -3325.742          40.000  
G05  22668893.234   119125835.809       -1205.945          44.000    22668886.987    92825297.569        -939.686          38.000  
G13  21886832.885   115016094.142        -989.967          39.000                                                                  
G15  23303157.964   122458957.338        1191.194          42.000    23303153.796    95422541.618         928.202          39.000  
G29  24612775.643   129340990.446       -2301.383          41.000    24612771.105   100785174.869       -1793.661          37.000  
G18  26210947.602   137740141.811        2230.906          41.000    26210942.965   107329442.808        1738.385          34.000  
G30  25180665.234   132325303.730       -1961.674          42.000    25180664.171   103110630.546       -1528.684          38.000  
> 2025 05 29 08 30 08.0070000  0  9                     
G20  23436150.475   123157780.955       -2582.075          45.000                                                                  
G07  27404792.367   144013111.487       -3306.839          41.000    27404789.095   112218016.109       -2576.676          35.000  
G11  24979217.301   131266626.789       -4268.538          43.000    24979213.826   102285664.913       -3326.179          41.000  
G05  22669122.774   119127041.895       -1206.388          45.000    22669116.541    92826237.374        -940.036          39.000  
G13  21887021.376   115017084.714        -990.964          39.000                                                                  
G15  23302931.319   122457766.156        1190.770          42.000    23302927.167    95421613.412         927.894          41.000  
G29  24613213.648   129343292.455       -2302.226          41.000    24613209.184   100786968.653       -1794.054          38.000  
G18  26210523.176   137737911.044        2230.573          42.000    26210518.486   107327704.518        1738.512          35.000  
G30  25181038.579   132327265.747       -1962.550          42.000    25181037.522   103112159.379       -1529.003          40.000  
> 2025 05 29 08 30 09.0070000  0  9                     
G20  23436641.783   123160363.031       -2582.292          45.000                                                                  
G07  27405421.525   144016418.071       -3306.837          41.000    27405418.328   112220592.679       -2576.769          35.000  
G11  24980029.536   131270895.348       -4268.615          43.000    24980026.118   102288991.062       -3326.273          41.000  
G05  22669352.294   119128248.121       -1206.379          45.000    22669345.991    92827177.294        -940.077          39.000  
G13  21887210.109   115018075.788        -991.283          39.000                                                                  
G15  23302704.704   122456575.266        1190.558          43.000    23302700.632    95420685.428         928.210          41.000  
G29  24613651.686   129345594.986       -2302.868          41.000    24613647.252   100788762.831       -1794.693          38.000  
G18  26210098.676   137735680.249        2230.617          42.000    26210093.963   107325966.252        1738.229          36.000  
G30  25181412.084   132329228.234       -1963.169          43.000    25181410.913   103113688.578       -1529.484          40.000  
> 2025 05 29 08 30 10.0070000  0  9                     
G20  23437133.220   123162945.208       -2582.168          45.000                                                                  
G07  27406050.822   144019724.875       -3306.825          40.000    27406047.657   112223169.418       -2576.676          38.000  
G11  24980841.930   131275164.055       -4268.650          43.000    24980838.359   102292317.330       -3326.348          44.000  
G05  22669581.789   119129454.489       -1206.337          45.000    22669575.598    92828117.319        -940.251          42.000  
G13  21887398.835   115019067.362        -991.599          39.000                                                                  
G15  23302478.100   122455384.632        1190.525          43.000    23302474.048    95419757.681         927.765          44.000  
G29  24614089.947   129347897.934       -2302.947          41.000    24614085.526   100790557.340       -1794.769          40.000  
G18  26209674.148   137733449.440        2230.620          41.000    26209669.444   107324227.960        1738.535          38.000  
G30  25181785.523   132331191.117       -1963.118          43.000    25181784.346   103115218.095       -1529.597          43.000  
> 2025 05 29 08 30 11.0070000  0  9                     
G20  23437624.624   123165527.567       -2582.340          45.000                                                                  
G07  27406680.155   144023032.014       -3307.604          40.000    27406676.956   112225746.405       -2577.256          35.000  
G11  24981654.294   131279433.053       -4269.286          43.000    24981650.699   102295643.810       -3326.565          42.000  
G05  22669811.433   119130661.058       -1206.629          45.000    22669805.168    92829057.514        -940.549          40.000  
G13  21887587.751   115020059.513        -992.686          39.000                                                                  
G15  23302251.605   122454194.347        1190.105          43.000    23302247.613    95418830.192         927.228          42.000  
G29  24614528.306   129350201.453       -2304.008          41.000    24614523.915   100792352.275       -1795.580          39.000  
G18  26209249.591   137731218.671        2230.588          41.000    26209244.942   107322489.763        1737.871          38.000  
G30  25182159.186   132333154.517       -1963.587          43.000    25182158.009   103116748.044       -1530.119          41.000  
> 2025 05 29 08 30 12.0070000  0  9                     
G20  23438116.141   123168110.122       -2582.828          45.000                                                                  
G07  27407309.554   144026339.424       -3307.854          40.000    27407306.325   112228323.633       -2577.895          36.000  
G11  24982466.681   131283702.262       -4269.527          44.000    24982463.036   102298970.474       -3326.938          42.000  
G05  22670041.061   119131867.837       -1206.985          45.000    22670034.904    92829997.834        -940.227          41.000  
G13  21887776.610   115021052.217        -993.084          38.000                                                                  
G15  23302025.191   122453004.394        1189.623          43.000    23302021.165    95417902.940         927.249          42.000  
G29  24614966.899   129352505.432       -2304.400          41.000    24614962.358   100794147.591       -1795.947          39.000  
G18  26208825.119   137728987.972        2230.542          40.000    26208820.349   107320751.540        1738.011          37.000  
G30  25182532.960   132335118.411       -1964.304          43.000    25182531.730   103118278.341       -1530.734          41.000  
> 2025 05 29 08 30 13.0070000  0  9                     
G20  23438607.759   123170692.947       -2583.401          45.000                                                                  
G07  27407938.883   144029647.200       -3307.951          40.000    27407935.716   112230901.108       -2577.908          36.000  
G11  24983279.155   131287971.803       -4269.963          43.000    24983275.491   102302297.388       -3327.181          42.000  
G05  22670270.675   119133074.914       -1207.296          45.000    22670264.611    92830938.426        -940.681          41.000  
G13  21887965.690   115022045.540        -993.995          38.000                                                                  
G15  23301798.805   122451814.852        1189.028          43.000    23301794.860    95416976.039         926.720          42.000  
G29  24615405.255   129354810.058       -2305.237          41.000    24615400.895   100795943.390       -1796.229          39.000  
G18  26208400.554   137726757.432        2230.001          40.000    26208395.797   107319013.448        1737.824          38.000  
G30  25182906.800   132337082.910       -1965.264          43.000    25182905.561   103119809.097       -1531.232          41.000  
> 2025 05 29 08 30 14.0070000  0  9                     
G20  23439099.424   123173276.039       -2583.118          45.000                                                                  
G07  27408568.320   144032955.409       -3308.370          40.000    27408565.210   112233478.915       -2577.897          35.000  
G11  24984091.679   131292241.690       -4269.862          43.000    24984088.029   102305624.576       -3327.225          42.000  
G05  22670500.352   119134282.286       -1207.380          45.000    22670494.407    92831879.230        -940.593          40.000  
G13  21888154.935   115023039.550        -994.171          38.000                                                                  
G15  23301572.488   122450625.734        1189.015          43.000    23301568.646    95416049.461         926.367          41.000  
G29  24615844.026   129357115.269       -2305.114          41.000    24615839.546   100797739.660       -1796.332          38.000  
G18  26207976.092   137724527.000        2230.222          40.000    26207971.212   107317275.464        1738.244          38.000  
G30  25183280.689   132339047.961       -1965.219          43.000    25183279.440   103121340.329       -1531.736          40.000  
> 2025 05 29 08 30 15.0070000  0  9                     
G20  23439590.982   123175859.293       -2583.141          45.000                                                                  
G07  27409197.870   144036263.861       -3307.977          40.000    27409194.797   112236056.924       -2577.866          35.000  
G11  24984904.215   131296511.809       -4270.087          43.000    24984900.529   102308951.939       -3327.303          42.000  
G05  22670730.087   119135489.847       -1207.316          45.000    22670724.206    92832820.194        -940.863          40.000  
G13  21888344.268   115024034.079        -994.344          39.000                                                                  
G15  23301346.277   122449436.925        1188.791          43.000    23301342.396    95415123.106         926.615          41.000  
G29  24616282.802   129359421.020       -2306.061          41.000    24616278.384   100799536.331       -1796.492          38.000  
G18  26207551.609   137722296.603        2230.792          40.000    26207546.789   107315537.496        1738.018          39.000  
G30  25183654.747   132341013.496       -1965.334          42.000    25183653.516   103122871.891       -1531.368          40.000  
> 2025 05 29 08 30 16.0070000  0  9                     
G20  23440082.557   123178442.645       -2583.340          45.000                                                                  
G07  27409827.432   144039572.545       -3308.695          39.000    27409824.335   112238635.135       -2578.329          35.000  
G11  24985716.847   131300782.077       -4270.470          43.000    24985713.120   102312279.428       -3327.691          42.000  
G05  22670959.981   119136697.519       -1207.746          45.000    22670954.061    92833761.241        -941.238          41.000  
G13  21888533.578   115025029.107        -995.425          39.000                                                                  
G15  23301120.080   122448248.363        1188.384          42.000    23301116.215    95414196.973         925.973          41.000  
G29  24616721.643   129361727.158       -2306.529          41.000    24616717.240   100801333.350       -1797.478          38.000  
G18  26207127.248   137720066.177        2230.511          40.000    26207122.320   107313799.524        1737.922          39.000  
G30  25184028.922   132342979.466       -1966.141          42.000    25184027.696   103124403.805       -1531.828          40.000  
> 2025 05 29 08 30 17.0070000  0  9                     
G20  23440574.190   123181026.154       -2583.687          45.000                                                                  
G07  27410457.045   144042881.529       -3309.257          39.000    27410454.019   112241213.560       -2578.744          35.000  
G11  24986529.614   131305052.572       -4270.690          43.000    24986525.801   102315607.076       -3327.844          42.000  
G05  22671189.816   119137905.363       -1208.108          45.000    22671183.949    92834702.414        -941.167          41.000  
G13  21888722.868   115026024.627        -995.626          39.000                                                                  
G15  23300894.046   122447060.117        1188.061          43.000    23300890.223    95413271.059         925.520          41.000  
G29  24617160.592   129364033.790       -2306.989          42.000    24617156.159   100803130.718       -1797.648          38.000  
G18  26206702.743   137717835.781        2230.431          40.000    26206697.879   107312061.555        1737.802          40.000  
G30  25184403.234   132344945.903       -1966.714          42.000    25184401.893   103125936.109       -1532.631          40.000  
> 2025 05 29 08 30 18.0070000  0  9                     
G20  23441065.867   123183609.971       -2584.111          45.000                                                                  
G07  27411086.706   144046190.877       -3309.477          40.000    27411083.795   112243792.274       -2578.640          35.000  
G11  24987342.194   131309323.418       -4270.985          43.000    24987338.563   102318935.004       -3328.142          42.000  
G05  22671419.646   119139113.525       -1208.295          45.000    22671413.866    92835643.843        -941.659          41.000  
G13  21888912.421   115027020.865        -996.616          39.000                                                                  
G15  23300668.007   122445872.321        1187.423          42.000    23300664.174    95412345.500         925.219          41.000  
G29  24617599.638   129366341.072       -2307.952          42.000    24617595.155   100804928.613       -1798.251          38.000  
G18  26206278.289   137715605.559        2230.136          40.000    26206273.428   107310323.702        1737.814          40.000  
G30  25184777.565   132346912.950       -1967.431          42.000    25184776.079   103127468.875       -1533.478          40.000  
> 2025 05 29 08 30 19.0070000  0  9                     
G20  23441557.529   123186194.111       -2584.174          45.000                                                                  
G07  27411716.618   144049500.711       -3309.652          40.000    27411713.587   112246371.359       -2579.070          35.000  
G11  24988155.087   131313594.669       -4271.408          43.000    24988151.444   102322263.247       -3328.326          42.000  
G05  22671649.530   119140322.041       -1208.439          45.000    22671643.861    92836585.547        -942.020          41.000  
G13  21889102.162   115028017.780        -997.010          40.000                                                                  
G15  23300442.011   122444685.011        1187.171          42.000    23300438.206    95411420.306         925.356          41.000  
G29  24618038.804   129368649.008       -2308.204          41.000    24618034.336   100806727.005       -1798.721          37.000  
G18  26205853.828   137713375.554        2229.874          39.000    26205849.036   107308586.027        1737.696          40.000  
G30  25185152.137   132348880.648       -1967.990          42.000    25185150.511   103129002.126       -1533.329          40.000  
> 2025 05 29 08 30 20.0070000  0  9                     
G20  23442049.389   123188778.540       -2584.399          45.000                                                                  
G07  27412346.482   144052810.948       -3310.192          40.000    27412343.479   112248950.787       -2579.560          32.000  
G11  24988968.018   131317866.265       -4271.431          43.000    24988964.383   102325591.766       -3328.415          40.000  
G05  22671879.506   119141530.900       -1208.720          44.000    22671873.980    92837527.501        -941.801          38.000  
G13  21889292.130   115029015.398        -997.859          40.000                                                                  
G15  23300216.169   122443498.140        1186.875          42.000    23300212.283    95410495.463         925.134          38.000  
G29  24618477.976   129370957.581       -2308.647          41.000    24618473.596   100808525.883       -1798.938          35.000  
G18  26205429.434   137711145.685        2229.768          39.000    26205424.683   107306848.472        1737.733          39.000  
G30  25185526.753   132350848.948       -1968.407          42.000    25185525.018   103130535.862       -1533.766          37.000  
> 2025 05 29 08 30 21.0070000  0  9                     
G20  23442541.171   123191363.130       -2584.788          45.000                                                                  
G07  27412976.444   144056121.436       -3310.679          40.000    27412973.511   112251530.357       -2579.443          34.000  
G11  24989780.880   131322138.089       -4271.876          43.000    24989777.303   102328920.466       -3328.926          41.000  
G05  22672109.473   119142739.936       -1209.088          44.000    22672104.046    92838469.606        -942.268          40.000  
G13  21889482.128   115030013.532        -998.520          40.000                                                                  
G15  23299990.507   122442311.570        1186.413          42.000    23299986.548    95409570.891         924.351          40.000  
G29  24618917.442   129373266.650       -2309.285          41.000    24618912.959   100810325.145       -1799.344          36.000  
G18  26205005.109   137708915.853        2229.564          39.000    26205000.431   107305110.945        1737.397          40.000  
G30  25185901.375   132352817.713       -1968.955          43.000    25185899.696   103132069.961       -1534.178          39.000  
> 2025 05 29 08 30 22.0070000  0  9                     
G20  23443032.979   123193947.992       -2584.871          45.000                                                                  
G07  27413606.442   144059432.334       -3310.979          40.000    27413603.595   112254110.292       -2579.727          37.000  
G11  24990593.790   131326410.250       -4272.391          43.000    24990590.278   102332249.414       -3329.076          44.000  
G05  22672339.526   119143949.296       -1209.511          44.000    22672334.241    92839411.954        -942.347          43.000  
G13  21889672.057   115031012.324        -999.091          40.000                                                                  
G15  23299764.883   122441125.449        1185.735          42.000    23299760.881    95408646.627         924.219          43.000  
G29  24619356.988   129375576.340       -2309.901          41.000    24619352.365   100812124.904       -1800.061          40.000  
G18  26204580.763   137706686.177        2229.599          39.000    26204576.142   107303373.515        1737.459          44.000  
G30  25186276.167   132354787.076       -1969.573          43.000    25186274.503   103133604.553       -1534.836          42.000  
> 2025 05 29 08 30 23.0070000  0  9                     
G20  23443524.868   123196532.930       -2584.884          45.000                                                                  
G07  27414236.481   144062743.427       -3310.982          40.000    27414233.622   112256690.381       -2580.399          36.000  
G11  24991406.777   131330682.555       -4272.497          43.000    24991403.234   102335578.471       -3329.014          42.000  
G05  22672569.588   119145158.741       -1209.534          44.000    22672564.455    92840354.376        -942.395          42.000  
G13  21889862.153   115032011.575        -999.312          40.000                                                                  
G15  23299539.204   122439939.546        1185.568          43.000    23299535.122    95407722.554         923.994          41.000  
G29  24619796.521   129377886.439       -2310.364          41.000    24619791.991   100813924.974       -1800.179          37.000  
G18  26204156.268   137704456.424        2229.778          39.000    26204151.870   107301636.072        1737.410          43.000  
G30  25186651.071   132356756.845       -1970.122          43.000    25186649.297   103135139.410       -1534.543          41.000  
> 2025 05 29 08 30 24.0070000  0  9                     
G20  23444016.677   123199118.067       -2585.422          45.000                                                                  
G07  27414866.500   144066054.804       -3311.529          40.000    27414863.722   112259270.669       -2580.187          35.000  
G11  24992219.978   131334955.065       -4272.576          43.000    24992216.156   102338907.713       -3329.403          43.000  
G05  22672799.693   119146368.400       -1209.916          44.000    22672794.641    92841296.957        -942.604          42.000  
G13  21890052.476   115033011.383       -1000.055          40.000                                                                  
G15  23299313.586   122438753.948        1185.555          43.000    23299309.543    95406798.711         923.916          41.000  
G29  24620236.182   129380197.035       -2310.930          41.000    24620231.747   100815725.459       -1800.707          38.000  
G18  26203731.975   137702226.734        2229.583          39.000    26203727.522   107299898.629        1737.542          43.000  
G30  25187026.022   132358727.091       -1970.605          43.000    25187024.160   103136674.685       -1535.484          41.000  
> 2025 05 29 08 30 25.0070000  0  9                     
G20  23444508.706   123201703.431       -2585.560          45.000                                                                  
G07  27415496.682   144069366.579       -3312.326          40.000    27415493.916   112261851.264       -2580.928          35.000  
G11  24993033.031   131339227.926       -4273.025          43.000    24993029.240   102342237.213       -3329.789          42.000  
G05  22673029.913   119147578.319       -1210.194          44.000    22673024.954    92842239.761        -943.110          41.000  
G13  21890242.873   115034011.823       -1001.257          39.000                                                                  
G15  23299088.123   122437568.782        1184.666          43.000    23299084.070    95405875.203         923.262          41.000  
G29  24620675.973   129382508.241       -2311.674          41.000    24620671.522   100817526.394       -1801.095          37.000  
G18  26203307.536   137699997.181        2229.339          39.000    26203303.339   107298161.310        1736.966          42.000  
G30  25187401.002   132360697.892       -1971.128          42.000    25187399.255   103138210.378       -1535.898          40.000  
> 2025 05 29 08 30 26.0070000  0  9                     
G20  23445000.724   123204289.034       -2585.553          45.000                                                                  
G07  27416127.022   144072678.652       -3312.039          40.000    27416124.231   112264432.110       -2581.056          34.000  
G11  24993846.199   131343501.079       -4273.301          43.000    24993842.367   102345566.923       -3329.773          42.000  
G05  22673260.182   119148788.484       -1210.045          44.000    22673255.270    92843182.736        -942.698          41.000  
G13  21890433.273   115035012.853       -1001.477          39.000                                                                  
G15  23298862.609   122436383.966        1184.793          43.000    23298858.609    95404951.988         922.933          41.000  
G29  24621115.940   129384820.006       -2312.050          40.000    24621111.409   100819327.757       -1801.413          37.000  
G18  26202883.187   137697767.715        2229.671          39.000    26202879.261   107296424.065        1737.182          42.000  
G30  25187776.209   132362669.244       -1971.517          42.000    25187774.423   103139746.506       -1536.319          40.000  
> 2025 05 29 08 30 27.0070000  0  9                     
G20  23445492.711   123206874.919       -2586.162          45.000                                                                  
G07  27416757.429   144075991.148       -3312.853          40.000    27416754.579   112267013.283       -2581.596          35.000  
G11  24994659.394   131347774.551       -4273.715          43.000    24994655.582   102348896.894       -3329.836          42.000  
G05  22673490.528   119149998.984       -1210.761          44.000    22673485.575    92844125.979        -943.421          41.000  
G13  21890623.918   115036014.554       -1002.206          39.000                                                                  
G15  23298637.261   122435199.613        1184.121          43.000    23298633.304    95404029.098         922.771          41.000  
G29  24621556.001   129387132.395       -2312.908          40.000    24621551.380   100821129.627       -1802.255          37.000  
G18  26202458.946   137695538.396        2229.418          40.000    26202455.137   107294686.939        1736.882          42.000  
G30  25188151.478   132364641.194       -1972.036          42.000    25188149.647   103141283.084       -1536.817          40.000  
> 2025 05 29 08 30 28.0070000  0  9                     
G20  23445984.915   123209461.041       -2586.310          45.000                                                                  
G07  27417387.800   144079304.018       -3313.535          40.000    27417384.988   112269594.728       -2582.097          35.000  
G11  24995472.573   131352048.326       -4273.768          42.000    24995468.871   102352227.112       -3330.023          42.000  
G05  22673720.915   119151209.712       -1210.798          44.000    22673716.034    92845069.412        -943.716          41.000  
G13  21890814.716   115037016.851       -1002.623          40.000                                                                  
G15  23298411.910   122434015.641        1183.915          43.000    23298408.033    95403106.539         922.628          41.000  
G29  24621996.166   129389445.320       -2313.333          40.000    24621991.542   100822931.909       -1802.674          37.000  
G18  26202034.562   137693309.210        2229.077          40.000    26202031.033   107292949.880        1737.124          42.000  
G30  25188526.798   132366613.709       -1972.531          43.000    25188525.014   103142820.118       -1537.390          40.000  
> 2025 05 29 08 30 29.0070000  0  9                     
G20  23446477.013   123212047.358       -2586.805          45.000                                                                  
G07  27418018.348   144082617.136       -3313.132          40.000    27418015.536   112272176.384       -2581.692          35.000  
G11  24996285.878   131356322.360       -4274.420          43.000    24996282.281   102355557.540       -3330.742          42.000  
G05  22673951.337   119152420.650       -1211.270          44.000    22673946.333    92846012.997        -943.868          41.000  
G13  21891005.408   115038019.751       -1003.516          40.000                                                                  
G15  23298186.679   122432831.999        1183.391          43.000    23298182.866    95402184.231         921.840          41.000  
G29  24622436.339   129391758.788       -2314.031          39.000    24622431.845   100824734.623       -1803.287          37.000  
G18  26201610.424   137691080.073        2228.635          40.000    26201606.992   107291212.897        1736.778          42.000  
G30  25188902.345   132368586.738       -1973.505          43.000    25188900.422   103144357.528       -1537.763          40.000  
> 2025 05 29 08 30 30.0070000  0  9                     
G20  23446969.180   123214633.816       -2586.545          45.000                                                                  
G07  27418648.924   144085930.576       -3313.123          40.000    27418646.143   112274758.292       -2582.039          35.000  
G11  24997099.247   131360596.636       -4274.397          43.000    24997095.706   102358888.153       -3330.742          42.000  
G05  22674181.878   119153631.787       -1211.053          44.000    22674176.805    92846956.736        -943.831          40.000  
G13  21891196.387   115039023.166       -1003.481          40.000                                                                  
G15  23297961.459   122431648.726        1183.098          43.000    23297957.659    95401262.179         922.117          41.000  
G29  24622876.573   129394072.787       -2314.371          39.000    24622872.194   100826537.713       -1803.111          37.000  
G18  26201186.200   137688850.948        2229.565          40.000    26201182.789   107289475.915        1737.086          42.000  
G30  25189277.898   132370560.248       -1973.790          43.000    25189275.964   103145895.324       -1537.901          40.000  
> 2025 05 29 08 30 31.0070000  0  9                     
G20  23447461.324   123217220.450       -2586.604          45.000                                                                  
G07  27419279.449   144089244.309       -3313.860          40.000    27419276.726   112277340.419       -2582.355          35.000  
G11  24997912.659   131364871.133       -4274.733          43.000    24997909.058   102362218.905       -3331.026          42.000  
G05  22674412.370   119154843.114       -1211.421          44.000    22674407.338    92847900.630        -944.150          40.000  
G13  21891387.443   115040027.136       -1004.200          40.000                                                                  
G15  23297736.378   122430465.712        1182.998          43.000    23297732.525    95400340.368         921.656          41.000  
G29  24623317.029   129396387.247       -2314.310          39.000    24623312.576   100828341.203       -1803.527          37.000  
G18  26200762.017   137686621.899        2229.015          40.000    26200758.648   107287738.989        1736.509          42.000  
G30  25189653.556   132372534.219       -1974.239          43.000    25189651.556   103147433.506       -1538.494          40.000  
> 2025 05 29 08 30 32.0070000  0  9                     
G20  23447953.462   123219807.263       -2586.650          45.000                                                                  
G07  27419909.993   144092558.295       -3313.686          40.000    27419907.308   112279922.749       -2582.531          35.000  
G11  24998726.072   131369145.846       -4274.591          43.000    24998722.515   102365549.857       -3330.894          42.000  
G05  22674642.832   119156054.629       -1211.376          44.000    22674637.892    92848844.665        -944.086          40.000  
G13  21891578.453   115041031.682       -1004.801          40.000                                                                  
G15  23297511.288   122429283.057        1182.684          43.000    23297507.512    95399418.808         921.637          41.000  
G29  24623757.531   129398702.241       -2315.153          40.000    24623753.157   100830145.091       -1803.682          37.000  
G18  26200337.869   137684392.879        2229.378          40.000    26200334.519   107286002.061        1737.160          42.000  
G30  25190029.298   132374508.677       -1974.531          43.000    25190027.197   103148972.035       -1538.478          40.000  
> 2025 05 29 08 30 33.0070000  0  9                     
G20  23448445.803   123222394.337       -2587.329          45.000                                                                  
G07  27420540.611   144095872.720       -3314.980          40.000    27420538.074   112282505.379       -2582.512          35.000  
G11  24999539.583   131373420.928       -4275.571          43.000    24999536.091   102368881.078       -3331.462          42.000  
G05  22674873.354   119157266.424       -1212.154          44.000    22674868.418    92849788.919        -944.540          40.000  
G13  21891769.728   115042036.834       -1005.506          40.000                                                                  
G15  23297286.489   122428100.805        1181.882          43.000    23297282.481    95398497.580         920.922          41.000  
G29  24624198.145   129401017.835       -2316.049          41.000    24624193.897   100831949.470       -1804.962          37.000  
G18  26199913.654   137682163.995        2228.593          40.000    26199910.423   107284265.274        1736.552          42.000  
G30  25190405.190   132376483.734       -1975.509          42.000    25190403.020   103150511.028       -1539.154          40.000  
> 2025 05 29 08 30 34.0070000  0  9                     
G20  23448938.067   123224981.598       -2587.498          45.000                                                                  
G07  27421171.295   144099187.368       -3314.804          40.000    27421168.841   112285088.260       -2582.933          35.000  
G11  25000353.164   131377696.201       -4275.401          43.000    25000349.647   102372212.468       -3331.518          42.000  
G05  22675103.988   119158478.419       -1212.104          44.000    22675099.069    92850733.339        -944.617          40.000  
G13  21891961.244   115043042.552       -1006.002          40.000                                                                  
G15  23297061.616   122426918.880        1181.645          43.000    23297057.625    95397576.593         920.773          41.000  
G29  24624638.907   129403333.924       -2316.048          40.000    24624634.632   100833754.200       -1804.808          37.000  
G18  26199489.528   137679935.163        2228.796          40.000    26199486.297   107282528.506        1736.733          42.000  
G30  25190781.063   132378459.276       -1975.880          42.000    25190779.030   103152050.418       -1539.449          40.000  
> 2025 05 29 08 30 35.0070000  0  9                     
G20  23449430.424   123227569.057       -2587.545          45.000                                                                  
G07  27421802.138   144102502.390       -3315.149          40.000    27421799.764   112287671.356       -2582.723          35.000  
G11  25001166.766   131381971.764       -4275.516          43.000    25001163.348   102375544.060       -3331.500          42.000  
G05  22675334.670   119159690.668       -1212.341          44.000    22675329.713    92851677.918        -944.401          40.000  
G13  21892152.745   115044048.867       -1006.311          40.000                                                                  
G15  23296836.866   122425737.334        1181.350          43.000    23296832.774    95396655.914         920.403          41.000  
G29  24625079.805   129405650.560       -2316.379          40.000    24625075.487   100835559.380       -1805.318          37.000  
G18  26199065.391   137677706.413        2228.989          41.000    26199062.245   107280791.824        1736.590          42.000  
G30  25191157.079   132380435.324       -1976.344          42.000    25191155.092   103153590.209       -1539.931          40.000  
> 2025 05 29 08 30 36.0070000  0  9                     
G20  23449922.776   123230156.632       -2587.446          45.000                                                                  
G07  27422432.954   144105817.632       -3315.155          40.000    27422430.617   112290254.667       -2583.027          35.000  
G11  25001980.329   131386247.519       -4275.715          43.000    25001977.023   102378875.831       -3331.750          42.000  
G05  22675565.394   119160903.051       -1212.371          44.000    22675560.374    92852622.644        -944.819          40.000  
G13  21892344.457   115045055.670       -1006.929          39.000                                                                  
G15  23296612.131   122424556.035        1181.367          43.000    23296608.017    95395735.413         920.447          41.000  
G29  24625520.690   129407967.689       -2317.007          40.000    24625516.408   100837364.920       -1805.906          37.000  
G18  26198641.395   137675477.641        2228.785          41.000    26198638.026   107279055.146        1736.643          42.000  
G30  25191533.159   132382411.825       -1976.701          43.000    25191531.186   103155130.318       -1540.075          40.000  
> 2025 05 29 08 30 37.0070000  0  9                     
G20  23450415.197   123232744.379       -2587.654          45.000                                                                  
G07  27423063.972   144109133.164       -3315.704          40.000    27423061.529   112292838.181       -2583.274          35.000  
G11  25002794.019   131390523.503       -4276.144          43.000    25002790.739   102382207.745       -3331.802          42.000  
G05  22675796.199   119162115.611       -1212.438          44.000    22675791.108    92853567.491        -944.880          40.000  
G13  21892536.072   115046063.023       -1007.623          39.000                                                                  
G15  23296387.465   122423375.066        1181.052          43.000    23296383.288    95394815.189         920.076          42.000  
G29  24625961.748   129410285.298       -2317.638          41.000    24625957.426   100839170.859       -1806.237          37.000  
G18  26198217.242   137673248.902        2228.900          41.000    26198213.788   107277318.468        1736.564          41.000  
G30  25191909.462   132384388.813       -1977.024          42.000    25191907.456   103156670.840       -1540.504          40.000  
> 2025 05 29 08 30 38.0070000  0  9                     
G20  23450907.741   123235332.292       -2588.102          45.000                                                                  
G07  27423694.996   144112448.980       -3316.133          40.000    27423692.581   112295421.957       -2584.098          35.000  
G11  25003607.775   131394799.700       -4276.344          45.000    25003604.541   102385539.858       -3332.137          42.000  
G05  22676026.932   119163328.382       -1212.985          44.000    22676021.934    92854512.505        -945.006          40.000  
G13  21892727.913   115047070.908       -1008.191          40.000                                                                  
G15  23296162.818   122422194.432        1180.346          43.000    23296158.657    95393895.209         919.559          41.000  
G29  24626402.971   129412603.425       -2318.465          41.000    24626398.673   100840977.183       -1806.506          38.000  
G18  26197793.224   137671020.250        2228.684          41.000    26197789.544   107275581.863        1736.478          39.000  
G30  25192285.828   132386366.292       -1977.816          42.000    25192283.793   103158211.720       -1541.333          40.000  
> 2025 05 29 08 30 39.0070000  0  9                     
G20  23451400.245   123237920.532       -2588.445          45.000                                                                  
G07  27424326.038   144115765.190       -3316.186          41.000    27424323.550   112298006.011       -2583.960          35.000  
G11  25004421.549   131399076.283       -4276.611          43.000    25004418.376   102388872.251       -3332.664          42.000  
G05  22676257.824   119164541.480       -1213.318          44.000    22676252.853    92855457.773        -945.299          41.000  
G13  21892919.730   115048079.506       -1009.000          40.000                                                                  
G15  23295938.282   122421014.250        1179.953          44.000    23295934.099    95392975.598         919.226          41.000  
G29  24626844.241   129414922.168       -2319.189          41.000    24626839.901   100842783.999       -1807.128          38.000  
G18  26197369.310   137668791.741        2228.653          42.000    26197365.433   107273845.336        1736.221          39.000  
G30  25192662.177   132388344.370       -1978.387          42.000    25192660.257   103159753.094       -1541.727          40.000  
> 2025 05 29 08 30 40.0070000  0  9                     
G20  23451892.899   123240509.159       -2588.864          45.000                                                                  
G07  27424957.133   144119081.962       -3316.803          41.000    27424954.780   112300590.476       -2584.306          35.000  
G11  25005235.447   131403353.315       -4277.189          44.000    25005232.224   102392205.002       -3332.976          42.000  
G05  22676488.769   119165755.006       -1213.784          44.000    22676483.867    92856403.379        -945.773          41.000  
G13  21893111.948   115049088.843       -1009.623          40.000                                                                  
G15  23295713.728   122419834.624        1179.457          43.000    23295709.623    95392056.391         919.165          41.000  
G29  24627285.687   129417241.643       -2319.720          41.000    24627281.301   100844591.404       -1807.734          38.000  
G18  26196945.275   137666563.512        2227.859          41.000    26196941.251   107272109.045        1736.350          39.000  
G30  25193038.735   132390323.155       -1979.007          42.000    25193036.783   103161295.002       -1541.863          40.000  
> 2025 05 29 08 30 41.0070000  0  9                     
G20  23452385.471   123243097.977       -2589.298          45.000                                                                  
G07  27425588.346   144122399.015       -3317.802          41.000    27425586.117   112303175.214       -2585.144          35.000  
G11  25006049.424   131407630.614       -4277.869          44.000    25006046.232   102395537.942       -3333.309          42.000  
G05  22676719.647   119166968.729       -1214.109          44.000    22676714.774    92857349.137        -946.041          40.000  
G13  21893304.158   115050098.781       -1010.420          40.000                                                                  
G15  23295489.380   122418655.339        1178.913          43.000    23295485.252    95391137.479         918.430          41.000  
G29  24627727.216   129419561.642       -2320.375          42.000    24627722.938   100846399.174       -1807.933          38.000  
G18  26196521.250   137664335.329        2227.899          42.000    26196517.165   107270372.818        1735.827          38.000  
G30  25193415.393   132392302.486       -1979.933          42.000    25193413.491   103162837.355       -1542.903          41.000  
> 2025 05 29 08 30 42.0070000  0  9                     
G20  23452878.231   123245687.046       -2589.287          45.000                                                                  
G07  27426219.645   144125716.439       -3318.171          41.000    27426217.286   112305760.205       -2584.642          35.000  
G11  25006863.373   131411908.214       -4278.065          44.000    25006860.173   102398871.138       -3333.424          42.000  
G05  22676950.685   119168182.744       -1214.291          44.000    22676945.874    92858295.108        -946.058          40.000  
G13  21893496.439   115051109.346       -1011.264          40.000                                                                  
G15  23295264.979   122417476.461        1178.743          43.000    23295260.879    95390218.868         918.447          41.000  
G29  24628168.884   129421882.249       -2320.551          41.000    24628164.536   100848207.453       -1808.327          38.000  
G18  26196097.293   137662107.281        2227.952          42.000    26196092.965   107268636.684        1735.951          37.000  
G30  25193792.046   132394282.351       -1980.279          42.000    25193790.249   103164380.100       -1543.196          41.000  
> 2025 05 29 08 30 43.0070000  0  9                     
G20  23453370.925   123248276.188       -2589.377          45.000                                                                  
G07  27426850.975   144129034.044       -3317.551          41.000    27426848.547   112308345.359       -2585.301          35.000  
G11  25007677.346   131416185.954       -4278.086          43.000    25007674.199   102402204.424       -3333.349          42.000  
G05  22677181.747   119169396.836       -1214.216          44.000    22677176.995    92859241.157        -946.076          40.000  
G13  21893688.766   115052120.350       -1011.412          40.000                                                                  
G15  23295040.554   122416297.822        1178.471          43.000    23295036.603    95389300.444         918.274          41.000  
G29  24628610.604   129424203.267       -2321.588          41.000    24628606.416   100850016.024       -1808.708          39.000  
G18  26195673.233   137659879.202        2227.900          42.000    26195668.876   107266900.506        1735.929          37.000  
G30  25194168.789   132396262.632       -1980.754          42.000    25194167.062   103165923.155       -1543.250          41.000  
> 2025 05 29 08 30 44.0070000  0  9                     
G20  23453863.784   123250865.578       -2589.480          45.000                                                                  
G07  27427482.344   144132352.024       -3318.353          41.000    27427479.919   112310930.775       -2585.504          33.000  
G11  25008491.422   131420463.986       -4278.223          43.000    25008488.299   102405537.959       -3333.591          40.000  
G05  22677412.860   119170611.210       -1214.669          44.000    22677408.010    92860187.416        -946.486          38.000  
G13  21893881.152   115053131.983       -1011.840          40.000                                                                  
G15  23294816.372   122415119.569        1177.987          43.000    23294812.377    95388382.317         917.962          39.000  
G29  24629052.386   129426524.846       -2321.887          42.000    24629048.276   100851825.056       -1809.448          37.000  
G18  26195249.320   137657651.217        2227.865          42.000    26195244.750   107265164.398        1736.354          35.000  
G30  25194545.698   132398243.446       -1981.053          43.000    25194544.081   103167466.680       -1544.117          39.000  
> 2025 05 29 08 30 45.0070000  0  9                     
G20  23454356.471   123253455.256       -2590.032          45.000                                                                  
G07  27428113.830   144135670.368       -3318.656          41.000    27428111.312   112313516.520       -2585.704          34.000  
G11  25009305.564   131424742.370       -4278.913          42.000    25009302.426   102408871.754       -3334.139          42.000  
G05  22677644.119   119171825.881       -1214.942          44.000    22677639.103    92861133.912        -946.977          40.000  
G13  21894073.778   115054144.275       -1012.731          40.000                                                                  
G15  23294592.293   122413941.750        1177.254          43.000    23294588.255    95387464.550         917.436          41.000  
G29  24629494.319   129428847.043       -2322.671          41.000    24629490.329   100853634.549       -1809.890          38.000  
G18  26194825.307   137655423.385        2227.615          42.000    26194820.749   107263428.444        1735.130          36.000  
G30  25194922.745   132400224.873       -1981.970          43.000    25194921.222   103169010.633       -1544.490          41.000  
> 2025 05 29 08 30 46.0070000  0  9                     
G20  23454849.275   123256045.178       -2589.993          45.000                                                                  
G07  27428745.284   144138989.097       -3318.746          41.000    27428742.826   112316102.541       -2585.830          37.000  
G11  25010119.621   131429021.062       -4278.748          43.000    25010116.626   102412205.815       -3334.140          44.000  
G05  22677875.270   119173040.825       -1214.991          44.000    22677870.199    92862080.639        -947.073          42.000  
G13  21894266.462   115055157.220       -1013.292          40.000                                                                  
G15  23294368.408   122412764.337        1177.313          43.000    23294364.185    95386547.089         917.292          42.000  
G29  24629936.344   129431169.830       -2322.802          41.000    24629932.307   100855444.516       -1810.194          40.000  
G18  26194401.416   137653195.701        2227.578          42.000    26194396.743   107261692.582        1736.492          38.000  
G30  25195299.949   132402206.865       -1982.061          43.000    25195298.352   103170555.036       -1544.496          42.000  
> 2025 05 29 08 30 47.0070000  0  9                     
G20  23455342.075   123258635.260       -2590.101          45.000                                                                  
G07  27429376.741   144142308.118       -3319.266          40.000    27429374.403   112318688.782       -2585.925          35.000  
G11  25010933.858   131433299.998       -4279.227          42.000    25010930.992   102415540.028       -3334.419          43.000  
G05  22678106.494   119174255.968       -1215.328          45.000    22678101.406    92863027.468        -946.759          41.000  
G13  21894459.324   115056170.689       -1013.660          40.000                                                                  
G15  23294144.507   122411587.225        1176.844          43.000    23294140.180    95385629.861         917.288          41.000  
G29  24630378.429   129433493.134       -2323.894          41.000    24630374.433   100857254.869       -1810.761          39.000  
G18  26193977.557   137650968.038        2227.596          42.000    26193972.770   107259956.729        1735.653          37.000  
G30  25195677.319   132404189.314       -1982.514          43.000    25195675.702   103172099.809       -1544.649          41.000  
> 2025 05 29 08 30 48.0070000  0  9                     
G20  23455834.976   123261225.400       -2590.105          45.000                                                                  
G07  27430008.436   144145627.291       -3319.174          41.000    27430005.998   112321275.164       -2586.836          35.000  
G11  25011748.090   131437579.024       -4279.195          42.000    25011745.183   102418874.334       -3334.225          43.000  
G05  22678337.803   119175471.176       -1215.173          45.000    22678332.686    92863974.389        -946.881          41.000  
G13  21894652.317   115057184.546       -1013.768          40.000                                                                  
G15  23293920.585   122410410.321        1176.939          44.000    23293916.154    95384712.793         917.107          41.000  
G29  24630820.575   129435816.807       -2324.327          41.000    24630816.721   100859065.496       -1810.323          39.000  
G18  26193553.705   137648740.320        2227.617          42.000    26193548.762   107258220.837        1736.054          37.000  
G30  25196054.641   132406172.170       -1982.901          43.000    25196053.072   103173644.874       -1544.997          41.000  
> 2025 05 29 08 30 49.0070000  0  9                     
G20  23456327.951   123263815.732       -2590.378          45.000                                                                  
G07  27430640.062   144148946.783       -3319.670          41.000    27430637.701   112323861.773       -2586.584          34.000  
G11  25012562.405   131441858.302       -4279.509          42.000    25012559.519   102422208.849       -3334.587          42.000  
G05  22678569.044   119176686.613       -1215.472          44.000    22678563.914    92864921.480        -946.995          40.000  
G13  21894845.314   115058199.029       -1014.797          40.000                                                                  
G15  23293696.671   122409233.775        1176.507          44.000    23293692.217    95383796.017         916.396          41.000  
G29  24631262.913   129438141.015       -2324.721          41.000    24631259.076   100860876.579       -1811.091          39.000  
G18  26193129.783   137646512.645        2227.552          42.000    26193124.824   107256485.019        1735.779          36.000  
G30  25196432.097   132408155.537       -1983.819          43.000    25196430.490   103175190.358       -1545.642          41.000  
> 2025 05 29 08 30 50.0070000  0  9                     
G20  23456820.916   123266406.293       -2590.879          45.000                                                                  
G07  27431271.779   144152266.601       -3319.914          41.000    27431269.396   112326448.669       -2587.228          34.000  
G11  25013376.763   131446137.865       -4279.967          42.000    25013373.906   102425543.575       -3335.004          42.000  
G05  22678800.396   119177902.289       -1215.820          45.000    22678795.359    92865868.747        -947.086          40.000  
G13  21895038.467   115059214.073       -1015.392          40.000                                                                  
G15  23293472.792   122408057.601        1175.902          44.000    23293468.378    95382879.512         916.075          41.000  
G29  24631705.314   129440465.758       -2325.350          41.000    24631701.363   100862688.078       -1811.943          39.000  
G18  26192705.930   137644285.042        2227.297          42.000    26192700.944   107254749.261        1735.118          36.000  
G30  25196809.711   132410139.419       -1984.573          43.000    25196807.962   103176736.246       -1546.525          41.000  
> 2025 05 29 08 30 51.0070000  0  9                     
G20  23457314.044   123268997.220       -2591.001          45.000                                                                  
G07  27431903.601   144155586.929       -3320.732          41.000    27431901.187   112329035.915       -2587.003          34.000  
G11  25014191.304   131450417.866       -4280.146          42.000    25014188.413   102428878.630       -3334.806          42.000  
G05  22679031.770   119179118.356       -1216.157          45.000    22679026.735    92866816.330        -947.448          40.000  
G13  21895231.780   115060229.917       -1016.006          40.000                                                                  
G15  23293249.083   122406881.958        1175.325          43.000    23293244.624    95381963.418         916.013          41.000  
G29  24632147.789   129442791.236       -2325.681          41.000    24632143.928   100864500.116       -1812.070          39.000  
G18  26192282.091   137642057.709        2227.392          41.000    26192277.095   107253013.638        1735.876          36.000  
G30  25197187.336   132412123.970       -1984.813          43.000    25197185.625   103178282.654       -1546.540          41.000  
> 2025 05 29 08 30 52.0070000  0  9                     
G20  23457807.095   123271588.263       -2591.193          45.000                                                                  
G07  27432535.444   144158907.464       -3320.891          41.000    27432533.046   112331623.365       -2588.184          34.000  
G11  25015005.728   131454698.050       -4280.372          41.000    25015002.833   102432213.844       -3335.634          42.000  
G05  22679263.194   119180334.561       -1216.557          45.000    22679258.175    92867764.045        -948.031          40.000  
G13  21895425.178   115061246.230       -1016.904          40.000                                                                  
G15  23293025.315   122405706.580        1174.884          43.000    23293020.965    95381047.546         915.695          41.000  
G29  24632590.541   129445117.177       -2326.691          41.000    24632586.526   100866312.523       -1812.292          39.000  
G18  26191858.243   137639830.371        2227.236          41.000    26191853.257   107251278.055        1736.049          36.000  
G30  25197565.119   132414108.995       -1985.442          44.000    25197563.462   103179829.416       -1547.105          41.000  
> 2025 05 29 08 30 53.0070000  0  9                     
G20  23458300.114   123274179.492       -2591.019          45.000                                                                  
G07  27433167.400   144162228.323       -3320.964          41.000    27433165.081   112334211.040       -2587.954          34.000  
G11  25015820.330   131458978.475       -4280.410          42.000    25015817.444   102435549.253       -3335.538          41.000  
G05  22679494.717   119181550.976       -1216.395          45.000    22679489.636    92868711.894        -947.685          39.000  
G13  21895618.761   115062263.116       -1017.085          40.000                                                                  
G15  23292801.730   122404531.530        1175.064          43.000    23292797.359    95380131.940         915.310          40.000  
G29  24633033.216   129447443.596       -2326.785          41.000    24633029.235   100868125.347       -1812.835          38.000  
G18  26191434.309   137637603.094        2227.318          41.000    26191429.383   107249542.572        1735.473          36.000  
G30  25197943.038   132416094.489       -1985.534          44.000    25197941.384   103181376.564       -1547.372          40.000  
> 2025 05 29 08 30 54.0070000  0  9                     
G20  23458793.191   123276770.885       -2591.333          45.000                                                                  
G07  27433799.467   144165549.437       -3321.330          41.000    27433797.032   112336798.896       -2587.636          34.000  
G11  25016634.887   131463259.123       -4280.651          42.000    25016632.105   102438884.813       -3335.467          42.000  
G05  22679726.319   119182767.568       -1216.529          45.000    22679721.088    92869659.886        -947.957          40.000  
G13  21895812.379   115063280.520       -1017.546          40.000                                                                  
G15  23292578.166   122403356.817        1174.531          43.000    23292573.779    95379216.562         915.316          41.000  
G29  24633476.098   129449770.536       -2327.086          41.000    24633472.135   100869938.551       -1813.455          39.000  
G18  26191010.585   137635375.846        2227.344          41.000    26191005.503   107247807.074        1735.168          37.000  
G30  25198320.906   132418080.466       -1986.262          43.000    25198319.366   103182924.085       -1547.764          41.000  
> 2025 05 29 08 30 55.0070000  0  9                     
G20  23459286.323   123279362.467       -2591.362          45.000                                                                  
G07  27434431.533   144168870.863       -3321.468          41.000    27434429.134   112339387.048       -2588.333          34.000  
G11  25017449.431   131467540.022       -4281.075          42.000    25017446.763   102442220.563       -3335.805          39.000  
G05  22679957.942   119183984.389       -1216.857          44.000    22679952.697    92870608.044        -948.151          38.000  
G13  21896006.009   115064298.497       -1017.997          40.000                                                                  
G15  23292354.695   122402182.452        1174.104          43.000    23292350.275    95378301.456         915.220          39.000  
G29  24633919.079   129452097.986       -2327.408          41.000    24633915.033   100871752.148       -1813.699          37.000  
G18  26190586.797   137633148.670        2227.129          40.000    26190581.733   107246071.573        1735.726          35.000  
G30  25198698.918   132420066.955       -1986.764          43.000    25198697.310   103184471.992       -1548.046          38.000  
> 2025 05 29 08 30 56.0070000  0  9                     
G20  23459779.484   123281954.203       -2591.614          45.000                                                                  
G07  27435063.661   144172192.548       -3321.805          41.000    27435061.203   112341975.387       -2588.253          34.000  
G11  25018264.164   131471821.139       -4281.237          43.000    25018261.407   102445556.500       -3335.774          41.000  
G05  22680189.591   119185201.369       -1216.856          44.000    22680184.207    92871556.355        -948.116          39.000  
G13  21896199.848   115065317.023       -1018.934          40.000                                                                  
G15  23292131.241   122401008.368        1174.187          43.000    23292126.854    95377386.583         915.233          39.000  
G29  24634362.110   129454425.948       -2328.177          41.000    24634358.057   100873566.153       -1814.086          38.000  
G18  26190162.969   137630921.473        2227.463          41.000    26190157.904   107244336.144        1736.001          37.000  
G30  25199077.104   132422053.891       -1987.011          43.000    25199075.480   103186020.251       -1548.156          40.000  
> 2025 05 29 08 30 57.0070000  0  9                     
G20  23460272.562   123284546.142       -2591.709          45.000                                                                  
G07  27435695.792   144175514.561       -3321.903          41.000    27435693.358   112344563.927       -2588.362          34.000  
G11  25019078.910   131476102.507       -4281.229          43.000    25019076.189   102448892.647       -3336.242          41.000  
G05  22680421.247   119186418.597       -1217.206          44.000    22680415.878    92872504.842        -948.709          40.000  
G13  21896393.800   115066336.119       -1019.436          40.000                                                                  
G15  23291907.824   122399834.669        1173.616          43.000    23291903.470    95376472.009         914.748          40.000  
G29  24634805.188   129456754.459       -2328.873          41.000    24634801.247   100875380.570       -1814.803          38.000  
G18  26189739.178   137628694.402        2227.336          41.000    26189734.119   107242600.783        1735.464          38.000  
G30  25199455.288   132424041.362       -1987.580          43.000    25199453.631   103187568.929       -1548.732          40.000  
> 2025 05 29 08 30 58.0070000  0  9                     
G20  23460765.791   123287138.134       -2592.079          45.000                                                                  
G07  27436327.993   144178836.693       -3322.023          40.000    27436325.719   112347152.650       -2589.233          37.000  
G11  25019893.675   131480383.980       -4281.652          43.000    25019890.900   102452228.816       -3335.950          44.000  
G05  22680652.939   119187635.871       -1217.335          44.000    22680647.533    92873453.364        -948.561          42.000  
G13  21896587.737   115067355.624       -1019.413          40.000                                                                  
G15  23291684.617   122398661.125        1173.317          43.000    23291680.091    95375557.566         914.427          42.000  
G29  24635248.381   129459083.319       -2329.057          41.000    24635244.400   100877195.250       -1814.940          41.000  
G18  26189315.264   137626467.223        2227.409          40.000    26189310.217   107240865.310        1735.478          41.000  
G30  25199833.629   132426029.181       -1987.918          43.000    25199831.918   103189117.886       -1549.249          43.000  
> 2025 05 29 08 30 59.0070000  0  9                     
G20  23461259.063   123289730.386       -2592.561          44.000                                                                  
G07  27436960.227   144182159.256       -3322.881          40.000    27436957.951   112349741.625       -2589.526          35.000  
G11  25020708.480   131484665.773       -4281.915          43.000    25020705.692   102455565.302       -3336.648          43.000  
G05  22680884.695   119188853.433       -1217.688          44.000    22680879.271    92874402.122        -948.896          41.000  
G13  21896781.879   115068375.801       -1020.110          39.000                                                                  
G15  23291461.423   122397488.006        1172.913          43.000    23291456.782    95374643.481         913.842          41.000  
G29  24635691.703   129461412.797       -2329.763          42.000    24635687.699   100879010.428       -1815.804          40.000  
G18  26188891.596   137624240.206        2226.675          41.000    26188886.315   107239129.981        1735.381          40.000  
G30  25200212.048   132428017.592       -1988.901          43.000    25200210.357   103190667.287       -1549.664          41.000  
> 2025 05 29 08 31 00.0070000  0  9                     
G20  23461752.352   123292322.907       -2592.543          44.000                                                                  
G07  27437592.529   144185482.188       -3322.907          40.000    27437590.319   112352330.918       -2589.552          35.000  
G11  25021523.349   131488947.922       -4282.319          43.000    25021520.568   102458902.018       -3336.783          43.000  
G05  22681116.470   119190071.299       -1217.853          44.000    22681111.047    92875351.096        -948.858          41.000  
G13  21896976.041   115069396.633       -1020.868          39.000                                                                  
G15  23291238.205   122396315.335        1172.501          43.000    23291233.608    95373729.696         913.731          41.000  
G29  24636135.261   129463742.892       -2330.330          42.000    24636131.115   100880826.068       -1816.073          40.000  
G18  26188467.775   137622013.339        2226.732          40.000    26188462.651   107237394.748        1735.076          41.000  
G30  25200590.519   132430006.589       -1989.190          44.000    25200588.815   103192217.167       -1550.218          41.000  
> 2025 05 29 08 31 01.0070000  0  9                     
G20  23462245.680   123294915.661       -2592.976          44.000                                                                  
G07  27438224.992   144188805.441       -3323.248          40.000    27438222.658   112354920.469       -2590.074          35.000  
G11  25022338.293   131493230.338       -4282.642          43.000    25022335.487   102462238.976       -3337.277          42.000  
G05  22681348.362   119191289.411       -1218.115          44.000    22681342.904    92876300.283        -949.256          41.000  
G13  21897170.472   115070418.034       -1021.791          39.000                                                                  
G15  23291015.077   122395143.028        1172.125          43.000    23291010.373    95372816.232         913.006          41.000  
G29  24636578.752   129466073.516       -2330.958          41.000    24636574.655   100882642.148       -1816.157          39.000  
G18  26188044.017   137619786.574        2226.820          40.000    26188038.919   107235659.583        1735.182          41.000  
G30  25200969.304   132431996.122       -1989.809          44.000    25200967.332   103193767.457       -1550.751          41.000  
> 2025 05 29 08 31 02.0070000  0  9                     
G20  23462739.001   123297508.538       -2593.206          44.000                                                                  
G07  27438857.413   144192128.949       -3324.034          40.000    27438855.124   112357510.197       -2590.026          34.000  
G11  25023153.203   131497512.954       -4283.157          43.000    25023150.541   102465576.079       -3337.511          42.000  
G05  22681580.202   119192507.690       -1218.718          44.000    22681574.772    92877249.581        -949.527          40.000  
G13  21897365.025   115071439.965       -1022.518          39.000                                                                  
G15  23290792.053   122393971.004        1171.655          43.000    23290787.298    95371902.961         912.805          40.000  
G29  24637022.508   129468404.621       -2331.682          41.000    24637018.236   100884458.592       -1816.814          38.000  
G18  26187620.234   137617559.793        2226.649          40.000    26187615.228   107233924.443        1734.918          41.000  
G30  25201347.951   132433986.102       -1990.517          44.000    25201346.000   103195318.095       -1551.256          40.000  
> 2025 05 29 08 31 03.0070000  0  9                     
G20  23463232.402   123300101.925       -2593.729          44.000                                                                  
G07  27439490.085   144195453.064       -3324.278          40.000    27439487.659   112360100.431       -2590.408          34.000  
G11  25023968.351   131501796.121       -4283.502          43.000    25023965.681   102468913.595       -3337.612          42.000  
G05  22681812.194   119193726.494       -1219.099          45.000    22681806.641    92878199.299        -949.816          40.000  
G13  21897559.702   115072462.764       -1023.135          39.000                                                                  
G15  23290569.094   122392799.643        1171.092          43.000    23290564.302    95370990.201         912.615          40.000  
G29  24637466.239   129470736.557       -2332.236          42.000    24637461.996   100886275.682       -1817.615          38.000  
G18  26187196.602   137615333.401        2226.244          40.000    26187191.629   107232189.583        1734.739          41.000  
G30  25201726.910   132435976.890       -1991.004          44.000    25201724.771   103196869.349       -1551.590          40.000  
> 2025 05 29 08 31 04.0070000  0  9                     
G20  23463725.931   123302695.605       -2593.611          44.000                                                                  
G07  27440122.782   144198777.616       -3324.559          40.000    27440120.295   112362690.995       -2590.977          34.000  
G11  25024783.453   131506079.645       -4283.347          43.000    25024780.801   102472251.403       -3337.766          43.000  
G05  22682044.259   119194945.607       -1219.171          45.000    22682038.732    92879149.250        -949.673          40.000  
G13  21897754.440   115073486.248       -1023.864          39.000                                                                  
G15  23290346.347   122391628.712        1171.038          44.000    23290341.385    95370077.782         912.558          41.000  
G29  24637910.149   129473069.127       -2332.683          41.000    24637905.872   100888093.259       -1817.699          39.000  
G18  26186773.041   137613107.169        2226.515          41.000    26186767.971   107230454.860        1734.633          42.000  
G30  25202105.881   132437968.292       -1991.291          44.000    25202103.811   103198421.106       -1552.017          41.000  
> 2025 05 29 08 31 05.0070000  0  9                     
G20  23464219.382   123305289.481       -2593.938          43.000                                                                  
G07  27440755.471   144202102.457       -3324.892          40.000    27440753.132   112365281.776       -2590.716          34.000  
G11  25025598.658   131510363.440       -4284.125          42.000    25025595.915   102475589.425       -3338.404          43.000  
G05  22682276.401   119196164.936       -1219.429          45.000    22682270.808    92880099.383        -950.024          41.000  
G13  21897949.330   115074510.295       -1024.477          39.000                                                                  
G15  23290123.608   122390458.138        1170.381          44.000    23290118.594    95369165.652         912.049          41.000  
G29  24638354.027   129475402.209       -2333.120          42.000    24638349.929   100889911.247       -1818.240          39.000  
G18  26186349.413   137610881.011        2226.259          40.000    26186344.453   107228720.200        1734.438          42.000  
G30  25202484.999   132439960.219       -1992.065          44.000    25202482.813   103199973.234       -1552.209          41.000  
> 2025 05 29 08 31 06.0070000  0  9                     
G20  23464712.954   123307883.448       -2594.111          43.000                                                                  
G07  27441388.207   144205427.509       -3325.309          39.000    27441385.966   112367872.715       -2591.416          34.000  
G11  25026413.837   131514647.353       -4284.044          43.000    25026411.238   102478927.540       -3338.199          42.000  
G05  22682508.480   119197384.374       -1219.278          45.000    22682502.832    92881049.604        -950.491          40.000  
G13  21898144.294   115075534.800       -1025.058          40.000                                                                  
G15  23289900.933   122389287.813        1169.942          44.000    23289895.965    95368253.693         911.860          40.000  
G29  24638798.089   129477735.722       -2333.811          42.000    24638793.927   100891729.547       -1818.306          38.000  
G18  26185925.717   137608654.818        2226.053          41.000    26185920.946   107226985.475        1734.854          42.000  
G30  25202864.227   132441952.522       -1992.610          44.000    25202861.950   103201525.686       -1552.611          40.000  
> 2025 05 29 08 31 07.0070000  0  9                     
G20  23465206.648   123310477.612       -2594.453          44.000                                                                  
G07  27442020.988   144208752.848       -3325.359          39.000    27442018.794   112370463.902       -2591.330          31.000  
G11  25027228.985   131518931.536       -4284.386          42.000    25027226.521   102482265.851       -3338.572          40.000  
G05  22682740.574   119198604.043       -1220.023          45.000    22682734.903    92881999.971        -950.255          39.000  
G13  21898339.454   115076559.869       -1025.392          40.000                                                                  
G15  23289678.315   122388117.814        1169.686          43.000    23289673.332    95367342.030         911.443          38.000  
G29  24639242.222   129480069.775       -2334.501          42.000    24639238.049   100893548.307       -1819.257          37.000  
G18  26185502.078   137606428.714        2225.737          41.000    26185497.387   107225250.841        1734.105          40.000  
G30  25203243.485   132443945.352       -1993.212          44.000    25203241.125   103203078.546       -1553.273          39.000  
> 2025 05 29 08 31 08.0070000  0  9                     
G20  23465700.280   123313071.968       -2594.366          44.000                                                                  
G07  27442653.866   144212078.522       -3325.628          39.000    27442651.615   112373055.301       -2591.558          33.000  
G11  25028044.320   131523215.996       -4284.625          43.000    25028041.872   102485604.382       -3338.530          41.000  
G05  22682972.642   119199823.923       -1219.873          45.000    22682967.048    92882950.538        -950.630          39.000  
G13  21898534.613   115077585.534       -1025.966          40.000                                                                  
G15  23289455.615   122386948.194        1169.529          43.000    23289450.752    95366430.629         911.245          39.000  
G29  24639686.471   129482404.338       -2334.794          41.000    24639682.328   100895367.430       -1819.077          38.000  
G18  26185078.492   137604202.656        2226.049          41.000    26185073.852   107223516.248        1734.591          41.000  
G30  25203622.895   132445938.705       -1993.490          44.000    25203620.396   103204631.802       -1553.465          39.000  
> 2025 05 29 08 31 09.0070000  0  9                     
G20  23466193.979   123315666.488       -2594.486          44.000                                                                  
G07  27443286.750   144215404.482       -3326.142          39.000    27443284.547   112375646.962       -2591.939          33.000  
G11  25028859.708   131527500.641       -4284.574          43.000    25028857.143   102488943.076       -3338.899          42.000  
G05  22683204.900   119201043.999       -1220.204          45.000    22683199.198    92883901.241        -950.881          39.000  
G13  21898729.889   115078611.731       -1026.250          40.000                                                                  
G15  23289233.113   122385778.881        1169.071          44.000    23289228.236    95365519.477         910.720          39.000  
G29  24640130.778   129484739.402       -2335.189          41.000    24640126.582   100897186.973       -1819.764          38.000  
G18  26184654.879   137601976.621        2226.090          41.000    26184650.291   107221781.677        1734.722          41.000  
G30  25204002.315   132447932.519       -1994.232          45.000    25203999.808   103206185.424       -1553.860          39.000  
> 2025 05 29 08 31 10.0070000  0  9                     
G20  23466687.703   123318261.097       -2594.412          44.000                                                                  
G07  27443919.634   144218730.601       -3325.972          39.000    27443917.523   112378238.760       -2592.192          35.000  
G11  25029675.094   131531785.452       -4284.622          42.000    25029672.536   102492281.881       -3338.820          44.000  
G05  22683437.071   119202264.190       -1220.283          45.000    22683431.276    92884852.026        -950.678          42.000  
G13  21898925.200   115079638.380       -1026.683          40.000                                                                  
G15  23289010.689   122384609.787        1169.160          43.000    23289005.630    95364608.498         911.076          42.000  
G29  24640575.237   129487074.885       -2335.426          41.000    24640570.914   100899006.849       -1820.259          40.000  
G18  26184231.224   137599750.559        2226.195          41.000    26184226.750   107220047.093        1734.741          43.000  
G30  25204381.869   132449926.729       -1994.040          45.000    25204379.246   103207739.359       -1553.812          41.000  
> 2025 05 29 08 31 11.0070000  0  9                     
G20  23467181.577   123320855.832       -2594.734          44.000                                                                  
G07  27444552.566   144222056.975       -3326.555          40.000    27444550.490   112380830.737       -2591.847          34.000  
G11  25030490.624   131536070.448       -4285.283          42.000    25030488.012   102495620.817       -3339.195          43.000  
G05  22683669.291   119203484.504       -1220.448          45.000    22683663.430    92885802.925        -950.991          41.000  
G13  21899120.732   115080665.533       -1027.131          40.000                                                                  
G15  23288788.268   122383440.973        1168.683          43.000    23288783.204    95363697.746         910.496          41.000  
G29  24641019.819   129489410.822       -2336.331          42.000    24641015.367   100900827.017       -1820.300          40.000  
G18  26183807.601   137597524.482        2226.228          41.000    26183803.143   107218312.487        1734.404          43.000  
G30  25204761.391   132451921.395       -1994.793          45.000    25204758.756   103209293.641       -1554.650          41.000  
> 2025 05 29 08 31 12.0070000  0  9                     
G20  23467675.373   123323450.846       -2595.389          44.000                                                                  
G07  27445185.731   144225383.741       -3327.048          40.000    27445183.580   112383423.033       -2593.279          34.000  
G11  25031306.116   131540355.755       -4285.548          42.000    25031303.475   102498960.028       -3339.391          43.000  
G05  22683901.635   119204705.137       -1221.035          45.000    22683895.703    92886754.060        -951.419          41.000  
G13  21899316.259   115081693.344       -1028.206          40.000                                                                  
G15  23288565.884   122382272.591        1168.063          43.000    23288560.838    95362787.315         910.220          41.000  
G29  24641464.434   129491747.361       -2337.108          42.000    24641459.955   100902647.698       -1820.992          39.000  
G18  26183384.039   137595298.572        2225.742          41.000    26183379.559   107216577.998        1734.423          43.000  
G30  25205141.146   132453916.631       -1995.570          44.000    25205138.465   103210848.366       -1555.163          41.000  
> 2025 05 29 08 31 13.0070000  0  9                     
G20  23468169.378   123326046.208       -2595.549          44.000                                                                  
G07  27445818.956   144228710.979       -3327.556          40.000    27445816.695   112386015.649       -2592.802          34.000  
G11  25032121.705   131544641.501       -4286.147          42.000    25032119.027   102502299.567       -3339.712          43.000  
G05  22684134.144   119205926.144       -1221.156          45.000    22684127.992    92887705.498        -951.520          41.000  
G13  21899511.985   115082721.892       -1028.871          40.000                                                                  
G15  23288343.607   122381104.728        1167.620          44.000    23288338.601    95361877.291         909.825          41.000  
G29  24641909.199   129494084.591       -2337.428          41.000    24641904.798   100904468.915       -1821.558          39.000  
G18  26182960.558   137593072.902        2225.455          42.000    26182955.957   107214843.718        1733.981          42.000  
G30  25205521.090   132455912.562       -1996.380          44.000    25205518.212   103212403.639       -1555.443          40.000  
> 2025 05 29 08 31 14.0070000  0  9                     
G20  23468663.446   123328641.774       -2595.706          44.000                                                                  
G07  27446452.084   144232038.495       -3327.883          39.000    27446449.957   112388608.542       -2593.085          34.000  
G11  25032937.382   131548927.486       -4286.031          43.000    25032934.645   102505639.288       -3339.892          43.000  
G05  22684366.541   119207147.349       -1221.444          45.000    22684360.402    92888657.094        -951.853          41.000  
G13  21899707.760   115083750.992       -1029.423          40.000                                                                  
G15  23288121.397   122379937.196        1167.467          43.000    23288116.441    95360967.537         909.286          41.000  
G29  24642353.977   129496422.330       -2338.056          41.000    24642349.696   100906290.548       -1821.880          39.000  
G18  26182537.033   137590847.269        2225.641          42.000    26182532.419   107213109.450        1734.258          42.000  
G30  25205900.993   132457908.961       -1996.646          44.000    25205898.029   103213959.282       -1556.004          41.000  
> 2025 05 29 08 31 15.0070000  0  9                     
G20  23469157.432   123331237.559       -2595.933          44.000                                                                  
G07  27447085.400   144235366.399       -3328.113          39.000    27447083.229   112391201.707       -2593.821          34.000  
G11  25033753.174   131553213.780       -4286.609          43.000    25033750.307   102508979.256       -3340.027          43.000  
G05  22684598.955   119208368.841       -1221.654          45.000    22684592.919    92889608.898        -952.027          41.000  
G13  21899903.714   115084780.730       -1030.112          40.000                                                                  
G15  23287899.320   122378770.075        1166.829          43.000    23287894.322    95360058.067         909.330          41.000  
G29  24642799.062   129498760.673       -2338.645          41.000    24642794.619   100908112.619       -1822.258          39.000  
G18  26182113.444   137588621.783        2225.241          42.000    26182108.792   107211375.288        1734.438          42.000  
G30  25206281.035   132459905.956       -1997.407          44.000    25206278.105   103215515.371       -1556.417          41.000  
> 2025 05 29 08 31 16.0070000  0  9                     
G20  23469651.512   123333833.750       -2596.389          44.000                                                                  
G07  27447718.809   144238694.746       -3328.183          39.000    27447716.582   112393795.212       -2592.966          34.000  
G11  25034568.871   131557500.517       -4287.017          43.000    25034566.114   102512319.555       -3340.528          43.000  
G05  22684831.455   119209590.717       -1222.035          45.000    22684825.450    92890561.018        -952.383          41.000  
G13  21900099.900   115085811.206       -1030.767          41.000                                                                  
G15  23287677.297   122377603.477        1166.261          43.000    23287672.359    95359149.039         908.764          41.000  
G29  24643244.076   129501099.689       -2339.449          41.000    24643239.756   100909935.251       -1822.826          39.000  
G18  26181689.994   137586396.537        2225.233          42.000    26181685.398   107209641.349        1733.878          42.000  
G30  25206661.251   132461903.637       -1997.994          44.000    25206658.200   103217072.010       -1556.872          40.000  
> 2025 05 29 08 31 17.0070000  0  9                     
G20  23470145.602   123336430.301       -2596.964          44.000                                                                  
G07  27448352.303   144242023.605       -3329.227          39.000    27448350.046   112396389.146       -2594.046          34.000  
G11  25035384.678   131561787.661       -4287.512          43.000    25035381.966   102515660.189       -3341.113          43.000  
G05  22685064.061   119210812.985       -1222.683          45.000    22685058.098    92891513.436        -952.878          41.000  
G13  21900296.129   115086842.448       -1031.939          41.000                                                                  
G15  23287455.408   122376437.393        1165.505          43.000    23287450.361    95358240.414         907.845          41.000  
G29  24643689.250   129503439.423       -2340.439          41.000    24643684.968   100911758.415       -1823.728          39.000  
G18  26181266.585   137584171.515        2224.945          42.000    26181262.026   107207907.577        1733.377          42.000  
G30  25207041.470   132463901.959       -1998.809          44.000    25207038.465   103218629.149       -1557.354          41.000  
> 2025 05 29 08 31 18.0070000  0  9                     
G20  23470639.790   123339027.071       -2596.351          44.000                                                                  
G07  27448985.831   144245352.831       -3329.120          39.000    27448983.587   112398983.333       -2593.556          33.000  
G11  25036200.554   131566075.097       -4287.116          43.000    25036197.859   102519001.054       -3340.841          43.000  
G05  22685296.660   119212035.510       -1222.282          45.000    22685290.697    92892466.048        -952.429          40.000  
G13  21900492.454   115087874.283       -1031.752          41.000                                                                  
G15  23287233.567   122375271.683        1165.968          44.000    23287228.508    95357332.070         908.349          41.000  
G29  24644134.565   129505779.748       -2340.335          41.000    24644130.326   100913582.023       -1823.650          39.000  
G18  26180843.179   137581946.611        2225.326          41.000    26180838.644   107206173.885        1733.687          42.000  
G30  25207421.905   132465900.870       -1998.718          44.000    25207418.845   103220186.745       -1557.405          40.000  
> 2025 05 29 08 31 19.0070000  0  9                     
G20  23471134.069   123341623.963       -2597.216          44.000                                                                  
G07  27449619.441   144248682.237       -3329.552          39.000    27449617.080   112401577.698       -2594.535          34.000  
G11  25037016.411   131570362.712       -4287.824          43.000    25037013.766   102522342.041       -3341.191          43.000  
G05  22685529.451   119213258.186       -1222.884          45.000    22685523.397    92893418.789        -953.197          40.000  
G13  21900688.929   115088906.598       -1032.614          40.000                                                                  
G15  23287011.745   122374106.255        1165.196          43.000    23287006.706    95356423.935         907.937          40.000  
G29  24644580.018   129508120.511       -2341.401          40.000    24644575.684   100915405.969       -1823.878          39.000  
G18  26180419.723   137579721.717        2224.371          41.000    26180415.277   107204440.175        1733.553          41.000  
G30  25207802.367   132467900.208       -1999.734          44.000    25207799.189   103221744.664       -1558.043          41.000  
> 2025 05 29 08 31 20.0070000  0  9                     
G20  23471628.388   123344221.076       -2597.245          44.000                                                                  
G07  27450253.083   144252011.993       -3329.724          40.000    27450250.649   112404172.341       -2594.904          34.000  
G11  25037832.262   131574650.593       -4287.927          43.000    25037829.775   102525683.248       -3341.274          43.000  
G05  22685762.089   119214481.099       -1223.109          45.000    22685756.093    92894371.704        -952.998          41.000  
G13  21900885.555   115089939.514       -1032.931          40.000                                                                  
G15  23286790.032   122372941.194        1164.924          43.000    23286784.996    95355516.099         907.538          41.000  
G29  24645025.527   129510461.810       -2341.674          40.000    24645021.343   100917230.354       -1824.561          39.000  
G18  26179996.239   137577496.879        2224.687          41.000    26179991.874   107202706.551        1733.629          41.000  
G30  25208183.035   132469900.053       -2000.079          44.000    25208179.691   103223302.983       -1558.210          41.000  
> 2025 05 29 08 31 21.0070000  0  9                     
G20  23472122.686   123346818.372       -2597.299          45.000                                                                  
G07  27450886.876   144255342.062       -3330.111          40.000    27450884.356   112406767.186       -2594.804          34.000  
G11  25038648.349   131578938.753       -4288.420          42.000    25038645.833   102529024.663       -3341.578          43.000  
G05  22685994.797   119215704.242       -1223.292          45.000    22685988.901    92895324.788        -952.897          40.000  
G13  21901082.237   115090973.016       -1033.479          39.000                                                                  
G15  23286568.385   122371776.480        1164.658          43.000    23286563.378    95354608.545         907.258          40.000  
G29  24645471.281   129512803.627       -2342.110          40.000    24645467.004   100919055.172       -1825.096          39.000  
G18  26179572.886   137575272.143        2224.625          41.000    26179568.482   107200972.985        1733.286          41.000  
G30  25208563.739   132471900.428       -2000.791          44.000    25208560.369   103224861.715       -1559.056          41.000  
> 2025 05 29 08 31 22.0070000  0  9                     
G20  23472616.967   123349416.006       -2597.573          45.000                                                                  
G07  27451520.539   144258672.587       -3330.683          40.000    27451518.015   112409362.384       -2595.148          34.000  
G11  25039464.316   131583227.293       -4288.831          42.000    25039461.897   102532366.364       -3341.615          43.000  
G05  22686227.599   119216927.750       -1223.751          45.000    22686221.737    92896278.173        -953.375          40.000  
G13  21901278.991   115092007.240       -1034.613          40.000                                                                  
G15  23286346.937   122370612.249        1164.228          43.000    23286341.829    95353701.341         907.182          40.000  
G29  24645917.024   129515146.115       -2342.797          40.000    24645912.790   100920880.452       -1825.330          39.000  
G18  26179149.554   137573047.611        2224.776          41.000    26179145.120   107199239.570        1733.569          40.000  
G30  25208944.592   132473901.408       -2001.043          44.000    25208941.222   103226420.947       -1559.208          40.000  
> 2025 05 29 08 31 23.0070000  0  9                     
G20  23473111.362   123352013.844       -2597.924          44.000                                                                  
G07  27452154.258   144262003.462       -3331.370          40.000    27452151.888   112411957.859       -2595.823          34.000  
G11  25040280.351   131587516.088       -4289.106          42.000    25040278.030   102535708.293       -3342.016          43.000  
G05  22686460.448   119218151.495       -1223.896          45.000    22686454.636    92897231.754        -954.015          40.000  
G13  21901475.869   115093042.017       -1035.109          40.000                                                                  
G15  23286125.577   122369448.421        1163.406          43.000    23286120.360    95352794.453         906.748          40.000  
G29  24646362.839   129517489.140       -2343.328          40.000    24646358.675   100922706.206       -1825.793          39.000  
G18  26178726.256   137570823.171        2224.345          41.000    26178721.801   107197506.236        1733.396          40.000  
G30  25209325.485   132475902.966       -2001.956          44.000    25209322.141   103227980.571       -1560.075          40.000  
> 2025 05 29 08 31 24.0070000  0  9                     
G20  23473605.750   123354612.068       -2598.345          44.000                                                                  
G07  27452788.152   144265334.762       -3331.376          40.000    27452785.743   112414553.697       -2595.370          34.000  
G11  25041096.528   131591805.335       -4289.664          41.000    25041094.256   102539050.576       -3342.645          43.000  
G05  22686693.386   119219375.643       -1224.373          45.000    22686687.634    92898185.630        -954.146          40.000  
G13  21901672.828   115094077.547       -1035.917          40.000                                                                  
G15  23285904.258   122368285.079        1163.029          43.000    23285899.029    95351887.967         906.108          40.000  
G29  24646808.826   129519832.890       -2344.165          41.000    24646804.723   100924532.505       -1826.745          39.000  
G18  26178303.008   137568598.979        2223.675          41.000    26178298.491   107195773.128        1732.837          40.000  
G30  25209706.390   132477905.187       -2002.703          45.000    25209703.064   103229540.762       -1560.344          40.000  
> 2025 05 29 08 31 25.0070000  0  9                     
G20  23474100.176   123357210.640       -2598.905          44.000                                                                  
G07  27453422.134   144268666.539       -3331.838          39.000    27453419.748   112417149.901       -2596.449          34.000  
G11  25041912.986   131596094.959       -4289.847          41.000    25041910.534   102542393.127       -3342.612          43.000  
G05  22686926.287   119220600.134       -1224.628          45.000    22686920.568    92899139.774        -954.217          40.000  
G13  21901870.034   115095113.793       -1036.647          40.000                                                                  
G15  23285682.920   122367122.240        1162.691          44.000    23285677.665    95350981.858         905.596          40.000  
G29  24647254.905   129522177.285       -2344.812          41.000    24647250.803   100926359.298       -1827.233          40.000  
G18  26177879.787   137566374.989        2223.546          41.000    26177875.290   107194040.125        1733.060          40.000  
G30  25210087.477   132479908.063       -2003.268          45.000    25210084.163   103231101.444       -1560.833          40.000  
> 2025 05 29 08 31 26.0070000  0  9                     
G20  23474594.631   123359809.361       -2598.727          44.000                                                                  
G07  27454056.136   144271998.618       -3332.257          39.000    27454053.756   112419746.328       -2597.204          33.000  
G11  25042729.182   131600384.809       -4289.935          41.000    25042726.828   102545735.877       -3342.804          43.000  
G05  22687159.218   119221824.817       -1224.843          45.000    22687153.548    92900094.076        -954.475          40.000  
G13  21902067.339   115096150.581       -1037.017          40.000                                                                  
G15  23285461.742   122365959.713        1162.371          44.000    23285456.385    95350075.989         905.704          40.000  
G29  24647701.256   129524522.210       -2345.444          41.000    24647697.020   100928186.517       -1827.689          40.000  
G18  26177456.538   137564151.050        2223.693          41.000    26177451.950   107192307.202        1732.880          39.000  
G30  25210468.628   132481911.428       -2003.583          44.000    25210465.387   103232662.523       -1561.341          40.000  
> 2025 05 29 08 31 27.0070000  0  9                     
G20  23475089.172   123362408.294       -2599.092          44.000                                                                  
G07  27454690.229   144275330.994       -3332.620          40.000    27454687.830   112422342.952       -2596.770          33.000  
G11  25043545.473   131604674.944       -4290.491          42.000    25043543.189   102549078.828       -3343.158          43.000  
G05  22687392.329   119223049.734       -1225.242          45.000    22687386.703    92901048.550        -954.628          40.000  
G13  21902264.697   115097187.956       -1037.655          40.000                                                                  
G15  23285240.551   122364797.557        1161.745          44.000    23285235.279    95349170.399         905.455          40.000  
G29  24648147.533   129526867.650       -2346.108          41.000    24648143.367   100930014.109       -1827.761          40.000  
G18  26177033.415   137561927.221        2223.514          41.000    26177028.710   107190574.346        1732.506          39.000  
G30  25210849.912   132483915.304       -2004.149          44.000    25210846.668   103234223.979       -1561.871          40.000  
> 2025 05 29 08 31 28.0070000  0  9                     
G20  23475583.704   123365007.576       -2599.479          44.000                                                                  
G07  27455324.331   144278663.821       -3332.771          40.000    27455322.046   112424939.983       -2597.095          33.000  
G11  25044361.794   131608965.474       -4290.830          43.000    25044359.646   102552422.097       -3343.337          43.000  
G05  22687625.404   119224275.030       -1225.451          45.000    22687619.802    92902003.320        -954.705          40.000  
G13  21902462.226   115098226.066       -1038.742          40.000                                                                  
G15  23285019.521   122363635.898        1161.356          44.000    23285014.246    95348265.206         905.031          40.000  
G29  24648593.970   129529213.754       -2346.237          41.000    24648589.906   100931842.264       -1828.525          40.000  
G18  26176610.400   137559703.570        2223.657          40.000    26176605.481   107188841.626        1732.718          38.000  
G30  25211231.335   132485919.863       -2005.040          44.000    25211228.214   103235785.957       -1562.341          40.000  
> 2025 05 29 08 31 29.0070000  0  9                     
G20  23476078.340   123367607.254       -2599.795          44.000                                                                  
G07  27455958.608   144281997.175       -3333.574          40.000    27455956.330   112427537.365       -2597.234          33.000  
G11  25045178.332   131613256.433       -4291.021          42.000    25045176.133   102555765.708       -3343.547          43.000  
G05  22687858.657   119225500.721       -1225.820          45.000    22687853.019    92902958.412        -955.016          40.000  
G13  21902659.946   115099264.906       -1039.078          40.000                                                                  
G15  23284798.532   122362474.765        1160.969          44.000    23284793.345    95347360.435         904.568          40.000  
G29  24649040.543   129531560.603       -2346.898          42.000    24649036.504   100933670.966       -1828.744          39.000  
G18  26176187.390   137557480.207        2223.465          40.000    26176182.405   107187109.147        1732.367          38.000  
G30  25211613.021   132487925.088       -2005.322          44.000    25211609.811   103237348.480       -1562.593          40.000  
> 2025 05 29 08 31 30.0070000  0  9                     
G20  23476573.075   123370207.073       -2600.112          44.000                                                                  
G07  27456592.930   144285330.762       -3333.672          40.000    27456590.656   112430134.938       -2597.359          33.000  
G11  25045994.906   131617547.620       -4291.320          42.000    25045992.823   102559109.497       -3344.063          43.000  
G05  22688091.936   119226726.591       -1226.059          44.000    22688086.221    92903913.637        -955.206          40.000  
G13  21902857.696   115100304.301       -1039.702          40.000                                                                  
G15  23284577.621   122361313.939        1160.821          44.000    23284572.453    95346455.912         904.349          40.000  
G29  24649487.230   129533907.932       -2347.561          42.000    24649483.075   100935500.068       -1829.519          39.000  
G18  26175764.352   137555256.896        2223.025          40.000    26175759.301   107185376.680        1732.316          37.000  
G30  25211994.608   132489930.804       -2006.030          44.000    25211991.493   103238911.380       -1563.083          40.000  
> 2025 05 29 08 31 31.0070000  0  9                     
G20  23477067.779   123372807.092       -2600.138          44.000                                                                  
G07  27457227.402   144288664.674       -3334.008          40.000    27457225.114   112432732.835       -2598.105          33.000  
G11  25046811.602   131621839.079       -4291.646          42.000    25046809.512   102562453.464       -3343.978          43.000  
G05  22688325.158   119227952.697       -1226.444          45.000    22688319.481    92904869.056        -955.876          40.000  
G13  21903055.532   115101344.290       -1040.482          40.000                                                                  
G15  23284356.875   122360153.490        1160.132          44.000    23284351.641    95345551.664         903.862          40.000  
G29  24649933.900   129536255.787       -2348.110          42.000    24649929.980   100937329.572       -1829.836          39.000  
G18  26175341.247   137553033.613        2223.074          39.000    26175336.154   107183644.246        1732.511          37.000  
G30  25212376.350   132491937.034       -2006.522          44.000    25212373.383   103240474.682       -1563.646          40.000  
> 2025 05 29 08 31 32.0070000  0  9                     
G20  23477562.435   123375407.356       -2600.376          44.000                                                                  
G07  27457861.975   144291998.933       -3334.561          40.000    27457859.549   112435330.974       -2598.732          34.000  
G11  25047628.180   131626130.829       -4291.945          42.000    25047626.187   102565797.680       -3344.381          43.000  
G05  22688558.539   119229179.063       -1226.594          45.000    22688552.835    92905824.645        -955.675          40.000  
G13  21903253.555   115102384.859       -1040.542          40.000                                                                  
G15  23284136.076   122358993.421        1159.839          44.000    23284130.927    95344647.707         903.737          40.000  
G29  24650380.790   129538604.193       -2348.700          42.000    24650376.835   100939159.497       -1830.211          39.000  
G18  26174918.279   137550810.483        2222.635          39.000    26174913.174   107181911.957        1732.157          37.000  
G30  25212758.229   132493943.804       -2007.164          44.000    25212755.321   103242038.397       -1563.965          41.000  
> 2025 05 29 08 31 33.0070000  0  9                     
G20  23478057.304   123378007.883       -2600.691          43.000                                                                  
G07  27458496.437   144295333.570       -3334.656          39.000    27458494.077   112437929.356       -2598.596          33.000  
G11  25048444.900   131630422.868       -4292.173          42.000    25048443.028   102569142.146       -3344.666          43.000  
G05  22688791.899   119230405.700       -1226.735          44.000    22688786.317    92906780.466        -955.898          40.000  
G13  21903451.673   115103426.106       -1041.628          40.000                                                                  
G15  23283915.348   122357833.767        1159.410          43.000    23283910.281    95343744.074         903.537          40.000  
G29  24650827.690   129540953.225       -2349.372          42.000    24650823.824   100940989.888       -1830.479          39.000  
G18  26174495.324   137548587.488        2222.701          38.000    26174490.201   107180179.750        1732.534          37.000  
G30  25213140.071   132495951.151       -2007.602          44.000    25213137.344   103243602.569       -1564.539          41.000  
> 2025 05 29 08 31 34.0070000  0  9                     
G20  23478552.192   123380608.484       -2600.551          43.000                                                                  
G07  27459131.092   144298668.408       -3334.799          40.000    27459128.717   112440527.904       -2598.154          33.000  
G11  25049261.697   131634715.079       -4292.249          42.000    25049259.848   102572486.725       -3344.641          43.000  
G05  22689025.319   119231632.466       -1226.907          44.000    22689019.813    92907736.360        -955.681          40.000  
G13  21903650.124   115104467.788       -1041.792          40.000                                                                  
G15  23283694.700   122356674.353        1159.195          43.000    23283689.658    95342840.638         903.219          41.000  
G29  24651274.747   129543302.662       -2349.628          42.000    24651270.875   100942820.633       -1831.025          39.000  
G18  26174072.283   137546364.459        2222.971          38.000    26174067.190   107178447.532        1731.992          36.000  
G30  25213522.159   132497958.900       -2007.988          44.000    25213519.432   103245167.050       -1564.708          41.000  
> 2025 05 29 08 31 35.0070000  0  9                     
G20  23479047.019   123383209.333       -2601.089          44.000                                                                  
G07  27459765.698   144302003.575       -3335.138          40.000    27459763.347   112443126.754       -2598.771          33.000  
G11  25050078.523   131639007.590       -4292.896          42.000    25050076.731   102575831.519       -3345.039          43.000  
G05  22689258.732   119232859.484       -1227.289          44.000    22689253.276    92908692.494        -956.162          40.000  
G13  21903848.540   115105510.110       -1042.825          40.000                                                                  
G15  23283474.109   122355515.334        1158.589          44.000    23283469.143    95341937.509         902.767          41.000  
G29  24651721.860   129545652.674       -2350.609          42.000    24651718.035   100944651.797       -1831.505          40.000  
G18  26173649.429   137544141.519        2222.754          38.000    26173644.130   107176715.358        1732.047          36.000  
G30  25213904.455   132499967.228       -2008.830          44.000    25213901.718   103246731.963       -1565.030          41.000  
> 2025 05 29 08 31 36.0070000  0  9                     
G20  23479542.001   123385810.466       -2601.382          43.000                                                                  
G07  27460400.596   144305339.174       -3335.898          40.000    27460398.184   112445725.931       -2599.391          33.000  
G11  25050895.433   131643300.432       -4293.244          42.000    25050893.639   102579176.596       -3345.224          43.000  
G05  22689492.306   119234086.849       -1227.787          44.000    22689486.818    92909648.876        -956.582          40.000  
G13  21904046.976   115106553.067       -1043.366          40.000                                                                  
G15  23283253.634   122354356.758        1158.193          44.000    23283248.635    95341034.708         902.698          41.000  
G29  24652169.241   129548003.292       -2351.061          42.000    24652165.328   100946483.456       -1832.042          40.000  
G18  26173226.356   137541918.759        2222.600          38.000    26173221.107   107174983.380        1731.592          37.000  
G30  25214286.743   132501976.135       -2009.405          44.000    25214284.050   103248297.354       -1565.757          41.000  
> 2025 05 29 08 31 37.0070000  0  9                     
G20  23480036.985   123388411.989       -2601.703          43.000                                                                  
G07  27461035.477   144308675.250       -3336.150          40.000    27461033.011   112448325.442       -2599.588          33.000  
G11  25051712.516   131647593.717       -4293.362          42.000    25051710.631   102582521.998       -3345.516          43.000  
G05  22689725.936   119235314.593       -1227.881          43.000    22689720.411    92910605.567        -956.764          40.000  
G13  21904245.548   115107596.805       -1044.156          40.000                                                                  
G15  23283033.311   122353198.702        1157.951          44.000    23283028.283    95340132.338         902.503          41.000  
G29  24652616.692   129550354.618       -2351.439          42.000    24652612.845   100948315.652       -1832.343          40.000  
G18  26172803.468   137539696.250        2222.842          38.000    26172798.114   107173251.558        1731.553          37.000  
G30  25214669.091   132503985.727       -2009.734          44.000    25214666.471   103249863.261       -1566.004          41.000  
> 2025 05 29 08 31 38.0070000  0  9                     
G20  23480532.066   123391013.740       -2601.731          44.000                                                                  
G07  27461670.399   144312011.657       -3336.142          40.000    27461667.984   112450925.280       -2600.049          33.000  
G11  25052529.536   131651887.290       -4293.386          42.000    25052527.667   102585867.650       -3345.536          43.000  
G05  22689959.536   119236542.611       -1227.775          43.000    22689954.164    92911562.466        -956.885          40.000  
G13  21904444.275   115108641.123       -1044.483          40.000                                                                  
G15  23282813.009   122352041.053        1157.642          44.000    23282807.961    95339230.287         902.011          41.000  
G29  24653064.256   129552706.531       -2352.020          42.000    24653060.501   100950148.315       -1832.898          39.000  
G18  26172380.485   137537473.867        2222.489          39.000    26172375.200   107171519.835        1731.495          37.000  
G30  25215051.569   132505995.892       -2010.087          44.000    25215049.056   103251429.620       -1566.552          41.000  
> 2025 05 29 08 31 39.0070000  0  9                     
G20  23481027.120   123393615.557       -2602.003          44.000                                                                  
G07  27462305.257   144315348.261       -3336.874          40.000    27462302.890   112453525.180       -2599.562          33.000  
G11  25053346.657   131656180.999       -4294.039          42.000    25053344.726   102589213.384       -3345.730          43.000  
G05  22690193.209   119237770.712       -1228.100          43.000    22690187.853    92912519.432        -957.136          40.000  
G13  21904643.093   115109685.892       -1045.205          40.000                                                                  
G15  23282592.704   122350883.612        1157.200          43.000    23282587.651    95338328.381         901.706          41.000  
G29  24653511.922   129555058.831       -2352.708          42.000    24653508.057   100951981.264       -1833.080          39.000  
G18  26171957.567   137535251.383        2222.460          39.000    26171952.275   107169788.039        1731.781          38.000  
G30  25215434.181   132508006.413       -2010.893          44.000    25215431.681   103252996.279       -1567.134          41.000  
> 2025 05 29 08 31 40.0070000  0  9                     
G20  23481522.286   123396217.690       -2602.050          44.000                                                                  
G07  27462940.219   144318685.294       -3337.225          40.000    27462937.911   112456125.488       -2600.655          33.000  
G11  25054163.844   131660475.073       -4294.288          42.000    25054161.830   102592559.415       -3346.254          43.000  
G05  22690426.874   119238999.178       -1228.734          43.000    22690421.601    92913476.674        -957.530          40.000  
G13  21904841.988   115110731.376       -1045.698          39.000                                                                  
G15  23282372.597   122349726.660        1156.674          43.000    23282367.609    95337426.873         900.951          41.000  
G29  24653959.636   129557411.767       -2352.993          43.000    24653955.834   100953814.724       -1833.525          39.000  
G18  26171534.771   137533029.148        2222.064          39.000    26171529.454   107168056.407        1731.657          38.000  
G30  25215816.841   132510017.586       -2011.559          44.000    25215814.400   103254563.422       -1567.485          41.000  
> 2025 05 29 08 31 41.0070000  0  9                     
G20  23482017.546   123398820.222       -2602.538          43.000                                                                  
G07  27463575.430   144322022.812       -3337.694          40.000    27463573.096   112458726.139       -2600.616          33.000  
G11  25054981.088   131664769.605       -4294.687          42.000    25054979.125   102595905.794       -3346.583          43.000  
G05  22690660.746   119240228.052       -1229.095          43.000    22690655.433    92914434.219        -957.642          40.000  
G13  21905041.030   115111777.610       -1046.638          39.000                                                                  
G15  23282152.605   122348570.247        1156.059          43.000    23282147.618    95336525.750         900.947          41.000  
G29  24654407.592   129559765.450       -2354.151          43.000    24654403.748   100955648.760       -1834.304          39.000  
G18  26171111.915   137530807.156        2221.832          40.000    26171106.546   107166324.990        1731.759          38.000  
G30  25216199.679   132512029.452       -2012.157          44.000    25216197.249   103256131.109       -1568.165          41.000  
> 2025 05 29 08 31 42.0070000  0  9                     
G20  23482512.871   123401423.195       -2603.024          44.000                                                                  
G07  27464210.592   144325360.893       -3338.353          40.000    27464208.345   112461327.231       -2600.620          33.000  
G11  25055798.348   131669064.629       -4295.407          42.000    25055796.438   102599252.547       -3346.741          43.000  
G05  22690894.750   119241457.381       -1229.388          43.000    22690889.511    92915392.179        -958.625          40.000  
G13  21905240.341   115112824.673       -1047.446          40.000                                                                  
G15  23281932.595   122347414.426        1155.491          43.000    23281927.731    95335625.115         900.477          41.000  
G29  24654855.675   129562119.873       -2354.531          42.000    24654851.783   100957483.375       -1834.694          39.000  
G18  26170689.115   137528585.463        2221.796          40.000    26170683.730   107164593.836        1730.852          38.000  
G30  25216582.496   132514042.063       -2012.944          44.000    25216580.137   103257699.379       -1568.583          41.000  
> 2025 05 29 08 31 43.0070000  0  9                     
G20  23483008.246   123404026.432       -2603.221          44.000                                                                  
G07  27464845.924   144328699.326       -3338.292          40.000    27464843.694   112463928.661       -2601.642          33.000  
G11  25056615.735   131673359.947       -4295.346          42.000    25056613.803   102602599.568       -3347.011          43.000  
G05  22691128.726   119242686.997       -1229.559          43.000    22691123.444    92916350.293        -957.845          40.000  
G13  21905439.694   115113872.339       -1047.588          40.000                                                                  
G15  23281712.712   122346259.016        1155.436          43.000    23281707.850    95334724.791         900.406          41.000  
G29  24655303.882   129564474.900       -2354.910          42.000    24655299.914   100959318.474       -1834.819          39.000  
G18  26170266.373   137526363.913        2221.914          41.000    26170261.109   107162862.778        1730.843          39.000  
G30  25216965.493   132516055.249       -2013.132          44.000    25216963.245   103259268.100       -1569.005          41.000  
> 2025 05 29 08 31 44.0070000  0  9                     
G20  23483503.586   123406629.717       -2603.617          44.000                                                                  
G07  27465481.297   144332037.962       -3339.188          40.000    27465478.938   112466530.152       -2601.313          32.000  
G11  25057433.172   131677655.394       -4295.756          42.000    25057431.202   102605946.674       -3347.247          43.000  
G05  22691362.767   119243916.685       -1229.822          43.000    22691357.294    92917308.489        -958.301          40.000  
G13  21905639.178   115114920.472       -1048.848          40.000                                                                  
G15  23281492.777   122345103.828        1155.008          43.000    23281488.015    95333824.647         899.914          41.000  
G29  24655752.072   129566830.329       -2355.697          42.000    24655748.065   100961153.876       -1835.844          39.000  
G18  26169843.594   137524142.328        2221.304          41.000    26169838.244   107161131.642        1730.962          39.000  
G30  25217348.606   132518068.827       -2013.874          44.000    25217346.484   103260837.108       -1569.284          41.000  
> 2025 05 29 08 31 45.0070000  0  9                     
G20  23483998.999   123409233.250       -2603.688          44.000                                                                  
G07  27466116.689   144335376.929       -3339.204          40.000    27466114.281   112469131.939       -2601.937          33.000  
G11  25058250.662   131681951.164       -4296.129          41.000    25058248.700   102609294.018       -3347.590          43.000  
G05  22691596.805   119245146.663       -1230.255          44.000    22691591.349    92918266.906        -958.526          40.000  
G13  21905838.700   115115969.216       -1049.208          40.000                                                                  
G15  23281273.055   122343949.052        1154.383          44.000    23281268.263    95332924.811         899.596          41.000  
G29  24656200.379   129569186.327       -2356.503          42.000    24656196.404   100962989.709       -1836.060          39.000  
G18  26169420.786   137521920.858        2221.188          41.000    26169415.517   107159400.623        1730.771          40.000  
G30  25217731.959   132520082.963       -2014.664          44.000    25217729.701   103262406.558       -1569.590          41.000  
> 2025 05 29 08 31 46.0070000  0  9                     
G20  23484494.516   123411837.149       -2603.853          44.000                                                                  
G07  27466752.243   144338716.373       -3339.598          40.000    27466749.608   112471734.128       -2602.386          33.000  
G11  25059068.103   131686247.330       -4295.881          42.000    25059066.209   102612641.692       -3347.595          43.000  
G05  22691830.968   119246377.004       -1230.538          44.000    22691825.491    92919225.612        -958.550          40.000  
G13  21906038.476   115117018.679       -1049.347          40.000                                                                  
G15  23281053.360   122342794.769        1154.194          44.000    23281048.610    95332025.363         899.481          41.000  
G29  24656648.873   129571543.015       -2356.732          42.000    24656644.855   100964826.095       -1836.387          39.000  
G18  26168997.989   137519699.591        2221.567          41.000    26168992.760   107157669.808        1730.839          40.000  
G30  25218115.395   132522097.760       -2014.751          44.000    25218113.165   103263976.557       -1570.267          41.000  
> 2025 05 29 08 31 47.0070000  0  9                     
G20  23484990.138   123414441.183       -2604.150          44.000                                                                  
G07  27467387.694   144342056.034       -3339.770          40.000    27467385.247   112474336.431       -2601.824          32.000  
G11  25059885.582   131690543.699       -4296.418          42.000    25059883.696   102615989.501       -3348.071          43.000  
G05  22692065.076   119247607.483       -1230.505          44.000    22692059.610    92920184.455        -959.238          40.000  
G13  21906238.429   115118068.680       -1050.553          40.000                                                                  
G15  23280833.833   122341640.752        1153.945          44.000    23280829.038    95331126.148         899.029          41.000  
G29  24657097.447   129573900.142       -2357.240          42.000    24657093.319   100966662.833       -1836.861          39.000  
G18  26168575.210   137517478.358        2221.235          42.000    26168570.067   107155938.972        1730.653          41.000  
G30  25218498.819   132524112.994       -2015.476          43.000    25218496.695   103265546.856       -1570.461          41.000  
> 2025 05 29 08 31 48.0070000  0  9                     
G20  23485485.686   123417045.176       -2604.216          44.000                                                                  
G07  27468023.352   144345395.789       -3340.094          41.000    27468020.759   112476938.884       -2603.156          33.000  
G11  25060703.140   131694840.071       -4296.474          41.000    25060701.345   102619337.329       -3348.204          43.000  
G05  22692299.299   119248837.984       -1230.778          44.000    22692293.740    92921143.280        -959.233          41.000  
G13  21906438.345   115119118.989       -1050.730          40.000                                                                  
G15  23280614.206   122340486.886        1153.483          44.000    23280609.523    95330227.026         898.921          41.000  
G29  24657546.094   129576257.605       -2358.306          42.000    24657541.877   100968499.799       -1837.519          39.000  
G18  26168152.529   137515256.974        2220.987          42.000    26168147.309   107154208.018        1730.792          41.000  
G30  25218882.303   132526128.547       -2015.991          43.000    25218880.173   103267117.406       -1570.936          41.000  
> 2025 05 29 08 31 49.0070000  0  9                     
G20  23485981.300   123419649.549       -2604.768          44.000                                                                  
G07  27468658.928   144348736.049       -3340.840          40.000    27468656.411   112479541.646       -2602.793          33.000  
G11  25061520.638   131699136.906       -4296.902          41.000    25061519.048   102622685.501       -3348.404          43.000  
G05  22692533.483   119250068.866       -1231.111          44.000    22692527.951    92922102.383        -959.087          40.000  
G13  21906638.390   115120170.073       -1051.616          40.000                                                                  
G15  23280394.877   122339333.528        1153.201          44.000    23280390.121    95329328.300         898.507          41.000  
G29  24657994.819   129578615.731       -2358.320          42.000    24657990.598   100970337.321       -1837.641          39.000  
G18  26167729.822   137513035.844        2220.786          42.000    26167724.608   107152477.276        1730.790          41.000  
G30  25219266.031   132528144.766       -2016.766          43.000    25219263.828   103268688.483       -1571.375          41.000  
> 2025 05 29 08 31 50.0070000  0  9                     
G20  23486476.954   123422254.342       -2604.830          44.000                                                                  
G07  27469294.577   144352076.820       -3340.955          41.000    27469292.123   112482144.887       -2603.837          32.000  
G11  25062338.334   131703434.216       -4297.568          41.000    25062336.656   102626034.045       -3348.424          43.000  
G05  22692767.842   119251300.226       -1231.649          44.000    22692762.182    92923061.894        -959.613          40.000  
G13  21906838.557   115121221.952       -1052.109          40.000                                                                  
G15  23280175.546   122338180.762        1152.588          44.000    23280170.719    95328430.070         897.970          41.000  
G29  24658443.687   129580974.670       -2359.254          42.000    24658439.446   100972175.424       -1838.291          38.000  
G18  26167307.141   137510815.017        2220.935          42.000    26167302.123   107150746.773        1730.372          42.000  
G30  25219649.874   132530161.717       -2017.274          42.000    25219647.562   103270260.138       -1572.138          41.000  
> 2025 05 29 08 31 51.0070000  0  9                     
G20  23486972.851   123424859.558       -2605.087          44.000                                                                  
G07  27469930.346   144355418.129       -3341.313          41.000    27469927.992   112484748.483       -2604.175          32.000  
G11  25063156.137   131707731.997       -4297.925          41.000    25063154.448   102629382.966       -3348.967          43.000  
G05  22693002.194   119252532.020       -1231.971          44.000    22692996.547    92924021.722        -959.795          40.000  
G13  21907038.810   115122274.627       -1052.587          40.000                                                                  
G15  23279956.229   122337028.583        1152.000          44.000    23279951.494    95327532.256         897.665          41.000  
G29  24658892.641   129583334.338       -2359.955          42.000    24658888.459   100974014.114       -1838.632          39.000  
G18  26166884.386   137508594.488        2220.429          42.000    26166879.597   107149016.485        1730.280          42.000  
G30  25220033.717   132532179.418       -2018.001          42.000    25220031.518   103271832.360       -1572.519          41.000  
> 2025 05 29 08 31 52.0070000  0  9                     
G20  23487468.670   123427465.006       -2605.610          44.000                                                                  
G07  27470566.226   144358759.766       -3341.818          41.000    27470563.850   112487352.364       -2604.504          32.000  
G11  25063974.065   131712030.050       -4298.000          41.000    25063972.298   102632732.103       -3349.049          43.000  
G05  22693236.635   119253764.055       -1232.038          45.000    22693230.961    92924981.757        -960.072          40.000  
G13  21907239.321   115123327.937       -1053.586          40.000                                                                  
G15  23279737.018   122335876.762        1151.756          44.000    23279732.325    95326634.754         896.993          41.000  
G29  24659341.783   129585694.537       -2360.077          41.000    24659337.575   100975853.238       -1839.311          39.000  
G18  26166461.808   137506374.061        2220.345          42.000    26166457.254   107147286.294        1729.904          42.000  
G30  25220417.692   132534197.653       -2018.621          42.000    25220415.588   103273405.001       -1572.918          41.000  
> 2025 05 29 08 31 53.0070000  0  9                     
G20  23487964.468   123430070.650       -2605.787          45.000                                                                  
G07  27471202.124   144362101.731       -3342.317          41.000    27471199.818   112489956.419       -2603.044          33.000  
G11  25064792.060   131716328.380       -4298.677          41.000    25064790.279   102636081.437       -3349.554          42.000  
G05  22693471.143   119254996.342       -1232.590          45.000    22693465.428    92925941.975        -960.433          40.000  
G13  21907439.953   115124381.831       -1054.384          40.000                                                                  
G15  23279517.841   122334725.307        1151.357          43.000    23279513.266    95325737.483         897.438          41.000  
G29  24659790.971   129588055.262       -2360.852          41.000    24659786.779   100977692.785       -1840.035          39.000  
G18  26166039.251   137504153.720        2220.065          41.000    26166034.878   107145556.126        1730.366          42.000  
G30  25220801.755   132536216.379       -2019.088          42.000    25220799.673   103274978.033       -1573.062          41.000  
> 2025 05 29 08 31 54.0070000  0  9                     
G20  23488460.432   123432676.759       -2606.326          45.000                                                                  
G07  27471838.260   144365444.257       -3342.761          41.000    27471835.905   112492561.030       -2604.389          32.000  
G11  25065610.129   131720627.214       -4299.234          41.000    25065608.223   102639431.178       -3349.958          41.000  
G05  22693705.646   119256229.100       -1232.959          45.000    22693699.980    92926902.562        -960.725          40.000  
G13  21907640.695   115125436.546       -1055.239          40.000                                                                  
G15  23279298.919   122333574.486        1150.605          43.000    23279294.305    95324840.736         896.547          41.000  
G29  24660240.401   129590416.824       -2361.985          41.000    24660236.190   100979532.928       -1840.317          39.000  
G18  26165616.767   137501933.723        2219.820          42.000    26165612.426   107143826.265        1729.594          42.000  
G30  25221186.010   132538235.903       -2020.016          43.000    25221184.072   103276551.694       -1573.956          41.000  
> 2025 05 29 08 31 55.0070000  0  9                     
G20  23488956.585   123435283.239       -2606.686          45.000                                                                  
G07  27472474.455   144368787.256       -3342.652          41.000    27472472.096   112495165.995       -2606.046          32.000  
G11  25066428.224   131724926.482       -4299.345          41.000    25066426.336   102642781.247       -3350.279          42.000  
G05  22693940.385   119257462.279       -1233.098          45.000    22693934.648    92927863.471        -960.476          40.000  
G13  21907841.518   115126492.001       -1055.556          40.000                                                                  
G15  23279079.954   122332424.176        1150.222          43.000    23279075.448    95323944.400         896.327          41.000  
G29  24660689.894   129592779.057       -2362.492          41.000    24660685.700   100981373.631       -1840.790          39.000  
G18  26165194.333   137499713.937        2220.130          41.000    26165190.072   107142096.584        1729.568          42.000  
G30  25221570.376   132540256.111       -2020.240          43.000    25221568.524   103278125.878       -1574.304          41.000  
> 2025 05 29 08 31 56.0070000  0  9                     
G20  23489452.689   123437890.013       -2606.660          45.000                                                                  
G07  27473110.740   144372130.695       -3343.624          41.000    27473108.328   112497771.227       -2604.968          32.000  
G11  25067246.411   131729226.075       -4299.186          41.000    25067244.469   102646131.599       -3350.360          42.000  
G05  22694175.097   119258695.780       -1233.496          45.000    22694169.341    92928824.657        -961.330          40.000  
G13  21908042.478   115127548.145       -1056.401          40.000                                                                  
G15  23278861.162   122331274.305        1150.090          43.000    23278856.671    95323048.415         895.664          41.000  
G29  24661139.596   129595141.899       -2362.998          41.000    24661135.252   100983214.827       -1841.542          39.000  
G18  26164771.972   137497494.360        2220.031          41.000    26164767.767   107140367.035        1729.673          42.000  
G30  25221954.920   132542276.917       -2020.959          42.000    25221953.045   103279700.517       -1574.583          41.000  
> 2025 05 29 08 31 57.0070000  0  9                     
G20  23489948.839   123440497.168       -2607.484          45.000                                                                  
G07  27473747.047   144375474.601       -3344.066          40.000    27473744.589   112500376.866       -2605.706          33.000  
G11  25068064.703   131733526.147       -4300.374          41.000    25068062.702   102649482.272       -3351.005          42.000  
G05  22694409.960   119259929.676       -1234.257          45.000    22694404.087    92929786.133        -961.437          40.000  
G13  21908243.562   115128605.027       -1057.588          41.000                                                                  
G15  23278642.420   122330124.988        1148.817          43.000    23278637.947    95322152.821         895.338          41.000  
G29  24661589.321   129597505.469       -2364.198          41.000    24661585.086   100985056.542       -1841.653          39.000  
G18  26164349.552   137495275.048        2219.135          41.000    26164345.423   107138637.683        1729.334          43.000  
G30  25222339.531   132544298.434       -2022.051          42.000    25222337.738   103281275.731       -1575.483          41.000  
> 2025 05 29 08 31 58.0070000  0  9                     
G20  23490445.028   123443104.555       -2607.457          45.000                                                                  
G07  27474383.457   144378818.856       -3344.377          40.000    27474380.974   112502982.811       -2606.302          33.000  
G11  25068883.071   131737826.483       -4300.558          41.000    25068880.990   102652833.191       -3351.000          42.000  
G05  22694644.919   119261163.833       -1234.051          45.000    22694639.046    92930747.841        -961.990          40.000  
G13  21908444.783   115129662.500       -1057.631          41.000                                                                  
G15  23278423.838   122328976.040        1148.786          43.000    23278419.368    95321257.561         894.885          41.000  
G29  24662039.231   129599869.584       -2364.136          41.000    24662035.017   100986898.737       -1842.487          39.000  
G18  26163927.123   137493055.823        2219.458          40.000    26163923.087   107136908.429        1729.425          43.000  
G30  25222724.294   132546320.470       -2021.934          42.000    25222722.502   103282851.351       -1575.514          41.000  
> 2025 05 29 08 31 59.0070000  0  9                     
G20  23490941.191   123445712.086       -2607.555          45.000                                                                  
G07  27475020.009   144382163.354       -3344.566          40.000    27475017.361   112505588.843       -2605.576          32.000  
G11  25069701.439   131742127.015       -4300.538          41.000    25069699.278   102656184.267       -3351.272          42.000  
G05  22694879.711   119262398.163       -1234.259          45.000    22694873.955    92931709.635        -961.582          40.000  
G13  21908646.144   115130720.499       -1058.330          41.000                                                                  
G15  23278205.188   122327827.384        1148.773          44.000    23278200.863    95320362.493         895.127          41.000  
G29  24662489.133   129602234.178       -2364.584          41.000    24662484.974   100988741.264       -1842.435          39.000  
G18  26163504.663   137490836.630        2219.121          40.000    26163500.857   107135179.185        1729.339          42.000  
G30  25223109.076   132548342.964       -2022.536          42.000    25223107.332   103284427.334       -1576.108          41.000  
> 2025 05 29 08 32 00.0070000  0  9                     
G20  23491437.494   123448319.750       -2607.889          45.000                                                                  
G07  27475656.532   144385508.100       -3345.047          40.000    27475653.878   112508195.193       -2606.689          32.000  
G11  25070519.852   131746427.756       -4300.818          41.000    25070517.667   102659535.475       -3351.372          42.000  
G05  22695114.687   119263632.644       -1234.403          45.000    22695108.869    92932671.561        -961.809          40.000  
G13  21908847.583   115131779.018       -1058.831          41.000                                                                  
G15  23277986.496   122326679.028        1148.302          43.000    23277982.371    95319467.678         894.549          41.000  
G29  24662939.142   129604599.239       -2365.107          41.000    24662935.042   100990584.172       -1842.993          39.000  
G18  26163082.169   137488617.446        2219.357          40.000    26163078.575   107133449.943        1729.407          43.000  
G30  25223494.150   132550365.920       -2022.990          42.000    25223492.295   103286003.641       -1576.394          41.000  
> 2025 05 29 08 32 01.0070000  0  9                     
G20  23491933.829   123450927.391       -2607.683          45.000                                                                  
G07  27476293.045   144388852.950       -3344.969          40.000    27476290.369   112510801.553       -2607.342          31.000  
G11  25071338.292   131750728.512       -4300.759          41.000    25071335.982   102662886.713       -3351.297          42.000  
G05  22695349.576   119264867.145       -1234.686          45.000    22695343.806    92933633.513        -961.926          40.000  
G13  21909049.115   115132837.867       -1059.203          41.000                                                                  
G15  23277768.024   122325530.824        1148.021          44.000    23277763.858    95318572.963         894.469          41.000  
G29  24663389.203   129606964.608       -2365.314          41.000    24663385.132   100992427.319       -1843.393          39.000  
G18  26162659.767   137486398.148        2219.073          39.000    26162656.251   107131720.608        1729.342          42.000  
G30  25223879.073   132552389.163       -2023.344          42.000    25223877.354   103287580.224       -1577.038          41.000  
> 2025 05 29 08 32 02.0070000  0  9                     
G20  23492430.194   123453535.474       -2608.392          45.000                                                                  
G07  27476929.586   144392198.320       -3345.887          40.000    27476926.944   112513408.339       -2607.462          32.000  
G11  25072156.818   131755029.767       -4301.395          41.000    25072154.525   102666238.349       -3351.999          42.000  
G05  22695584.621   119266102.107       -1235.337          45.000    22695578.877    92934595.837        -962.595          40.000  
G13  21909250.773   115133897.549       -1060.173          41.000                                                                  
G15  23277549.660   122324383.187        1147.264          44.000    23277545.504    95317678.705         894.005          41.000  
G29  24663839.461   129609330.756       -2366.562          41.000    24663835.332   100994271.051       -1843.972          39.000  
G18  26162237.378   137484179.115        2219.308          39.000    26162234.059   107129991.508        1728.953          42.000  
G30  25224264.227   132554413.159       -2024.322          42.000    25224262.530   103289157.360       -1577.676          40.000  
> 2025 05 29 08 32 03.0070000  0  9                     
G20  23492926.711   123456143.874       -2608.384          45.000                                                                  
G07  27477566.393   144395544.135       -3345.981          40.000    27477563.684   112516015.405       -2606.056          31.000  
G11  25072975.317   131759331.399       -4301.759          41.000    25072973.175   102669590.256       -3352.048          42.000  
G05  22695819.666   119267337.402       -1235.209          45.000    22695813.857    92935558.401        -962.530          40.000  
G13  21909452.454   115134957.911       -1060.748          41.000                                                                  
G15  23277331.548   122323236.023        1147.115          44.000    23277327.230    95316784.812         893.654          41.000  
G29  24664289.916   129611697.556       -2367.310          40.000    24664285.736   100996115.306       -1844.585          39.000  
G18  26161815.022   137481960.305        2219.048          39.000    26161811.826   107128262.561        1728.901          42.000  
G30  25224649.554   132556437.785       -2024.847          42.000    25224647.677   103290734.977       -1577.892          41.000  
> 2025 05 29 08 32 04.0070000  0  9                     
G20  23493423.216   123458752.519       -2608.284          45.000                                                                  
G07  27478203.141   144398890.287       -3345.827          40.000    27478200.400   112518622.877       -2607.472          31.000  
G11  25073793.904   131763633.329       -4301.799          41.000    25073791.734   102672942.397       -3351.927          42.000  
G05  22696054.753   119268572.966       -1235.320          45.000    22696048.964    92936521.173        -962.493          40.000  
G13  21909654.471   115136018.904       -1061.098          42.000                                                                  
G15  23277113.339   122322089.262        1146.863          44.000    23277108.980    95315891.230         893.880          41.000  
G29  24664740.473   129614064.917       -2367.313          40.000    24664736.242   100997959.992       -1844.631          39.000  
G18  26161392.764   137479741.652        2219.111          39.000    26161389.557   107126533.706        1729.392          42.000  
G30  25225034.936   132558462.963       -2024.915          42.000    25225033.083   103292313.043       -1577.953          40.000  
> 2025 05 29 08 32 05.0070000  0  9                     
G20  23493919.673   123461361.267       -2608.960          45.000                                                                  
G07  27478839.949   144402236.669       -3346.462          40.000    27478837.155   112521230.442       -2608.270          31.000  
G11  25074612.546   131767935.407       -4302.489          41.000    25074610.307   102676294.679       -3352.543          42.000  
G05  22696289.928   119269808.645       -1235.896          45.000    22696284.093    92937484.044        -963.026          40.000  
G13  21909856.558   115137080.358       -1061.660          41.000                                                                  
G15  23276895.292   122320942.762        1146.104          44.000    23276890.884    95314997.850         892.892          41.000  
G29  24665191.079   129616432.692       -2368.240          40.000    24665186.892   100999805.011       -1845.123          39.000  
G18  26160970.637   137477522.967        2218.231          38.000    26160967.242   107124804.856        1728.639          42.000  
G30  25225420.328   132560488.568       -2026.006          41.000    25225418.533   103293891.424       -1578.586          40.000  
> 2025 05 29 08 32 06.0070000  0  9                     
G20  23494416.236   123463970.308       -2609.464          45.000                                                                  
G07  27479476.890   144405583.441       -3346.950          39.000    27479473.959   112523838.253       -2607.512          30.000  
G11  25075431.228   131772237.827       -4302.846          41.000    25075429.077   102679647.204       -3352.824          39.000  
G05  22696525.121   119271044.634       -1236.299          45.000    22696519.309    92938447.165        -963.479          38.000  
G13  21910058.707   115138142.483       -1062.494          41.000                                                                  
G15  23276677.188   122319796.682        1145.591          44.000    23276672.790    95314104.806         892.730          39.000  
G29  24665641.782   129618801.082       -2369.041          40.000    24665637.572   101001650.509       -1845.441          36.000  
G18  26160548.509   137475304.420        2218.435          38.000    26160545.013   107123076.112        1728.269          38.000  
G30  25225805.898   132562514.753       -2026.611          41.000    25225804.129   103295470.295       -1579.427          38.000  
> 2025 05 29 08 32 07.0070000  0  9                     
G20  23494912.862   123466579.846       -2609.722          45.000                                                                  
G07  27480113.906   144408930.846       -3347.940          39.000    27480110.880   112526446.669       -2608.791          30.000  
G11  25076250.028   131776540.823       -4303.345          41.000    25076247.912   102683000.188       -3353.122          41.000  
G05  22696760.383   119272281.153       -1236.676          45.000    22696754.676    92939410.679        -963.704          39.000  
G13  21910261.067   115139205.483       -1063.378          41.000                                                                  
G15  23276459.231   122318651.274        1145.188          44.000    23276454.795    95313212.275         892.485          40.000  
G29  24666092.610   129621170.326       -2369.802          40.000    24666088.516   101003496.673       -1846.312          38.000  
G18  26160126.520   137473086.279        2218.046          38.000    26160122.831   107121347.679        1728.159          40.000  
G30  25226191.483   132564541.765       -2027.237          41.000    25226189.848   103297049.782       -1579.775          39.000  
> 2025 05 29 08 32 08.0070000  0  9                     
G20  23495409.531   123469189.816       -2610.001          45.000                                                                  
G07  27480751.010   144412278.765       -3348.063          39.000    27480747.794   112529055.427       -2608.718          30.000  
G11  25077068.980   131780844.281       -4303.348          41.000    25077066.874   102686353.525       -3353.058          41.000  
G05  22696995.790   119273518.133       -1236.950          44.000    22696990.055    92940374.540        -963.579          39.000  
G13  21910463.419   115140269.279       -1063.913          41.000                                                                  
G15  23276241.346   122317506.435        1144.783          44.000    23276236.927    95312320.212         892.220          41.000  
G29  24666543.576   129623540.290       -2369.731          40.000    24666539.563   101005343.419       -1846.838          38.000  
G18  26159704.483   137470868.473        2217.644          38.000    26159700.785   107119619.475        1728.338          40.000  
G30  25226577.298   132566569.517       -2027.643          41.000    25226575.725   103298629.869       -1580.369          40.000  
> 2025 05 29 08 32 09.0070000  0  9                     
G20  23495906.168   123471799.796       -2609.957          45.000                                                                  
G07  27481388.102   144415626.802       -3348.325          39.000    27481384.634   112531664.270       -2608.224          31.000  
G11  25077887.868   131785147.826       -4303.696          41.000    25077885.816   102689706.945       -3353.522          43.000  
G05  22697231.222   119274755.139       -1237.068          44.000    22697225.488    92941338.461        -963.861          42.000  
G13  21910665.961   115141333.479       -1064.262          41.000                                                                  
G15  23276023.459   122316361.777        1144.521          44.000    23276019.162    95311428.263         891.909          43.000  
G29  24666994.697   129625910.641       -2370.552          41.000    24666990.629   101007190.418       -1847.015          40.000  
G18  26159282.474   137468650.486        2217.823          38.000    26159278.650   107117891.209        1728.147          42.000  
G30  25226963.215   132568597.616       -2028.193          40.000    25226961.534   103300210.174       -1580.545          42.000  
> 2025 05 29 08 32 10.0070000  0  9                     
G20  23496402.866   123474410.076       -2610.206          45.000                                                                  
G07  27482025.263   144418975.259       -3348.418          39.000    27482021.506   112534273.479       -2609.905          32.000  
G11  25078706.875   131789451.707       -4303.832          41.000    25078704.861   102693060.632       -3353.875          44.000  
G05  22697466.682   119275992.468       -1237.242          44.000    22697460.939    92942302.629        -964.476          42.000  
G13  21910868.583   115142398.357       -1065.097          41.000                                                                  
G15  23275805.747   122315217.577        1144.254          44.000    23275801.439    95310536.680         891.658          44.000  
G29  24667445.886   129628281.606       -2371.142          41.000    24667441.855   101009037.917       -1847.473          41.000  
G18  26158860.525   137466432.748        2217.760          38.000    26158856.651   107116163.057        1728.371          42.000  
G30  25227349.263   132570626.337       -2029.059          40.000    25227347.657   103301790.991       -1580.981          42.000  
> 2025 05 29 08 32 11.0070000  0  9                     
G20  23496899.565   123477020.602       -2610.814          45.000                                                                  
G07  27482662.631   144422324.069       -3349.241          39.000    27482658.308   112536882.919       -2609.845          31.000  
G11  25079525.891   131793755.882       -4304.519          41.000    25079523.932   102696414.532       -3354.148          42.000  
G05  22697702.162   119277230.069       -1237.663          44.000    22697696.436    92943266.979        -964.781          40.000  
G13  21911071.261   115143463.819       -1065.735          41.000                                                                  
G15  23275588.179   122314073.769        1143.403          44.000    23275583.705    95309645.405         890.940          41.000  
G29  24667897.093   129630653.138       -2372.548          41.000    24667893.245   101010885.871       -1848.328          38.000  
G18  26158438.545   137464215.064        2217.543          38.000    26158434.598   107114435.019        1727.509          39.000  
G30  25227735.318   132572655.549       -2029.675          40.000    25227733.779   103303372.209       -1581.552          40.000  
> 2025 05 29 08 32 12.0070000  0  9                     
G20  23497396.490   123479631.462       -2610.931          46.000                                                                  
G07  27483300.025   144425673.351       -3349.498          39.000    27483295.487   112539492.747       -2610.255          30.000  
G11  25080345.011   131798060.476       -4304.469          43.000    25080342.980   102699768.776       -3354.266          42.000  
G05  22697937.663   119278468.043       -1237.907          45.000    22697932.006    92944231.643        -964.660          40.000  
G13  21911274.143   115144530.042       -1066.794          41.000                                                                  
G15  23275370.608   122312930.502        1142.784          44.000    23275366.109    95308754.516         890.932          41.000  
G29  24668348.550   129633025.328       -2372.103          42.000    24668344.702   101012734.376       -1848.995          38.000  
G18  26158016.603   137461997.619        2217.600          39.000    26158012.515   107112707.165        1727.569          39.000  
G30  25228121.511   132574685.461       -2030.096          40.000    25228120.009   103304953.951       -1582.018          39.000  
> 2025 05 29 08 32 13.0070000  0  9                     
G20  23497893.419   123482242.575       -2610.823          46.000                                                                  
G07  27483937.391   144429022.957       -3349.648          39.000    27483932.751   112542102.807       -2609.810          30.000  
G11  25081164.179   131802365.410       -4305.081          42.000    25081162.185   102703123.242       -3354.583          42.000  
G05  22698173.359   119279706.274       -1238.338          45.000    22698167.605    92945196.495        -964.869          40.000  
G13  21911477.162   115145596.887       -1066.898          41.000                                                                  
G15  23275153.037   122311787.562        1143.004          44.000    23275148.506    95307863.954         890.497          40.000  
G29  24668800.034   129635398.140       -2373.105          41.000    24668796.320   101014583.286       -1849.073          38.000  
G18  26157594.795   137459780.349        2217.385          39.000    26157590.540   107110979.394        1727.771          39.000  
G30  25228507.870   132576715.929       -2030.729          40.000    25228506.434   103306536.123       -1581.927          40.000  
> 2025 05 29 08 32 14.0070000  0  9                     
G20  23498390.341   123484853.912       -2611.492          46.000                                                                  
G07  27484574.835   144432372.880       -3350.050          39.000    27484570.063   112544713.153       -2610.526          30.000  
G11  25081983.424   131806670.535       -4305.115          42.000    25081981.395   102706477.883       -3354.759          41.000  
G05  22698408.993   119280944.718       -1238.631          45.000    22698403.264    92946161.533        -965.217          40.000  
G13  21911680.349   115146664.279       -1067.714          41.000                                                                  
G15  23274935.613   122310644.995        1142.713          43.000    23274930.955    95306973.651         890.174          40.000  
G29  24669251.693   129637771.422       -2373.551          41.000    24669247.878   101016432.591       -1849.452          38.000  
G18  26157172.928   137457563.130        2217.393          40.000    26157168.584   107109251.691        1727.760          39.000  
G30  25228894.307   132578746.913       -2031.198          40.000    25228892.751   103308118.724       -1583.138          39.000  
> 2025 05 29 08 32 15.0070000  0  9                     
G20  23498887.324   123487465.423       -2611.527          46.000                                                                  
G07  27485212.374   144435723.113       -3350.572          40.000    27485207.385   112547323.769       -2611.069          30.000  
G11  25082802.713   131810975.948       -4305.668          42.000    25082800.697   102709832.758       -3355.013          41.000  
G05  22698644.719   119282183.419       -1238.862          45.000    22698638.948    92947126.748        -965.461          40.000  
G13  21911883.677   115147732.260       -1068.268          41.000                                                                  
G15  23274718.213   122309502.823        1142.022          43.000    23274713.610    95306083.626         889.847          40.000  
G29  24669703.343   129640145.274       -2374.307          41.000    24669699.609   101018282.349       -1849.949          38.000  
G18  26156750.911   137455346.016        2217.089          40.000    26156746.601   107107524.068        1727.468          38.000  
G30  25229280.829   132580778.401       -2031.613          40.000    25229279.253   103309701.702       -1583.290          40.000  
> 2025 05 29 08 32 16.0070000  0  9                     
G20  23499384.489   123490077.480       -2612.401          47.000                                                                  
G07  27485849.998   144439073.978       -3351.389          40.000    27485844.874   112549934.759       -2610.853          30.000  
G11  25083622.212   131815281.928       -4305.968          42.000    25083620.060   102713188.063       -3355.677          41.000  
G05  22698880.452   119283422.656       -1239.671          45.000    22698874.834    92948092.384        -965.931          41.000  
G13  21912087.061   115148801.134       -1069.318          41.000                                                                  
G15  23274500.965   122308361.296        1141.152          43.000    23274496.429    95305194.132         889.095          40.000  
G29  24670155.211   129642519.961       -2375.156          41.000    24670151.393   101020132.742       -1850.827          37.000  
G18  26156329.079   137453129.274        2216.429          40.000    26156324.810   107105796.732        1726.995          38.000  
G30  25229667.525   132582810.735       -2032.636          40.000    25229665.923   103311285.325       -1583.757          40.000  
> 2025 05 29 08 32 17.0070000  0  9                     
G20  23499881.650   123492689.687       -2612.180          47.000                                                                  
G07  27486487.671   144442425.130       -3351.477          40.000    27486482.502   112552546.061       -2610.772          30.000  
G11  25084441.731   131819588.153       -4306.546          42.000    25084439.408   102716543.554       -3355.712          43.000  
G05  22699116.382   119284662.078       -1239.558          45.000    22699110.674    92949058.156        -965.759          41.000  
G13  21912290.394   115149870.563       -1069.878          41.000                                                                  
G15  23274283.915   122307220.121        1140.887          42.000    23274279.270    95304304.909         888.855          42.000  
G29  24670607.209   129644895.150       -2375.493          41.000    24670603.409   101021983.551       -1851.201          39.000  
G18  26155907.257   137450912.591        2216.607          40.000    26155903.007   107104069.470        1727.175          40.000  
G30  25230054.348   132584843.565       -2033.116          40.000    25230052.710   103312869.352       -1584.543          41.000  
> 2025 05 29 08 32 18.0070000  0  9                     
G20  23500378.835   123495302.312       -2612.675          47.000                                                                  
G07  27487125.464   144445776.789       -3351.969          40.000    27487120.131   112555157.761       -2611.894          30.000  
G11  25085261.090   131823894.825       -4306.911          42.000    25085258.944   102719899.403       -3356.050          40.000  
G05  22699352.367   119285901.923       -1239.953          45.000    22699346.591    92950024.276        -966.235          38.000  
G13  21912494.050   115150940.762       -1070.433          40.000                                                                  
G15  23274066.778   122306079.481        1140.480          42.000    23274062.283    95303416.090         888.523          40.000  
G29  24671059.291   129647271.055       -2376.218          41.000    24671055.418   101023834.883       -1851.375          37.000  
G18  26155485.630   137448696.208        2216.110          40.000    26155481.215   107102342.415        1726.634          36.000  
G30  25230441.331   132586877.085       -2033.752          40.000    25230439.706   103314453.911       -1584.864          38.000  
> 2025 05 29 08 32 19.0070000  0  9                     
G20  23500876.151   123497915.243       -2613.099          47.000                                                                  
G07  27487763.470   144449128.848       -3352.071          40.000    27487757.988   112557769.727       -2611.860          30.000  
G11  25086080.876   131828201.844       -4307.214          42.000    25086078.531   102723255.517       -3356.289          41.000  
G05  22699588.454   119287142.112       -1240.431          45.000    22699582.621    92950990.651        -966.529          40.000  
G13  21912697.863   115152011.630       -1071.045          40.000                                                                  
G15  23273849.730   122304939.303        1139.892          43.000    23273845.335    95302527.627         888.284          41.000  
G29  24671511.479   129649647.594       -2376.594          41.000    24671507.672   101025686.759       -1852.183          38.000  
G18  26155063.886   137446479.977        2216.104          40.000    26155059.418   107100615.477        1726.940          38.000  
G30  25230828.400   132588911.236       -2034.562          40.000    25230826.671   103316038.960       -1585.339          39.000  
> 2025 05 29 08 32 20.0070000  0  9                     
G20  23501373.489   123500528.474       -2613.588          47.000                                                                  
G07  27488401.497   144452481.345       -3353.004          40.000    27488395.866   112560382.054       -2612.189          30.000  
G11  25086900.610   131832509.222       -4307.651          42.000    25086898.128   102726611.910       -3356.550          42.000  
G05  22699824.530   119288382.617       -1240.853          45.000    22699818.702    92951957.264        -966.805          40.000  
G13  21912901.899   115153083.188       -1072.229          41.000                                                                  
G15  23273632.867   122303799.585        1139.083          42.000    23273628.426    95301639.537         887.419          41.000  
G29  24671963.847   129652024.768       -2377.543          41.000    24671959.944   101027539.100       -1852.821          38.000  
G18  26154642.254   137444263.917        2216.024          40.000    26154637.823   107098888.724        1726.501          38.000  
G30  25231215.545   132590945.992       -2034.867          40.000    25231213.869   103317624.488       -1585.791          40.000  
> 2025 05 29 08 32 21.0070000  0  9                     
G20  23501870.846   123503141.938       -2613.424          47.000                                                                  
G07  27489039.557   144455834.155       -3352.708          39.000    27489033.782   112562994.612       -2612.534          30.000  
G11  25087720.399   131836816.899       -4307.496          42.000    25087717.878   102729968.536       -3356.443          42.000  
G05  22700060.689   119289623.381       -1240.563          45.000    22700054.817    92952924.098        -966.743          40.000  
G13  21913105.939   115154155.350       -1072.336          41.000                                                                  
G15  23273415.949   122302660.238        1139.338          43.000    23273411.638    95300751.743         887.742          41.000  
G29  24672416.209   129654402.507       -2377.772          41.000    24672412.360   101029391.871       -1852.641          38.000  
G18  26154220.648   137442048.016        2216.272          41.000    26154216.242   107097162.036        1727.082          38.000  
G30  25231602.806   132592981.313       -2035.428          40.000    25231601.210   103319210.439       -1586.106          40.000  
> 2025 05 29 08 32 22.0070000  0  9                     
G20  23502368.246   123505755.437       -2613.503          47.000                                                                  
G07  27489677.640   144459187.118       -3352.986          40.000    27489671.704   112565607.353       -2613.535          31.000  
G11  25088540.181   131841124.658       -4307.867          42.000    25088537.596   102733325.245       -3356.917          43.000  
G05  22700296.903   119290864.214       -1240.858          45.000    22700290.882    92953890.972        -966.760          42.000  
G13  21913310.048   115155227.913       -1072.927          41.000                                                                  
G15  23273199.179   122301521.096        1139.191          43.000    23273194.825    95299864.093         887.577          42.000  
G29  24672868.743   129656780.603       -2377.898          41.000    24672864.923   101031244.937       -1852.971          40.000  
G18  26153798.925   137439832.018        2216.174          41.000    26153794.771   107095435.302        1726.977          39.000  
G30  25231990.144   132595016.978       -2035.806          41.000    25231988.615   103320796.668       -1586.418          41.000  
> 2025 05 29 08 32 23.0070000  0  9                     
G20  23502865.672   123508369.030       -2613.647          47.000                                                                  
G07  27490315.818   144462540.284       -3353.361          40.000    27490309.903   112568220.170       -2613.185          31.000  
G11  25089360.005   131845432.562       -4308.005          42.000    25089357.387   102736682.050       -3357.087          42.000  
G05  22700532.990   119292105.154       -1241.238          45.000    22700527.076    92954857.954        -967.195          41.000  
G13  21913514.235   115156300.939       -1073.596          41.000                                                                  
G15  23272982.527   122300382.204        1138.581          43.000    23272978.125    95298976.654         887.111          41.000  
G29  24673321.320   129659159.140       -2378.960          42.000    24673317.531   101033098.341       -1853.802          39.000  
G18  26153377.293   137437615.995        2215.792          41.000    26153373.171   107093708.543        1726.479          38.000  
G30  25232377.591   132597053.040       -2036.381          41.000    25232376.062   103322383.216       -1586.887          41.000  
> 2025 05 29 08 32 24.0070000  0  9                     
G20  23503363.035   123510983.036       -2614.131          47.000                                                                  
G07  27490954.068   144465893.949       -3353.827          40.000    27490948.101   112570833.427       -2612.634          31.000  
G11  25090179.898   131849740.930       -4308.315          42.000    25090177.252   102740039.214       -3357.383          42.000  
G05  22700769.182   119293346.515       -1241.529          45.000    22700763.344    92955825.233        -967.378          41.000  
G13  21913718.570   115157374.749       -1074.082          41.000                                                                  
G15  23272765.893   122299243.866        1138.200          43.000    23272761.520    95298089.630         886.834          41.000  
G29  24673774.115   129661538.376       -2379.550          41.000    24673770.271   101034952.305       -1854.330          39.000  
G18  26152955.718   137435400.255        2215.583          41.000    26152951.608   107091981.981        1726.666          39.000  
G30  25232765.250   132599089.825       -2037.258          41.000    25232763.679   103323970.311       -1587.456          41.000  
> 2025 05 29 08 32 25.0070000  0  9                     
G20  23503860.600   123513597.328       -2614.447          47.000                                                                  
G07  27491592.296   144469248.035       -3354.174          40.000    27491586.266   112573446.991       -2613.485          31.000  
G11  25090999.972   131854049.661       -4308.958          42.000    25090997.188   102743396.646       -3357.432          42.000  
G05  22701005.480   119294588.199       -1241.853          45.000    22700999.696    92956792.783        -967.547          41.000  
G13  21913922.984   115158449.244       -1074.786          41.000                                                                  
G15  23272549.294   122298105.995        1137.623          43.000    23272544.998    95297202.978         886.396          41.000  
G29  24674226.981   129663918.257       -2379.983          41.000    24674223.162   101036806.742       -1854.839          38.000  
G18  26152534.045   137433184.691        2215.183          41.000    26152530.051   107090255.587        1726.582          38.000  
G30  25233152.896   132601127.224       -2037.841          41.000    25233151.394   103325557.892       -1587.867          40.000  
> 2025 05 29 08 32 26.0070000  0  9                     
G20  23504358.104   123516211.980       -2614.927          47.000                                                                  
G07  27492230.709   144472602.547       -3354.367          40.000    27492224.486   112576060.922       -2614.153          31.000  
G11  25091819.934   131858358.759       -4309.143          42.000    25091817.145   102746754.395       -3357.673          42.000  
G05  22701241.834   119295830.244       -1242.046          45.000    22701236.113    92957760.615        -967.852          41.000  
G13  21914127.559   115159524.446       -1075.501          41.000                                                                  
G15  23272332.801   122296968.590        1137.166          43.000    23272328.558    95296316.692         886.182          41.000  
G29  24674679.928   129666298.783       -2380.725          41.000    24674676.138   101038661.696       -1855.263          38.000  
G18  26152112.611   137430969.348        2215.148          40.000    26152108.598   107088529.365        1725.698          39.000  
G30  25233540.703   132603165.248       -2037.971          40.000    25233539.154   103327145.972       -1588.213          40.000  
> 2025 05 29 08 32 27.0070000  0  9                     
G20  23504855.578   123518826.706       -2614.702          47.000                                                                  
G07  27492869.100   144475957.294       -3354.523          40.000    27492862.997   112578674.989       -2614.008          31.000  
G11  25092639.984   131862668.020       -4309.010          42.000    25092637.268   102750112.260       -3357.578          41.000  
G05  22701478.169   119297072.411       -1242.094          45.000    22701472.446    92958728.533        -967.925          41.000  
G13  21914332.205   115160600.110       -1075.754          41.000                                                                  
G15  23272116.448   122295831.457        1137.069          43.000    23272112.176    95295430.603         886.284          40.000  
G29  24675132.984   129668679.753       -2381.037          41.000    24675129.149   101040516.997       -1855.489          38.000  
G18  26151691.135   137428753.989        2215.333          40.000    26151687.094   107086803.085        1726.826          39.000  
G30  25233928.508   132605203.707       -2038.357          40.000    25233927.014   103328734.376       -1588.611          40.000  
> 2025 05 29 08 32 28.0070000  0  9                     
G20  23505353.250   123521441.717       -2615.344          47.000                                                                  
G07  27493507.588   144479312.443       -3355.654          39.000    27493501.387   112581289.387       -2615.740          30.000  
G11  25093460.036   131866977.600       -4309.807          42.000    25093457.417   102753470.390       -3358.316          41.000  
G05  22701714.737   119298314.879       -1242.788          45.000    22701708.957    92959696.679        -968.299          39.000  
G13  21914537.129   115161676.446       -1076.947          40.000                                                                  
G15  23271900.202   122294694.767        1136.046          43.000    23271895.825    95294544.872         885.316          40.000  
G29  24675586.143   129671061.312       -2381.908          41.000    24675582.373   101042372.752       -1856.021          38.000  
G18  26151269.583   137426538.776        2214.770          40.000    26151265.529   107085076.936        1726.304          39.000  
G30  25234316.553   132607242.748       -2039.593          40.000    25234315.038   103330323.231       -1589.106          40.000  
> 2025 05 29 08 32 29.0070000  0  9                     
G20  23505850.912   123524057.204       -2615.991          47.000                                                                  
G07  27494146.241   144482668.138       -3356.340          39.000    27494140.022   112583904.168       -2614.712          30.000  
G11  25094280.311   131871287.726       -4310.702          42.000    25094277.596   102756828.910       -3358.764          41.000  
G05  22701951.310   119299557.839       -1243.326          45.000    22701945.543    92960665.237        -969.041          40.000  
G13  21914742.119   115162753.605       -1077.578          40.000                                                                  
G15  23271683.966   122293558.654        1135.848          43.000    23271679.675    95293659.587         885.101          40.000  
G29  24676039.492   129673443.663       -2382.456          41.000    24676035.697   101044229.147       -1856.798          38.000  
G18  26150848.107   137424323.919        2214.439          40.000    26150844.119   107083351.117        1725.186          39.000  
G30  25234704.694   132609282.559       -2040.006          40.000    25234703.167   103331912.693       -1589.956          40.000  
> 2025 05 29 08 32 30.0070000  0  9                     
G20  23506348.593   123526673.054       -2616.047          47.000                                                                  
G07  27494784.973   144486024.287       -3356.264          39.000    27494778.744   112586519.389       -2615.587          30.000  
G11  25095100.549   131875598.265       -4310.649          43.000    25095097.861   102760187.768       -3359.009          41.000  
G05  22702187.930   119300801.212       -1243.704          45.000    22702182.217    92961634.079        -968.736          40.000  
G13  21914947.250   115163831.519       -1078.421          40.000                                                                  
G15  23271467.828   122292423.088        1135.389          43.000    23271463.472    95292774.768         884.375          40.000  
G29  24676492.865   129675826.739       -2383.390          41.000    24676489.107   101046086.077       -1857.418          37.000  
G18  26150426.776   137422109.298        2214.523          40.000    26150422.668   107081625.424        1725.570          40.000  
G30  25235093.008   132611323.066       -2040.693          40.000    25235091.449   103333502.698       -1590.035          40.000  
> 2025 05 29 08 32 31.0070000  0  9                     
G20  23506846.346   123529289.115       -2616.069          47.000                                                                  
G07  27495423.622   144489380.809       -3356.714          39.000    27495417.461   112589134.834       -2615.110          30.000  
G11  25095920.910   131879909.066       -4310.642          43.000    25095918.163   102763546.841       -3359.091          40.000  
G05  22702424.590   119302044.792       -1243.433          45.000    22702418.868    92962603.115        -968.964          39.000  
G13  21915152.538   115164910.011       -1078.777          40.000                                                                  
G15  23271251.808   122291287.900        1135.213          43.000    23271247.534    95291890.208         884.090          39.000  
G29  24676946.243   129678210.330       -2383.952          41.000    24676942.680   101047943.388       -1857.258          37.000  
G18  26150005.330   137419894.776        2214.854          40.000    26150001.176   107079899.827        1725.727          40.000  
G30  25235481.410   132613364.109       -2041.424          40.000    25235479.829   103335093.109       -1590.577          38.000  
> 2025 05 29 08 32 32.0070000  0  9                     
G20  23507344.166   123531905.439       -2616.266          47.000                                                                  
G07  27496062.385   144492737.653       -3357.152          39.000    27496056.340   112591750.568       -2615.742          30.000  
G11  25096741.368   131884220.184       -4311.176          42.000    25096738.483   102766906.143       -3359.340          42.000  
G05  22702661.282   119303288.679       -1243.791          45.000    22702655.623    92963572.380        -969.535          42.000  
G13  21915357.943   115165989.138       -1079.475          40.000                                                                  
G15  23271035.922   122290153.121        1134.527          43.000    23271031.641    95291005.946         884.093          42.000  
G29  24677399.992   129680594.490       -2384.283          41.000    24677396.281   101049801.209       -1858.210          39.000  
G18  26149583.908   137417680.411        2214.361          40.000    26149579.721   107078174.342        1725.719          43.000  
G30  25235869.916   132615405.711       -2041.589          40.000    25235868.381   103336683.974       -1591.212          42.000  
> 2025 05 29 08 32 33.0070000  0  9                     
G20  23507842.085   123534522.032       -2616.753          46.000                                                                  
G07  27496701.189   144496094.895       -3357.823          39.000    27496695.252   112594366.586       -2616.017          31.000  
G11  25097561.949   131888531.623       -4311.689          42.000    25097558.919   102770265.711       -3359.904          42.000  
G05  22702898.085   119304532.860       -1244.564          45.000    22702892.440    92964541.844        -969.581          41.000  
G13  21915563.411   115167068.896       -1080.116          40.000                                                                  
G15  23270820.124   122289018.763        1133.885          43.000    23270815.732    95290122.033         883.665          41.000  
G29  24677853.775   129682979.273       -2385.115          41.000    24677850.031   101051659.477       -1858.806          39.000  
G18  26149162.589   137415466.178        2214.132          40.000    26149158.536   107076448.962        1725.247          42.000  
G30  25236258.632   132617447.888       -2042.655          40.000    25236256.938   103338275.264       -1591.448          41.000  
> 2025 05 29 08 32 34.0070000  0  9                     
G20  23508339.957   123537138.861       -2616.761          46.000                                                                  
G07  27497340.251   144499452.463       -3357.712          39.000    27497334.149   112596982.926       -2617.101          31.000  
G11  25098382.390   131892843.355       -4311.824          43.000    25098379.477   102773625.512       -3360.208          42.000  
G05  22703134.923   119305777.291       -1244.526          45.000    22703129.310    92965511.544        -969.985          41.000  
G13  21915768.969   115168149.300       -1080.674          41.000                                                                  
G15  23270604.418   122287884.798        1133.783          43.000    23270599.938    95289238.431         883.400          41.000  
G29  24678307.575   129685364.628       -2385.602          41.000    24678303.801   101053518.184       -1858.882          39.000  
G18  26148741.337   137413252.100        2213.938          40.000    26148737.259   107074723.707        1725.054          43.000  
G30  25236647.292   132619490.621       -2043.687          40.000    25236645.691   103339867.007       -1592.018          40.000  
> 2025 05 29 08 32 35.0070000  0  9                     
G20  23508838.034   123539756.003       -2617.269          47.000                                                                  
G07  27497979.265   144502810.470       -3358.405          39.000    27497973.253   112599599.558       -2617.709          31.000  
G11  25099203.005   131897155.443       -4312.265          43.000    25099200.157   102776985.566       -3360.302          42.000  
G05  22703371.849   119307022.057       -1244.941          45.000    22703366.174    92966481.488        -970.106          41.000  
G13  21915974.586   115169230.364       -1081.560          41.000                                                                  
G15  23270388.624   122286751.304        1133.221          43.000    23270384.298    95288355.205         882.820          41.000  
G29  24678761.604   129687750.603       -2386.335          41.000    24678757.677   101055377.383       -1859.444          39.000  
G18  26148320.090   137411038.179        2213.873          40.000    26148315.940   107072998.574        1724.968          43.000  
G30  25237036.167   132621533.965       -2043.654          40.000    25237034.478   103341459.232       -1592.545          40.000  
> 2025 05 29 08 32 36.0070000  0  9                     
G20  23509336.044   123542373.275       -2617.155          46.000                                                                  
G07  27498618.246   144506168.703       -3358.521          39.000    27498612.216   112602216.331       -2616.599          31.000  
G11  25100023.697   131901467.717       -4312.051          43.000    25100020.781   102780345.770       -3360.063          41.000  
G05  22703608.772   119308266.996       -1245.176          45.000    22703603.077    92967451.560        -969.970          41.000  
G13  21916180.524   115170311.939       -1081.797          41.000                                                                  
G15  23270173.002   122285618.102        1133.065          43.000    23270168.644    95287472.169         882.974          41.000  
G29  24679215.730   129690137.047       -2386.643          42.000    24679211.715   101057236.953       -1859.411          39.000  
G18  26147898.762   137408824.277        2214.295          40.000    26147894.718   107071273.477        1724.707          43.000  
G30  25237425.015   132623577.781       -2044.251          40.000    25237423.403   103343051.808       -1592.789          40.000  
> 2025 05 29 08 32 37.0070000  0  9                     
G20  23509834.131   123544990.946       -2617.982          46.000                                                                  
G07  27499257.418   144509527.436       -3359.003          39.000    27499251.372   112604833.501       -2616.887          30.000  
G11  25100844.343   131905780.434       -4312.485          43.000    25100841.435   102783706.357       -3360.826          41.000  
G05  22703845.749   119309512.374       -1245.483          45.000    22703840.076    92968421.973        -970.830          41.000  
G13  21916386.554   115171394.274       -1082.767          40.000                                                                  
G15  23269957.448   122284485.423        1132.483          43.000    23269953.117    95286589.571         882.713          41.000  
G29  24679670.018   129692524.223       -2387.726          41.000    24679665.975   101059097.056       -1860.166          39.000  
G18  26147477.546   137406610.619        2213.557          41.000    26147473.522   107069548.564        1724.721          43.000  
G30  25237814.070   132625622.282       -2045.063          41.000    25237812.523   103344644.906       -1593.313          40.000  
> 2025 05 29 08 32 38.0070000  0  9                     
G20  23510332.336   123547608.869       -2618.030          46.000                                                                  
G07  27499896.557   144512886.512       -3358.861          39.000    27499890.650   112607451.030       -2618.282          31.000  
G11  25101665.021   131910093.469       -4313.036          43.000    25101662.220   102787067.158       -3361.004          41.000  
G05  22704082.761   119310758.020       -1245.444          45.000    22704077.168    92969392.600        -970.648          41.000  
G13  21916592.595   115172477.245       -1082.858          40.000                                                                  
G15  23269742.006   122283353.175        1132.319          42.000    23269737.639    95285707.299         882.017          41.000  
G29  24680124.440   129694911.961       -2387.878          42.000    24680120.328   101060957.633       -1860.930          39.000  
G18  26147056.301   137404397.177        2213.596          40.000    26147052.348   107067823.758        1724.851          44.000  
G30  25238203.246   132627667.340       -2045.611          41.000    25238201.715   103346238.473       -1593.665          40.000  
> 2025 05 29 08 32 39.0070000  0  9                     
G20  23510830.407   123550226.902       -2618.029          47.000                                                                  
G07  27500535.846   144516245.843       -3359.193          40.000    27500529.885   112610068.630       -2617.602          31.000  
G11  25102485.760   131914406.661       -4313.140          43.000    25102482.903   102790428.082       -3361.009          41.000  
G05  22704319.762   119312003.823       -1245.973          45.000    22704314.276    92970363.338        -970.596          40.000  
G13  21916798.732   115173560.727       -1083.892          41.000                                                                  
G15  23269526.523   122282221.201        1131.676          42.000    23269522.236    95284825.239         881.979          41.000  
G29  24680578.996   129697300.140       -2388.331          42.000    24680574.874   101062818.572       -1861.312          39.000  
G18  26146635.018   137402183.692        2213.480          41.000    26146631.219   107066098.953        1724.906          44.000  
G30  25238592.568   132629712.802       -2045.509          41.000    25238590.983   103347832.355       -1594.025          40.000  
> 2025 05 29 08 32 40.0070000  0  9                     
G20  23511328.696   123552845.180       -2618.392          47.000                                                                  
G07  27501175.202   144519605.493       -3359.615          40.000    27501169.267   112612686.547       -2618.169          30.000  
G11  25103306.527   131918720.156       -4313.630          42.000    25103303.662   102793789.249       -3361.421          41.000  
G05  22704556.813   119313249.837       -1246.016          46.000    22704551.390    92971334.267        -970.837          40.000  
G13  21917005.040   115174644.778       -1084.265          41.000                                                                  
G15  23269311.119   122281089.601        1131.625          41.000    23269306.882    95283943.479         881.367          41.000  
G29  24681033.660   129699688.872       -2388.932          42.000    24681029.472   101064679.879       -1861.017          39.000  
G18  26146213.952   137399970.317        2213.287          40.000    26146210.174   107064374.231        1724.847          44.000  
G30  25238981.945   132631758.844       -2046.032          41.000    25238980.312   103349426.668       -1594.549          40.000  
> 2025 05 29 08 32 41.0070000  0  9                     
G20  23511826.843   123555463.520       -2618.545          47.000                                                                  
G07  27501814.530   144522965.337       -3360.072          40.000    27501808.853   112615304.601       -2618.423          31.000  
G11  25104127.213   131923033.768       -4314.087          42.000    25104124.463   102797150.505       -3361.740          41.000  
G05  22704793.956   119314495.992       -1246.511          45.000    22704788.512    92972305.274        -970.933          41.000  
G13  21917211.502   115175729.323       -1085.137          41.000                                                                  
G15  23269095.745   122279958.257        1131.194          41.000    23269091.563    95283061.882         881.634          41.000  
G29  24681488.398   129702078.013       -2389.484          42.000    24681484.211   101066541.549       -1861.509          39.000  
G18  26145792.906   137397756.891        2213.371          40.000    26145789.077   107062649.477        1724.609          44.000  
G30  25239371.412   132633805.288       -2046.648          41.000    25239369.739   103351021.293       -1595.186          41.000  
> 2025 05 29 08 32 42.0070000  0  9                     
G20  23512325.085   123558082.156       -2619.092          47.000                                                                  
G07  27502453.981   144526325.564       -3360.727          39.000    27502448.323   112617922.951       -2618.633          30.000  
G11  25104948.064   131927347.702       -4314.300          42.000    25104945.293   102800512.010       -3362.156          41.000  
G05  22705031.113   119315742.407       -1246.724          45.000    22705025.710    92973276.537        -971.596          40.000  
G13  21917418.042   115176814.474       -1085.640          41.000                                                                  
G15  23268880.564   122278827.317        1130.591          41.000    23268876.311    95282180.648         880.786          41.000  
G29  24681943.216   129704467.758       -2390.439          42.000    24681939.011   101068403.701       -1862.639          39.000  
G18  26145371.710   137395543.621        2212.972          40.000    26145368.040   107060924.857        1724.322          44.000  
G30  25239760.934   132635852.322       -2047.907          41.000    25239759.246   103352616.354       -1595.499          40.000  
> 2025 05 29 08 32 43.0070000  0  9                     
G20  23512823.498   123560701.087       -2619.041          46.000                                                                  
G07  27503093.631   144529686.201       -3360.960          39.000    27503088.033   112620541.612       -2618.500          31.000  
G11  25105769.223   131931662.006       -4314.241          42.000    25105766.432   102803873.813       -3362.144          41.000  
G05  22705268.378   119316989.184       -1247.084          45.000    22705262.930    92974248.045        -971.613          40.000  
G13  21917624.673   115177900.329       -1086.214          41.000                                                                  
G15  23268665.390   122277696.864        1130.260          41.000    23268661.221    95281299.761         880.939          41.000  
G29  24682398.175   129706858.134       -2390.749          42.000    24682393.935   101070266.340       -1863.201          39.000  
G18  26144950.635   137393330.554        2213.204          41.000    26144946.933   107059200.397        1724.295          44.000  
G30  25240150.611   132637899.945       -2048.132          41.000    25240148.809   103354211.921       -1595.888          41.000  
> 2025 05 29 08 32 44.0070000  0  9                     
G20  23513321.971   123563320.490       -2619.899          46.000                                                                  
G07  27503733.318   144533047.391       -3361.621          40.000    27503727.808   112623160.757       -2619.297          31.000  
G11  25106590.320   131935976.826       -4315.143          42.000    25106587.547   102807235.997       -3362.271          41.000  
G05  22705505.776   119318236.412       -1247.505          45.000    22705500.265    92975219.925        -972.188          41.000  
G13  21917831.436   115178987.006       -1087.050          41.000                                                                  
G15  23268450.386   122276566.991        1129.529          41.000    23268446.281    95280419.365         880.140          41.000  
G29  24682853.281   129709249.271       -2391.600          42.000    24682848.987   101072129.565       -1863.658          39.000  
G18  26144529.539   137391117.833        2212.419          41.000    26144525.938   107057476.200        1723.922          44.000  
G30  25240540.413   132639948.358       -2048.968          41.000    25240538.592   103355808.080       -1596.465          41.000  
> 2025 05 29 08 32 45.0070000  0  9                     
G20  23513820.408   123565940.189       -2619.747          46.000                                                                  
G07  27504373.069   144536408.992       -3361.807          39.000    27504367.647   112625780.252       -2621.350          31.000  
G11  25107411.434   131940292.005       -4315.426          42.000    25107408.612   102810598.457       -3362.451          41.000  
G05  22705743.238   119319483.977       -1247.793          45.000    22705737.671    92976192.054        -972.224          41.000  
G13  21918038.434   115180074.365       -1087.872          40.000                                                                  
G15  23268235.485   122275437.604        1129.217          42.000    23268231.383    95279539.318         879.767          41.000  
G29  24683308.437   129711641.026       -2392.076          42.000    24683304.118   101073993.271       -1863.963          39.000  
G18  26144108.590   137388905.274        2212.433          41.000    26144104.878   107055752.129        1723.962          44.000  
G30  25240930.333   132641997.373       -2049.293          41.000    25240928.506   103357404.708       -1596.923          41.000  
> 2025 05 29 08 32 46.0070000  0  9                     
G20  23514318.919   123568560.129       -2619.919          46.000                                                                  
G07  27505012.861   144539770.960       -3362.251          39.000    27505007.875   112628399.893       -2619.591          32.000  
G11  25108232.643   131944607.454       -4315.236          42.000    25108229.897   102813961.162       -3362.818          42.000  
G05  22705980.669   119320731.792       -1247.616          45.000    22705975.167    92977164.389        -972.499          41.000  
G13  21918245.374   115181162.329       -1088.114          40.000                                                                  
G15  23268020.669   122274308.584        1129.247          42.000    23268016.500    95278659.566         879.940          41.000  
G29  24683763.655   129714033.398       -2392.427          42.000    24683759.289   101075857.441       -1864.338          39.000  
G18  26143687.522   137386692.827        2212.582          41.000    26143683.884   107054028.145        1724.164          44.000  
G30  25241320.372   132644046.951       -2049.617          41.000    25241318.557   103359001.768       -1597.206          41.000  
> 2025 05 29 08 32 47.0070000  0  9                     
G20  23514817.473   123571180.263       -2620.129          46.000                                                                  
G07  27505652.653   144543133.190       -3362.393          39.000    27505648.075   112631019.789       -2619.093          31.000  
G11  25109053.894   131948923.170       -4315.835          42.000    25109051.037   102817324.028       -3362.759          42.000  
G05  22706218.036   119321979.832       -1247.899          45.000    22706212.674    92978136.870        -972.393          41.000  
G13  21918452.421   115182250.862       -1088.818          40.000                                                                  
G15  23267805.844   122273179.931        1128.590          42.000    23267801.712    95277780.096         879.321          41.000  
G29  24684219.082   129716426.259       -2393.049          42.000    24684214.529   101077722.001       -1864.783          39.000  
G18  26143266.504   137384480.479        2212.533          42.000    26143263.012   107052304.246        1723.955          44.000  
G30  25241710.570   132646097.006       -2050.040          41.000    25241708.719   103360599.229       -1597.705          41.000  
> 2025 05 29 08 32 48.0070000  0  9                     
G20  23515316.086   123573800.799       -2620.734          46.000                                                                  
G07  27506292.594   144546495.933       -3362.934          39.000    27506288.383   112633640.159       -2620.387          31.000  
G11  25109875.108   131953239.344       -4316.838          42.000    25109872.352   102820687.290       -3363.480          40.000  
G05  22706455.604   119323228.313       -1248.866          45.000    22706450.312    92979109.702        -972.999          41.000  
G13  21918659.709   115183340.180       -1089.890          40.000                                                                  
G15  23267591.224   122272051.839        1127.952          42.000    23267586.962    95276901.062         878.739          41.000  
G29  24684674.631   129718819.844       -2394.124          42.000    24684669.979   101079587.127       -1865.421          39.000  
G18  26142845.639   137382268.417        2211.849          41.000    26142842.071   107050580.556        1723.435          43.000  
G30  25242100.842   132648147.821       -2051.280          41.000    25242099.126   103362197.265       -1598.667          41.000  
> 2025 05 29 08 32 49.0070000  0  9                     
G20  23515814.851   123576421.851       -2621.228          46.000                                                                  
G07  27506932.546   144549859.302       -3363.488          39.000    27506928.868   112636260.964       -2621.245          32.000  
G11  25110696.580   131957556.054       -4317.020          42.000    25110693.828   102824050.972       -3363.826          41.000  
G05  22706693.297   119324477.280       -1248.943          45.000    22706687.951    92980082.936        -973.471          41.000  
G13  21918867.199   115184430.358       -1090.495          40.000                                                                  
G15  23267376.731   122270924.424        1127.156          42.000    23267372.492    95276022.548         878.423          41.000  
G29  24685130.232   129721214.260       -2394.620          42.000    24685125.583   101081452.925       -1865.563          39.000  
G18  26142424.797   137380056.730        2212.002          41.000    26142421.126   107048857.177        1723.322          43.000  
G30  25242491.214   132650199.432       -2051.963          41.000    25242489.571   103363795.921       -1599.153          41.000  
> 2025 05 29 08 32 50.0070000  0  9                     
G20  23516313.589   123579043.058       -2621.073          45.000                                                                  
G07  27507572.629   144553222.931       -3363.711          39.000    27507569.523   112638881.943       -2621.321          32.000  
G11  25111518.053   131961872.982       -4316.895          42.000    25111515.299   102827414.809       -3363.714          41.000  
G05  22706930.873   119325726.464       -1249.288          45.000    22706925.618    92981056.310        -972.994          41.000  
G13  21919074.777   115185521.073       -1091.050          40.000                                                                  
G15  23267162.229   122269797.303        1126.762          42.000    23267157.973    95275144.261         878.126          41.000  
G29  24685586.018   129723609.179       -2395.074          42.000    24685581.245   101083319.098       -1866.439          38.000  
G18  26142003.908   137377845.097        2211.819          41.000    26142000.187   107047133.820        1723.491          43.000  
G30  25242881.736   132652251.497       -2052.128          41.000    25242880.280   103365394.944       -1599.393          41.000  
> 2025 05 29 08 32 51.0070000  0  9                     
G20  23516812.386   123581664.449       -2621.528          45.000                                                                  
G07  27508212.817   144556586.843       -3363.922          39.000    27508210.149   112641503.147       -2621.179          32.000  
G11  25112339.728   131966190.156       -4317.058          42.000    25112336.815   102830778.839       -3364.000          41.000  
G05  22707168.647   119326975.856       -1249.551          45.000    22707163.365    92982029.869        -973.633          41.000  
G13  21919282.292   115186612.333       -1091.528          40.000                                                                  
G15  23266947.828   122268670.506        1126.788          42.000    23266943.641    95274266.258         877.768          41.000  
G29  24686041.868   129726004.584       -2395.336          42.000    24686037.156   101085185.644       -1866.739          38.000  
G18  26141583.060   137375633.522        2211.748          41.000    26141579.261   107045410.533        1723.249          42.000  
G30  25243272.379   132654304.075       -2052.773          41.000    25243270.975   103366994.330       -1599.500          41.000  
> 2025 05 29 08 32 52.0070000  0  9                     
G20  23517311.296   123584286.037       -2621.860          46.000                                                                  
G07  27508853.013   144559951.080       -3364.594          38.000    27508850.727   112644124.670       -2622.344          32.000  
G11  25113161.286   131970507.585       -4317.575          42.000    25113158.422   102834143.059       -3364.219          41.000  
G05  22707406.319   119328225.460       -1249.897          44.000    22707401.246    92983003.585        -974.223          41.000  
G13  21919490.076   115187704.199       -1092.595          40.000                                                                  
G15  23266733.478   122267544.053        1126.386          41.000    23266729.291    95273388.518         877.459          41.000  
G29  24686497.745   129728400.547       -2396.579          42.000    24686493.080   101087052.607       -1867.166          38.000  
G18  26141162.133   137373422.057        2211.012          41.000    26141158.438   107043687.287        1723.005          42.000  
G30  25243663.118   132656357.158       -2053.867          41.000    25243661.716   103368594.143       -1600.398          41.000  
> 2025 05 29 08 32 53.0070000  0  9                     
G20  23517810.214   123586908.023       -2622.272          46.000                                                                  
G07  27509493.315   144563315.795       -3364.745          39.000    27509491.511   112646746.558       -2622.684          32.000  
G11  25113982.880   131974825.465       -4318.481          42.000    25113980.050   102837507.627       -3364.733          41.000  
G05  22707644.231   119329475.490       -1250.228          45.000    22707639.156    92983977.626        -974.388          41.000  
G13  21919697.877   115188796.783       -1092.882          41.000                                                                  
G15  23266519.262   122266418.164        1125.828          41.000    23266514.920    95272511.200         877.232          41.000  
G29  24686953.818   129730797.199       -2397.047          42.000    24686949.128   101088920.137       -1867.531          38.000  
G18  26140741.283   137371210.857        2210.771          41.000    26140737.620   107041964.289        1722.588          43.000  
G30  25244053.880   132658410.931       -2054.078          41.000    25244052.550   103370194.503       -1600.916          41.000  
> 2025 05 29 08 32 54.0070000  0  9                     
G20  23518309.122   123589530.278       -2622.239          46.000                                                                  
G07  27510133.634   144566680.938       -3364.667          39.000    27510131.973   112649368.705       -2622.759          30.000  
G11  25114804.610   131979143.635       -4318.331          42.000    25114801.822   102840872.453       -3364.751          39.000  
G05  22707882.150   119330725.822       -1250.286          45.000    22707877.126    92984951.901        -974.323          39.000  
G13  21919905.976   115189890.074       -1093.844          40.000                                                                  
G15  23266305.054   122265292.753        1125.466          42.000    23266300.639    95271634.224         876.997          38.000  
G29  24687409.986   129733194.465       -2397.524          42.000    24687405.301   101090788.124       -1868.064          36.000  
G18  26140320.470   137368999.795        2211.199          42.000    26140316.866   107040241.400        1722.760          39.000  
G30  25244444.797   132660465.272       -2054.637          40.000    25244443.571   103371795.294       -1600.977          38.000  
> 2025 05 29 08 32 55.0070000  0  9                     
G20  23518808.291   123592152.899       -2622.433          46.000                                                                  
G07  27510774.035   144570046.554       -3365.688          39.000    27510772.382   112651991.286       -2623.714          30.000  
G11  25115626.407   131983462.281       -4318.794          42.000    25115623.628   102844237.620       -3365.256          41.000  
G05  22708120.178   119331976.573       -1250.867          45.000    22708115.102    92985926.500        -974.726          41.000  
G13  21920114.082   115190984.067       -1093.956          41.000                                                                  
G15  23266090.994   122264167.846        1124.667          42.000    23266086.544    95270757.685         876.279          40.000  
G29  24687866.261   129735592.421       -2398.094          42.000    24687861.631   101092656.658       -1868.302          38.000  
G18  26139899.735   137366789.021        2210.936          42.000    26139896.098   107038518.709        1722.405          41.000  
G30  25244835.942   132662520.388       -2055.437          40.000    25244834.679   103373396.642       -1601.379          40.000  
> 2025 05 29 08 32 56.0070000  0  9                     
G20  23519307.406   123594775.746       -2623.069          46.000                                                                  
G07  27511414.487   144573412.460       -3366.252          38.000    27511412.822   112654614.022       -2622.500          30.000  
G11  25116448.333   131987781.146       -4318.945          42.000    25116445.485   102847602.973       -3365.459          41.000  
G05  22708358.205   119333227.527       -1251.167          45.000    22708353.207    92986901.257        -974.615          41.000  
G13  21920322.394   115192078.675       -1095.013          41.000                                                                  
G15  23265876.952   122263043.274        1124.445          42.000    23265872.574    95269881.396         876.023          40.000  
G29  24688322.700   129737990.905       -2398.696          42.000    24688318.041   101094525.610       -1868.750          38.000  
G18  26139478.998   137364578.295        2211.101          42.000    26139475.346   107036796.052        1722.640          41.000  
G30  25245226.978   132664575.948       -2055.794          40.000    25245225.904   103374998.402       -1601.931          40.000  
> 2025 05 29 08 32 57.0070000  0  9                     
G20  23519806.451   123597398.737       -2623.083          46.000                                                                  
G07  27512055.030   144576778.617       -3366.315          39.000    27512053.356   112657237.014       -2623.631          31.000  
G11  25117270.248   131992100.244       -4318.938          42.000    25117267.427   102850968.513       -3365.866          43.000  
G05  22708596.292   119334478.657       -1251.048          45.000    22708591.362    92987876.176        -974.895          43.000  
G13  21920530.848   115193173.781       -1095.193          41.000                                                                  
G15  23265663.002   122261919.027        1124.135          41.000    23265658.632    95269005.363         875.944          42.000  
G29  24688779.309   129740389.890       -2399.063          41.000    24688774.595   101096394.947       -1869.235          40.000  
G18  26139058.359   137362367.636        2210.892          41.000    26139054.660   107035073.482        1722.634          42.000  
G30  25245618.176   132666631.997       -2055.885          40.000    25245617.160   103376600.524       -1602.502          43.000  
> 2025 05 29 08 32 58.0070000  0  9                     
G20  23520305.769   123600022.009       -2623.354          46.000                                                                  
G07  27512695.577   144580145.184       -3367.315          39.000    27512694.066   112659860.323       -2624.063          31.000  
G11  25118092.210   131996419.681       -4319.947          42.000    25118089.354   102854334.297       -3365.965          42.000  
G05  22708834.490   119335730.107       -1251.681          45.000    22708829.504    92988851.346        -975.731          41.000  
G13  21920739.316   115194269.580       -1096.385          41.000                                                                  
G15  23265449.127   122260795.229        1123.525          41.000    23265444.763    95268129.661         875.738          40.000  
G29  24689235.955   129742789.471       -2399.934          41.000    24689231.212   101098264.759       -1870.079          39.000  
G18  26138637.576   137360157.154        2210.214          41.000    26138633.909   107033350.987        1722.858          41.000  
G30  25246009.515   132668688.657       -2057.279          40.000    25246008.587   103378203.107       -1603.067          40.000  
> 2025 05 29 08 32 59.0070000  0  9                     
G20  23520805.070   123602645.648       -2623.723          46.000                                                                  
G07  27513336.273   144583512.171       -3367.446          39.000    27513334.910   112662483.959       -2623.867          30.000  
G11  25118914.372   132000739.494       -4319.909          43.000    25118911.464   102857700.369       -3365.951          42.000  
G05  22709072.701   119336981.915       -1251.830          45.000    22709067.693    92989826.760        -975.456          41.000  
G13  21920948.122   115195366.078       -1096.734          41.000                                                                  
G15  23265235.376   122259671.932        1123.106          41.000    23265230.881    95267254.377         875.254          40.000  
G29  24689692.732   129745189.729       -2400.411          41.000    24689687.945   101100135.101       -1870.581          38.000  
G18  26138216.950   137357946.886        2210.254          41.000    26138213.255   107031628.737        1722.188          41.000  
G30  25246400.992   132670745.948       -2057.516          40.000    25246400.147   103379806.199       -1603.160          41.000  
> 2025 05 29 08 33 00.0070000  0  9                     
G20  23521304.468   123605269.594       -2624.167          47.000                                                                  
G07  27513977.092   144586879.631       -3367.870          38.000    27513975.863   112665107.950       -2624.638          30.000  
G11  25119736.427   132005059.673       -4320.201          43.000    25119733.587   102861066.764       -3366.437          42.000  
G05  22709311.007   119338234.072       -1252.216          45.000    22709305.998    92990802.474        -975.898          41.000  
G13  21921156.843   115196463.281       -1097.697          41.000                                                                  
G15  23265021.654   122258549.102        1122.486          42.000    23265017.208    95266379.435         875.010          40.000  
G29  24690149.568   129747590.628       -2401.228          41.000    24690144.793   101102005.920       -1870.879          38.000  
G18  26137796.242   137355736.831        2209.875          41.000    26137792.631   107029906.644        1721.602          40.000  
G30  25246792.477   132672803.878       -2057.986          40.000    25246791.803   103381409.783       -1603.543          41.000  
> 2025 05 29 08 33 01.0070000  0  9                     
G20  23521803.932   123607893.836       -2624.119          47.000                                                                  
G07  27514617.916   144590247.468       -3367.686          38.000    27514616.765   112667732.203       -2623.963          30.000  
G11  25120558.568   132009380.233       -4320.549          43.000    25120555.721   102864433.425       -3366.681          41.000  
G05  22709549.378   119339486.557       -1252.361          45.000    22709544.379    92991778.430        -976.169          41.000  
G13  21921365.805   115197561.137       -1098.151          41.000                                                                  
G15  23264808.083   122257426.741        1122.168          42.000    23264803.579    95265504.871         874.614          40.000  
G29  24690606.716   129749992.165       -2401.425          41.000    24690601.817   101103877.244       -1871.149          38.000  
G18  26137375.639   137353526.961        2209.588          41.000    26137372.131   107028184.658        1721.794          40.000  
G30  25247184.176   132674862.432       -2058.588          39.000    25247183.494   103383013.858       -1604.131          41.000  
> 2025 05 29 08 33 02.0070000  0  9                     
G20  23522303.231   123610518.148       -2624.415          47.000                                                                  
G07  27515258.944   144593615.482       -3368.181          38.000    27515257.452   112670356.583       -2623.149          30.000  
G11  25121380.719   132013700.896       -4320.781          43.000    25121377.904   102867800.168       -3367.077          42.000  
G05  22709787.832   119340739.136       -1252.888          45.000    22709782.710    92992754.452        -976.086          41.000  
G13  21921574.691   115198659.447       -1098.942          41.000                                                                  
G15  23264594.598   122256304.577        1121.941          42.000    23264589.980    95264630.486         873.781          40.000  
G29  24691063.801   129752394.092       -2402.310          41.000    24691058.885   101105748.866       -1872.018          38.000  
G18  26136955.071   137351317.033        2209.461          40.000    26136951.470   107026462.619        1721.545          40.000  
G30  25247575.938   132676921.346       -2059.354          41.000    25247575.315   103384618.207       -1604.548          41.000  
> 2025 05 29 08 33 03.0070000  0  9                     
G20  23522802.732   123613142.780       -2624.845          47.000                                                                  
G07  27515899.942   144596983.915       -3368.689          38.000    27515898.460   112672981.458       -2625.720          30.000  
G11  25122202.944   132018021.938       -4321.202          43.000    25122200.209   102871167.219       -3367.154          42.000  
G05  22710026.185   119341992.055       -1253.071          45.000    22710021.114    92993730.758        -976.337          41.000  
G13  21921783.779   115199758.434       -1099.277          41.000                                                                  
G15  23264381.177   122255182.901        1121.556          42.000    23264376.527    95263756.457         873.514          40.000  
G29  24691521.132   129754796.662       -2403.276          41.000    24691515.971   101107621.004       -1872.454          38.000  
G18  26136534.535   137349107.311        2209.389          41.000    26136530.917   107024740.758        1721.927          39.000  
G30  25247967.887   132678980.920       -2059.926          39.000    25247967.153   103386223.058       -1605.156          41.000  
> 2025 05 29 08 33 04.0070000  0  9                     
G20  23523302.296   123615767.512       -2624.939          47.000                                                                  
G07  27516540.994   144600352.545       -3368.510          38.000    27516539.362   112675606.325       -2625.270          30.000  
G11  25123025.258   132022343.123       -4321.477          43.000    25123022.434   102874534.371       -3367.559          42.000  
G05  22710264.730   119343245.116       -1253.470          45.000    22710259.561    92994707.179        -976.852          41.000  
G13  21921992.977   115200857.901       -1099.723          41.000                                                                  
G15  23264167.730   122254061.496        1121.051          42.000    23264163.063    95262882.620         873.458          40.000  
G29  24691978.411   129757199.639       -2403.309          41.000    24691973.231   101109493.442       -1872.531          38.000  
G18  26136114.040   137346897.586        2209.556          41.000    26136110.338   107023018.895        1721.676          39.000  
G30  25248359.826   132681040.894       -2060.186          41.000    25248359.173   103387828.226       -1605.316          41.000  
> 2025 05 29 08 33 05.0070000  0  9                     
G20  23523801.797   123618392.622       -2625.505          47.000                                                                  
G07  27517182.162   144603721.689       -3369.516          38.000    27517180.594   112678231.608       -2625.239          30.000  
G11  25123847.655   132026664.750       -4322.230          43.000    25123844.857   102877901.852       -3367.682          42.000  
G05  22710503.330   119344498.574       -1253.749          45.000    22710498.169    92995683.882        -976.850          41.000  
G13  21922202.395   115201958.134       -1100.698          41.000                                                                  
G15  23263954.501   122252940.602        1120.532          42.000    23263949.649    95262009.211         872.832          40.000  
G29  24692435.868   129759603.318       -2403.868          42.000    24692430.691   101111366.439       -1873.279          38.000  
G18  26135693.483   137344688.093        2209.218          40.000    26135689.838   107021297.215        1721.484          39.000  
G30  25248751.884   132683101.554       -2061.399          41.000    25248751.277   103389433.921       -1605.853          41.000  
> 2025 05 29 08 33 06.0070000  0  9                     
G20  23524301.509   123621018.206       -2625.844          47.000                                                                  
G07  27517823.470   144607091.394       -3369.697          39.000    27517821.906   112680857.336       -2626.042          29.000  
G11  25124670.102   132030986.878       -4322.299          43.000    25124667.332   102881269.761       -3368.017          39.000  
G05  22710741.989   119345752.519       -1254.196          45.000    22710736.742    92996660.985        -977.241          39.000  
G13  21922411.877   115203059.200       -1101.398          41.000                                                                  
G15  23263741.367   122251820.355        1119.921          43.000    23263736.463    95261136.273         872.742          38.000  
G29  24692893.467   129762007.824       -2405.122          42.000    24692888.244   101113240.091       -1874.219          36.000  
G18  26135273.128   137342478.995        2209.269          40.000    26135269.353   107019575.839        1721.260          36.000  
G30  25249144.148   132685162.975       -2061.710          41.000    25249143.562   103391040.271       -1606.746          39.000  
> 2025 05 29 08 33 07.0070000  0  9                     
G20  23524801.224   123623643.968       -2625.325          47.000                                                                  
G07  27518464.687   144610461.417       -3369.995          39.000    27518463.293   112683483.352       -2626.222          29.000  
G11  25125492.515   132035309.266       -4321.898          42.000    25125489.863   102884637.848       -3367.902          40.000  
G05  22710980.624   119347006.693       -1253.904          45.000    22710975.371    92997638.269        -976.991          40.000  
G13  21922621.476   115204160.823       -1101.317          41.000                                                                  
G15  23263528.259   122250700.447        1120.036          42.000    23263523.364    95260263.621         872.875          39.000  
G29  24693351.076   129764412.796       -2404.766          41.000    24693345.872   101115114.088       -1873.944          37.000  
G18  26134852.759   137340269.973        2209.243          40.000    26134848.913   107017854.499        1722.064          37.000  
G30  25249536.546   132687224.938       -2062.042          41.000    25249536.006   103392646.962       -1606.691          39.000  
> 2025 05 29 08 33 08.0070000  0  9                     
G20  23525301.017   123626269.972       -2626.158          47.000                                                                  
G07  27519106.029   144613831.729       -3370.217          39.000    27519104.581   112686109.596       -2627.153          30.000  
G11  25126315.138   132039631.927       -4322.739          42.000    25126312.422   102888006.160       -3368.501          44.000  
G05  22711219.331   119348261.118       -1254.407          45.000    22711214.161    92998615.731        -977.424          43.000  
G13  21922831.318   115205263.057       -1102.367          41.000                                                                  
G15  23263315.231   122249580.920        1119.195          43.000    23263310.255    95259391.262         872.114          42.000  
G29  24693808.863   129766818.358       -2405.851          41.000    24693803.692   101116988.551       -1874.924          40.000  
G18  26134432.361   137338061.047        2208.933          41.000    26134428.536   107016133.253        1721.546          40.000  
G30  25249929.030   132689287.425       -2062.845          41.000    25249928.474   103394254.091       -1607.396          43.000  
> 2025 05 29 08 33 09.0070000  0  9                     
G20  23525800.774   123628896.170       -2626.284          47.000                                                                  
G07  27519747.413   144617202.382       -3370.863          39.000    27519745.929   112688736.040       -2626.772          30.000  
G11  25127137.639   132043954.852       -4323.006          42.000    25127135.044   102891374.683       -3368.686          43.000  
G05  22711458.015   119349515.795       -1254.767          45.000    22711452.783    92999593.408        -977.765          41.000  
G13  21923041.332   115206365.882       -1103.145          41.000                                                                  
G15  23263102.277   122248461.768        1118.950          42.000    23263097.215    95258519.186         872.105          41.000  
G29  24694266.771   129769224.450       -2406.489          41.000    24694261.525   101118863.404       -1874.769          39.000  
G18  26134012.134   137335852.224        2208.929          41.000    26134008.184   107014412.115        1720.768          40.000  
G30  25250321.600   132691350.397       -2063.278          41.000    25250321.113   103395861.623       -1607.674          41.000  
> 2025 05 29 08 33 10.0070000  0  9                     
G20  23526300.642   123631522.844       -2626.936          47.000                                                                  
G07  27520389.085   144620573.607       -3371.411          39.000    27520387.603   112691362.926       -2626.541          30.000  
G11  25127960.436   132048278.293       -4324.028          42.000    25127957.661   102894743.593       -3369.015          42.000  
G05  22711696.833   119350770.942       -1255.292          45.000    22711691.615    93000571.441        -978.435          41.000  
G13  21923251.408   115207469.536       -1104.056          41.000                                                                  
G15  23262889.414   122247343.210        1118.186          42.000    23262884.330    95257647.609         871.121          41.000  
G29  24694724.860   129771631.304       -2407.052          43.000    24694719.394   101120738.876       -1875.957          39.000  
G18  26133591.948   137333643.721        2208.364          41.000    26133587.984   107012691.220        1720.516          40.000  
G30  25250714.271   132693414.188       -2064.354          41.000    25250713.866   103397469.762       -1608.423          41.000  
> 2025 05 29 08 33 11.0070000  0  9                     
G20  23526800.558   123634149.781       -2626.987          47.000                                                                  
G07  27521030.656   144623945.175       -3371.583          39.000    27521029.358   112693990.196       -2627.177          30.000  
G11  25128783.199   132052602.064       -4323.821          42.000    25128780.369   102898112.751       -3369.066          41.000  
G05  22711935.692   119352026.394       -1255.689          45.000    22711930.545    93001549.721        -978.691          40.000  
G13  21923461.534   115208573.814       -1104.468          41.000                                                                  
G15  23262676.645   122246225.104        1118.079          42.000    23262671.511    95256776.355         870.673          40.000  
G29  24695183.156   129774038.761       -2407.811          42.000    24695177.581   101122614.831       -1876.307          38.000  
G18  26133171.799   137331435.411        2208.085          41.000    26133167.817   107010970.426        1720.891          40.000  
G30  25251107.108   132695478.548       -2064.337          41.000    25251106.668   103399078.361       -1608.957          40.000  
> 2025 05 29 08 33 12.0070000  0  9                     
G20  23527300.559   123636777.045       -2627.384          47.000                                                                  
G07  27521672.312   144627317.190       -3371.990          39.000    27521670.955   112696617.719       -2627.661          29.000  
G11  25129606.045   132056926.197       -4324.590          42.000    25129603.219   102901482.209       -3369.649          41.000  
G05  22712174.655   119353282.180       -1255.945          46.000    22712169.433    93002528.258        -978.995          40.000  
G13  21923671.836   115209678.792       -1105.428          41.000                                                                  
G15  23262463.991   122245107.458        1117.172          42.000    23262458.795    95255905.453         870.732          40.000  
G29  24695641.393   129776446.860       -2408.467          42.000    24695635.756   101124491.272       -1876.732          38.000  
G18  26132751.584   137329227.273        2208.010          41.000    26132747.624   107009249.812        1720.760          40.000  
G30  25251500.091   132697543.531       -2065.195          40.000    25251499.556   103400687.444       -1609.400          40.000  
> 2025 05 29 08 33 13.0070000  0  9                     
G20  23527800.567   123639404.521       -2627.561          46.000                                                                  
G07  27522314.189   144630689.523       -3372.643          39.000    27522312.515   112699245.514       -2628.034          29.000  
G11  25130429.024   132061250.592       -4324.865          42.000    25130426.085   102904851.861       -3369.631          41.000  
G05  22712413.725   119354538.195       -1256.036          46.000    22712408.503    93003506.959        -978.908          40.000  
G13  21923882.205   115210784.340       -1105.692          41.000                                                                  
G15  23262251.409   122243990.185        1117.120          42.000    23262246.216    95255034.841         870.491          39.000  
G29  24696099.707   129778855.481       -2408.662          42.000    24696094.033   101126368.119       -1877.014          38.000  
G18  26132331.506   137327019.240        2208.068          41.000    26132327.490   107007529.267        1720.637          39.000  
G30  25251893.150   132699609.040       -2065.650          40.000    25251892.576   103402296.928       -1609.742          40.000  
> 2025 05 29 08 33 14.0070000  0  9                     
G20  23528300.730   123642032.380       -2627.957          46.000                                                                  
G07  27522956.027   144634062.322       -3372.377          39.000    27522954.377   112701873.703       -2628.971          30.000  
G11  25131251.917   132065575.403       -4325.027          43.000    25131249.123   102908221.873       -3370.110          41.000  
G05  22712652.807   119355794.613       -1256.551          46.000    22712647.658    93004485.979        -978.869          40.000  
G13  21924092.778   115211890.664       -1106.362          41.000                                                                  
G15  23262038.853   122242873.445        1116.664          42.000    23262033.687    95254164.651         869.986          40.000  
G29  24696558.239   129781264.841       -2409.595          42.000    24696552.497   101128245.539       -1877.672          38.000  
G18  26131911.418   137324811.475        2208.100          41.000    26131907.375   107005808.954        1720.367          40.000  
G30  25252286.301   132701675.259       -2066.209          41.000    25252285.806   103403906.955       -1610.151          40.000  
> 2025 05 29 08 33 15.0070000  0 10                     
G20  23528800.779   123644660.593       -2628.174          46.000                                                                  
G07  27523597.939   144637435.630       -3373.440          39.000    27523596.449   112704502.181       -2628.530          30.000  
G11  25132075.055   132069900.644       -4325.254          43.000    25132072.197   102911592.175       -3370.382          41.000  
G05  22712891.968   119357051.403       -1256.687          46.000    22712886.781    93005465.308        -979.302          40.000  
G13  21924303.546   115212997.746       -1107.776          41.000                                                                  
G15  23261826.457   122241757.226        1116.050          42.000    23261821.282    95253294.855         869.872          40.000  
G29  24697016.810   129783674.835       -2409.887          42.000    24697011.031   101130123.452       -1877.889          37.000  
G18  26131491.399   137322603.937        2207.614          41.000    26131487.297   107004088.805        1720.131          40.000  
G30  25252679.621   132703742.147       -2067.452          40.000    25252679.141   103405517.504       -1610.679          40.000  
G24                                                                  27648305.577   113215188.5803       2115.776          37.000  
> 2025 05 29 08 33 16.0070000  0 10                     
G20  23529300.938   123647289.068       -2628.489          46.000                                                                  
G07  27524239.956   144640809.241       -3373.715          39.000    27524238.366   112707130.954       -2628.056          30.000  
G11  25132898.221   132074226.174       -4325.667          43.000    25132895.403   102914962.727       -3370.651          41.000  
G05  22713131.235   119358308.506       -1257.277          46.000    22713126.001    93006444.860        -979.726          40.000  
G13  21924514.430   115214105.408       -1107.924          41.000                                                                  
G15  23261614.121   122240641.404        1115.654          42.000    23261608.945    95252425.425         869.051          40.000  
G29  24697475.651   129786085.447       -2410.790          42.000    24697469.733   101132001.875       -1878.511          37.000  
G18  26131071.325   137320396.568        2207.263          41.000    26131067.196   107002368.784        1720.051          41.000  
G30  25253073.074   132705809.583       -2067.822          40.000    25253072.580   103407128.509       -1611.402          39.000  
G24                                                                  27647788.777   113213072.2421       2116.248          37.000  
> 2025 05 29 08 33 17.0070000  0 10                     
G20  23529801.160   123649917.820       -2628.761          46.000                                                                  
G07  27524882.020   144644183.254       -3374.246          39.000    27524880.516   112709760.045       -2628.536          31.000  
G11  25133721.421   132078552.036       -4325.691          43.000    25133718.680   102918333.524       -3370.799          41.000  
G05  22713370.515   119359565.865       -1257.170          46.000    22713365.139    93007424.634        -980.132          41.000  
G13  21924725.232   115215213.733       -1108.508          41.000                                                                  
G15  23261401.931   122239526.034        1115.280          42.000    23261396.764    95251556.296         868.865          40.000  
G29  24697934.509   129788496.631       -2411.115          42.000    24697928.586   101133880.745       -1879.127          38.000  
G18  26130651.357   137318189.353        2207.232          42.000    26130647.232   107000648.864        1720.102          41.000  
G30  25253466.557   132707877.604       -2068.409          41.000    25253466.065   103408739.950       -1611.524          40.000  
G24                                                                  27647271.887   113210956.343        2115.938          38.000  
> 2025 05 29 08 33 18.0070000  0 10                     
G20  23530301.355   123652546.841       -2629.218          46.000                                                                  
G07  27525524.157   144647557.633       -3374.855          39.000    27525522.658   112712389.452       -2629.262          31.000  
G11  25134544.569   132082878.231       -4326.621          43.000    25134542.006   102921704.568       -3371.179          41.000  
G05  22713609.843   119360823.544       -1257.948          46.000    22713604.506    93008404.641        -980.528          41.000  
G13  21924936.232   115216322.699       -1109.235          41.000                                                                  
G15  23261189.807   122238411.071        1114.419          42.000    23261184.690    95250687.502         868.272          40.000  
G29  24698393.458   129790908.433       -2412.112          42.000    24698387.513   101135760.035       -1879.544          37.000  
G18  26130231.494   137315982.285        2206.885          42.000    26130227.236   106998929.083        1719.303          41.000  
G30  25253860.165   132709946.211       -2069.095          41.000    25253859.759   103410351.843       -1612.184          40.000  
G24                                                                  27646755.090   113208840.356        2115.829          38.000  
> 2025 05 29 08 33 19.0070000  0 10                     
G20  23530801.673   123655176.240       -2629.485          46.000                                                                  
G07  27526166.410   144650932.495       -3374.963          39.000    27526164.968   112715019.256       -2630.543          31.000  
G11  25135368.004   132087204.849       -4326.885          43.000    25135365.399   102925075.969       -3371.480          41.000  
G05  22713849.274   119362081.632       -1258.179          46.000    22713843.870    93009384.965        -980.513          41.000  
G13  21925147.474   115217432.420       -1110.008          41.000                                                                  
G15  23260977.823   122237296.657        1114.367          42.000    23260972.609    95249819.115         868.193          40.000  
G29  24698852.541   129793320.924       -2412.659          43.000    24698846.642   101137639.931       -1880.365          37.000  
G18  26129811.608   137313775.492        2206.703          42.000    26129807.476   106997209.497        1719.427          42.000  
G30  25254253.917   132712015.489       -2069.310          41.000    25254253.462   103411964.302       -1613.064          40.000  
G24                                                                  27646238.174   113206724.351        2115.824          37.000  
> 2025 05 29 08 33 20.0070000  0 10                     
G20  23531302.008   123657806.008       -2629.948          46.000                                                                  
G07  27526808.750   144654307.840       -3375.913          39.000    27526807.271   112717649.337       -2629.791          31.000  
G11  25136191.398   132091531.865       -4327.106          43.000    25136188.808   102928447.677       -3371.925          42.000  
G05  22714088.686   119363340.112       -1258.773          46.000    22714083.296    93010365.588        -980.602          41.000  
G13  21925358.701   115218542.889       -1110.947          41.000                                                                  
G15  23260765.890   122236182.761        1113.497          42.000    23260760.660    95248951.140         867.832          40.000  
G29  24699311.776   129795734.113       -2413.486          43.000    24699305.845   101139520.328       -1880.919          38.000  
G18  26129391.722   137311568.930        2206.571          42.000    26129387.566   106995490.124        1719.018          42.000  
G30  25254647.877   132714085.487       -2070.326          41.000    25254647.284   103413577.252       -1613.229          40.000  
G24                                                                  27645721.328   113204608.321        2115.948          37.000  
> 2025 05 29 08 33 21.0070000  0 10                     
G20  23531802.511   123660436.084       -2630.549          46.000                                                                  
G07  27527451.082   144657683.574       -3376.589          39.000    27527449.693   112720279.809       -2631.596          31.000  
G11  25137014.831   132095859.259       -4327.962          43.000    25137012.374   102931819.655       -3372.256          42.000  
G05  22714328.182   119364598.925       -1259.336          45.000    22714322.839    93011346.477        -980.951          40.000  
G13  21925570.090   115219654.022       -1111.854          41.000                                                                  
G15  23260553.989   122235069.302        1113.008          42.000    23260548.794    95248083.526         867.169          40.000  
G29  24699771.182   129798147.920       -2414.421          43.000    24699765.141   101141401.178       -1881.143          38.000  
G18  26128971.724   137309362.560        2206.018          42.000    26128967.811   106993770.850        1719.052          42.000  
G30  25255041.896   132716156.055       -2071.063          41.000    25255041.306   103415190.708       -1614.333          40.000  
G24                                                                  27645204.409   113202492.222        2116.037          38.000  
> 2025 05 29 08 33 22.0070000  0 10                     
G20  23532303.088   123663066.379       -2630.603          46.000                                                                  
G07  27528093.519   144661059.620       -3376.246          39.000    27528092.189   112722910.534       -2631.590          30.000  
G11  25137838.440   132100186.911       -4327.967          43.000    25137835.953   102935191.858       -3372.427          41.000  
G05  22714567.767   119365857.966       -1259.432          45.000    22714562.410    93012327.548        -981.102          40.000  
G13  21925781.651   115220765.754       -1112.208          41.000                                                                  
G15  23260342.263   122233956.260        1112.733          42.000    23260337.024    95247216.201         867.246          40.000  
G29  24700230.572   129800562.270       -2414.832          43.000    24700224.558   101143282.515       -1881.683          38.000  
G18  26128551.888   137307156.306        2206.101          42.000    26128547.981   106992051.701        1718.917          42.000  
G30  25255436.093   132718227.187       -2071.886          41.000    25255435.414   103416804.544       -1614.216          40.000  
G24                                                                  27644687.471   113200376.000        2116.029          38.000  
> 2025 05 29 08 33 23.0070000  0 10                     
G20  23532803.690   123665697.067       -2630.875          46.000                                                                  
G07  27528736.055   144664436.176       -3376.418          39.000    27528734.728   112725541.542       -2630.655          31.000  
G11  25138662.020   132104514.996       -4328.187          43.000    25138659.623   102938564.402       -3372.507          43.000  
G05  22714807.362   119367117.423       -1259.541          45.000    22714802.066    93013308.952        -981.502          42.000  
G13  21925993.340   115221878.274       -1112.969          41.000                                                                  
G15  23260130.572   122232843.738        1112.510          42.000    23260125.259    95246349.318         866.580          41.000  
G29  24700690.071   129802977.337       -2415.261          43.000    24700684.082   101145164.377       -1882.036          38.000  
G18  26128132.155   137304950.317        2206.145          42.000    26128128.162   106990332.749        1718.894          43.000  
G30  25255830.375   132720298.998       -2071.886          42.000    25255829.643   103418418.942       -1614.352          41.000  
G24                                                                  27644170.578   113198259.750        2116.416          38.000  
> 2025 05 29 08 33 24.0070000  0 10                     
G20  23533304.263   123668328.018       -2631.311          46.000                                                                  
G07  27529378.664   144667813.121       -3377.486          39.000    27529377.302   112728172.936       -2632.715          30.000  
G11  25139485.716   132108843.428       -4328.876          43.000    25139483.307   102941937.176       -3372.912          42.000  
G05  22715046.963   119368377.190       -1260.134          45.000    22715041.662    93014290.587        -981.960          41.000  
G13  21926205.152   115222991.397       -1113.727          41.000                                                                  
G15  23259918.979   122231731.660        1111.761          41.000    23259913.664    95245482.765         866.205          41.000  
G29  24701149.716   129805393.012       -2416.163          42.000    24701143.804   101147046.712       -1882.939          38.000  
G18  26127712.471   137302744.496        2205.520          43.000    26127708.331   106988613.920        1718.633          43.000  
G30  25256224.806   132722371.400       -2072.875          42.000    25256223.996   103420033.792       -1614.882          40.000  
G24                                                                  27643653.703   113196143.431        2116.204          38.000  
> 2025 05 29 08 33 25.0070000  0 10                     
G20  23533804.921   123670959.250       -2631.548          46.000                                                                  
G07  27530021.271   144671190.438       -3377.581          39.000    27530020.025   112730804.587       -2631.491          29.000  
G11  25140309.477   132113172.162       -4329.042          43.000    25140307.085   102945310.219       -3373.167          41.000  
G05  22715286.722   119369637.255       -1260.564          45.000    22715281.387    93015272.456        -982.324          40.000  
G13  21926417.095   115224105.179       -1114.081          41.000                                                                  
G15  23259707.446   122230620.016        1111.276          41.000    23259702.061    95244616.538         865.812          40.000  
G29  24701609.439   129807809.263       -2416.847          43.000    24701603.685   101148929.511       -1883.303          37.000  
G18  26127292.738   137300538.851        2205.155          43.000    26127288.531   106986895.231        1718.198          42.000  
G30  25256619.479   132724444.397       -2073.331          42.000    25256618.452   103421649.126       -1615.655          40.000  
G24                                                                  27643136.759   113194027.023        2116.144          37.000  
> 2025 05 29 08 33 26.0070000  0 10                     
G20  23534305.811   123673590.899       -2631.953          46.000                                                                  
G07  27530664.003   144674568.259       -3378.057          39.000    27530662.750   112733436.713       -2632.632          29.000  
G11  25141133.344   132117501.373       -4329.343          43.000    25141130.945   102948683.619       -3373.413          41.000  
G05  22715526.579   119370897.752       -1260.614          45.000    22715521.339    93016254.654        -982.115          40.000  
G13  21926629.222   115225219.754       -1114.889          41.000                                                                  
G15  23259496.053   122229508.916        1111.031          41.000    23259490.645    95243750.755         865.723          40.000  
G29  24702069.338   129810226.228       -2417.242          42.000    24702063.633   101150812.862       -1883.485          37.000  
G18  26126873.113   137298333.468        2205.304          42.000    26126868.747   106985176.753        1718.341          42.000  
G30  25257014.201   132726518.115       -2074.089          42.000    25257013.028   103423264.988       -1615.792          40.000  
G24                                                                  27642619.777   113191910.612        2116.417          38.000  
> 2025 05 29 08 33 27.0070000  0 10                     
G20  23534806.578   123676222.743       -2632.301          45.000                                                                  
G07  27531306.870   144677946.390       -3378.619          39.000    27531305.417   112736069.008       -2632.914          29.000  
G11  25141957.328   132121830.826       -4329.712          43.000    25141954.860   102952057.216       -3373.755          41.000  
G05  22715766.413   119372158.466       -1260.821          45.000    22715761.296    93017237.051        -982.761          39.000  
G13  21926841.409   115226334.881       -1115.468          41.000                                                                  
G15  23259284.694   122228398.195        1110.564          41.000    23259279.339    95242885.244         865.242          39.000  
G29  24702529.375   129812643.751       -2417.979          42.000    24702523.585   101152696.643       -1883.969          37.000  
G18  26126453.413   137296128.177        2204.996          42.000    26126449.098   106983458.347        1718.130          41.000  
G30  25257409.036   132728592.319       -2074.805          42.000    25257407.814   103424881.267       -1616.699          39.000  
G24                                                                  27642102.829   113189794.060        2116.117          37.000  
> 2025 05 29 08 33 28.0070000  0 10                     
G20  23535307.424   123678854.864       -2632.212          45.000                                                                  
G07  27531949.727   144681324.895       -3378.470          39.000    27531948.174   112738701.576       -2632.405          29.000  
G11  25142781.298   132126160.621       -4330.057          43.000    25142778.751   102955431.078       -3373.969          41.000  
G05  22716006.475   119373419.513       -1260.992          45.000    22716001.212    93018219.672        -982.864          40.000  
G13  21927053.769   115227450.701       -1116.350          42.000                                                                  
G15  23259073.428   122227287.911        1109.985          41.000    23259068.091    95242020.081         865.098          40.000  
G29  24702989.384   129815061.857       -2418.193          42.000    24702983.691   101154580.880       -1884.461          37.000  
G18  26126033.706   137293923.080        2204.766          42.000    26126029.474   106981740.084        1718.156          42.000  
G30  25257803.948   132730667.129       -2074.839          42.000    25257802.494   103426498.026       -1617.051          39.000  
G24                                                                  27641585.851   113187677.432        2116.606          37.000  
> 2025 05 29 08 33 29.0070000  0 10                     
G20  23535808.348   123681487.403       -2632.924          46.000                                                                  
G07  27532592.734   144684703.923       -3379.173          39.000    27532591.098   112741334.608       -2633.504          29.000  
G11  25143605.309   132130490.849       -4330.605          43.000    25143602.769   102958805.274       -3374.308          42.000  
G05  22716246.502   119374680.960       -1261.548          45.000    22716241.256    93019202.618        -983.391          41.000  
G13  21927266.224   115228567.272       -1117.156          42.000                                                                  
G15  23258862.247   122226178.175        1109.491          41.000    23258856.962    95241155.377         864.267          41.000  
G29  24703449.606   129817480.712       -2419.254          42.000    24703444.008   101156465.684       -1885.231          37.000  
G18  26125614.045   137291718.229        2204.885          42.000    26125609.930   106980022.023        1718.005          42.000  
G30  25258199.033   132732742.658       -2075.925          42.000    25258197.563   103428115.299       -1617.399          39.000  
G24                                                                  27641068.889   113185560.805        2116.220          37.000  
> 2025 05 29 08 33 30.0070000  0 10                     
G20  23536309.469   123684120.268       -2632.802          46.000                                                                  
G07  27533235.760   144688083.405       -3379.675          39.000    27533234.217   112743967.985       -2633.956          29.000  
G11  25144429.342   132134821.471       -4330.610          43.000    25144426.839   102962179.801       -3374.799          40.000  
G05  22716486.627   119375942.783       -1261.988          45.000    22716481.390    93020185.850        -983.300          38.000  
G13  21927478.932   115229684.567       -1117.600          42.000                                                                  
G15  23258651.155   122225068.952        1108.731          42.000    23258645.865    95240291.035         864.358          39.000  
G29  24703909.955   129819900.216       -2419.818          42.000    24703904.526   101158351.024       -1885.278          36.000  
G18  26125194.434   137289513.638        2204.378          41.000    26125190.348   106978304.160        1717.836          40.000  
G30  25258594.101   132734818.837       -2076.481          42.000    25258592.610   103429733.112       -1617.806          38.000  
G24                                                                  27640551.921   113183444.153        2116.325          35.000  
> 2025 05 29 08 33 31.0070000  0 10                     
G20  23536810.552   123686753.366       -2632.837          46.000                                                                  
G07  27533878.835   144691463.186       -3379.610          39.000    27533877.406   112746601.570       -2633.534          28.000  
G11  25145253.525   132139152.415       -4331.021          43.000    25145251.033   102965554.518       -3374.657          41.000  
G05  22716726.751   119377204.854       -1262.090          45.000    22716721.496    93021169.271        -983.442          38.000  
G13  21927691.545   115230802.451       -1117.682          40.000                                                                  
G15  23258440.186   122223960.076        1108.857          42.000    23258434.847    95239426.996         863.752          39.000  
G29  24704370.450   129822320.258       -2420.170          42.000    24704365.083   101160236.779       -1885.913          36.000  
G18  26124774.802   137287309.155        2204.506          41.000    26124770.830   106976586.378        1717.887          41.000  
G30  25258989.314   132736895.543       -2076.400          42.000    25258987.833   103431351.339       -1618.473          38.000  
G24                                                                  27640034.872   113181327.336        2117.081          36.000  
> 2025 05 29 08 33 32.0070000  0 10                     
G20  23537311.797   123689386.751       -2633.531          46.000                                                                  
G07  27534522.085   144694843.369       -3380.542          38.000    27534520.494   112749235.471       -2634.177          28.000  
G11  25146077.830   132143483.612       -4331.445          43.000    25146075.216   102968929.504       -3375.159          41.000  
G05  22716966.910   119378467.229       -1262.734          45.000    22716961.683    93022152.938        -983.827          38.000  
G13  21927904.374   115231920.974       -1118.850          41.000                                                                  
G15  23258229.189   122222851.649        1108.202          42.000    23258223.926    95238563.257         863.920          39.000  
G29  24704831.035   129824740.897       -2420.978          42.000    24704825.737   101162122.997       -1886.701          37.000  
G18  26124355.229   137285104.828        2204.194          41.000    26124351.373   106974868.724        1717.584          41.000  
G30  25259384.693   132738972.863       -2077.564          42.000    25259383.093   103432970.020       -1618.801          39.000  
G24                                                                  27639517.833   113179210.487        2116.402          36.000  
> 2025 05 29 08 33 33.0070000  0 10                     
G20  23537812.963   123692020.302       -2633.729          46.000                                                                  
G07  27535165.295   144698223.832       -3380.610          38.000    27535163.581   112751869.615       -2634.719          29.000  
G11  25146902.172   132147815.094       -4331.939          43.000    25146899.480   102972304.674       -3375.288          43.000  
G05  22717207.142   119379729.813       -1262.868          45.000    22717201.943    93023136.779        -984.121          41.000  
G13  21928117.259   115233040.083       -1119.462          41.000                                                                  
G15  23258018.284   122221743.587        1107.561          42.000    23258013.113    95237699.831         863.352          42.000  
G29  24705291.790   129827162.065       -2421.727          42.000    24705286.499   101164009.599       -1886.882          39.000  
G18  26123935.656   137282900.587        2203.901          41.000    26123931.873   106973151.127        1717.312          43.000  
G30  25259780.101   132741050.652       -2078.172          42.000    25259778.427   103434589.078       -1619.401          40.000  
G24                                                                  27639000.801   113177093.426        2117.220          38.000  
> 2025 05 29 08 33 34.0070000  0 10                     
G20  23538314.182   123694654.260       -2634.121          46.000                                                                  
G07  27535808.513   144701604.773       -3381.106          38.000    27535806.762   112754504.092       -2634.402          29.000  
G11  25147726.463   132152146.988       -4332.270          43.000    25147723.857   102975680.181       -3375.751          43.000  
G05  22717447.555   119380992.813       -1263.204          45.000    22717442.236    93024120.924        -984.051          40.000  
G13  21928330.329   115234159.933       -1120.189          40.000                                                                  
G15  23257807.487   122220636.049        1107.431          42.000    23257802.400    95236836.827         862.863          41.000  
G29  24705752.641   129829583.927       -2422.017          42.000    24705747.358   101165896.740       -1887.142          38.000  
G18  26123516.306   137280696.609        2203.716          41.000    26123512.510   106971433.745        1717.298          43.000  
G30  25260175.607   132743129.140       -2078.619          42.000    25260173.973   103436208.689       -1619.570          40.000  
G24                                                                  27638483.693   113174976.403        2116.996          38.000  
> 2025 05 29 08 33 35.0070000  0 10                     
G20  23538815.381   123697288.426       -2634.226          46.000                                                                  
G07  27536451.936   144704986.062       -3381.496          38.000    27536450.196   112757138.880       -2635.646          29.000  
G11  25148550.852   132156479.139       -4332.212          43.000    25148548.258   102979055.881       -3375.741          43.000  
G05  22717687.923   119382256.044       -1263.349          45.000    22717682.446    93025105.268        -984.412          41.000  
G13  21928543.528   115235280.388       -1121.251          40.000                                                                  
G15  23257596.761   122219528.884        1106.720          42.000    23257591.635    95235974.103         862.588          42.000  
G29  24706213.598   129832006.321       -2422.661          41.000    24706208.325   101167784.344       -1887.720          39.000  
G18  26123096.850   137278492.732        2203.840          41.000    26123093.199   106969716.447        1717.032          43.000  
G30  25260571.169   132745208.176       -2079.446          42.000    25260569.518   103437828.709       -1620.311          40.000  
G24                                                                  27637966.573   113172859.205        2117.157          39.000  
> 2025 05 29 08 33 36.0070000  0 10                     
G20  23539316.769   123699922.920       -2634.224          46.000                                                                  
G07  27537095.376   144708367.747       -3381.667          38.000    27537093.568   112759773.916       -2634.752          28.000  
G11  25149375.368   132160811.688       -4332.240          42.000    25149372.774   102982431.874       -3375.950          42.000  
G05  22717928.428   119383519.642       -1263.537          45.000    22717922.914    93026089.891        -984.547          40.000  
G13  21928756.951   115236401.508       -1120.982          40.000                                                                  
G15  23257386.142   122218422.221        1106.463          42.000    23257381.079    95235111.764         862.251          41.000  
G29  24706674.688   129834429.369       -2423.240          41.000    24706669.369   101169672.399       -1888.068          38.000  
G18  26122677.479   137276289.075        2203.972          41.000    26122673.730   106967999.301        1717.368          42.000  
G30  25260966.923   132747287.823       -2079.413          42.000    25260965.253   103439449.213       -1620.355          40.000  
G24                                                                  27637449.454   113170741.970        2117.714          37.000  
> 2025 05 29 08 33 37.0070000  0 10                     
G20  23539818.072   123702557.549       -2634.877          46.000                                                                  
G07  27537738.891   144711749.702       -3382.123          38.000    27537737.052   112762409.194       -2635.073          28.000  
G11  25150199.960   132165144.434       -4332.990          42.000    25150197.359   102985808.044       -3376.426          42.000  
G05  22718168.880   119384783.394       -1263.868          45.000    22718163.389    93027074.637        -984.895          39.000  
G13  21928970.343   115237523.176       -1122.022          40.000                                                                  
G15  23257175.702   122217315.825        1106.046          42.000    23257170.507    95234249.647         861.778          40.000  
G29  24707135.849   129836852.876       -2423.752          41.000    24707130.631   101171560.852       -1888.563          38.000  
G18  26122258.173   137274085.452        2203.629          41.000    26122254.258   106966282.165        1717.232          41.000  
G30  25261362.767   132749367.932       -2080.362          42.000    25261360.942   103441070.094       -1621.342          39.000  
G24                                                                  27636932.225   113168624.547        2117.352          37.000  
> 2025 05 29 08 33 38.0070000  0 10                     
G20  23540319.423   123705192.425       -2635.022          46.000                                                                  
G07  27538382.450   144715131.972       -3382.161          37.000    27538380.558   112765044.731       -2635.041          28.000  
G11  25151024.494   132169477.467       -4333.123          42.000    25151021.918   102989184.421       -3376.523          42.000  
G05  22718409.326   119386047.428       -1264.126          45.000    22718403.880    93028059.601        -985.011          39.000  
G13  21929183.979   115238645.463       -1122.460          40.000                                                                  
G15  23256965.257   122216209.842        1105.874          41.000    23256960.036    95233387.840         861.583          40.000  
G29  24707597.141   129839276.950       -2423.999          41.000    24707592.053   101173449.750       -1889.036          38.000  
G18  26121838.811   137271881.951        2203.596          41.000    26121834.961   106964565.158        1717.365          42.000  
G30  25261758.687   132751448.596       -2081.027          42.000    25261756.811   103442691.390       -1621.503          39.000  
G24                                                                  27636415.034   113166507.013        2118.157          37.000  
> 2025 05 29 08 33 39.0070000  0 10                     
G20  23540820.883   123707827.674       -2635.447          46.000                                                                  
G07  27539026.148   144718514.747       -3382.932          37.000    27539024.190   112767680.687       -2635.954          28.000  
G11  25151849.017   132173810.906       -4333.480          42.000    25151846.577   102992561.125       -3376.994          41.000  
G05  22718649.914   119387311.870       -1264.722          45.000    22718644.488    93029044.888        -985.659          38.000  
G13  21929397.781   115239768.478       -1123.507          40.000                                                                  
G15  23256754.889   122215104.383        1105.303          41.000    23256749.658    95232526.477         860.649          40.000  
G29  24708058.530   129841701.710       -2425.024          42.000    24708053.538   101175339.183       -1889.811          38.000  
G18  26121419.510   137269678.706        2203.214          41.000    26121415.773   106962848.354        1716.988          41.000  
G30  25262154.714   132753529.944       -2081.622          42.000    25262152.857   103444313.228       -1622.133          39.000  
G24                                                                  27635897.805   113164389.472        2117.812          37.000  
> 2025 05 29 08 33 40.0070000  0 10                     
G20  23541322.447   123710463.152       -2635.560          46.000                                                                  
G07  27539669.918   144721897.819       -3382.804          37.000    27539667.849   112770316.876       -2636.516          27.000  
G11  25152673.702   132178144.630       -4333.795          42.000    25152671.213   102995938.049       -3376.918          40.000  
G05  22718890.580   119388576.542       -1264.642          44.000    22718885.113    93030030.343        -985.442          37.000  
G13  21929611.506   115240892.050       -1123.547          41.000                                                                  
G15  23256544.596   122213999.310        1104.960          42.000    23256539.335    95231665.345         861.227          38.000  
G29  24708520.045   129844127.014       -2425.630          42.000    24708515.134   101177229.032       -1889.956          37.000  
G18  26121000.260   137267475.575        2203.246          41.000    26120996.519   106961131.615        1717.009          38.000  
G30  25262550.733   132755611.823       -2082.293          42.000    25262549.085   103445935.469       -1622.487          38.000  
G24                                                                  27635380.636   113162271.789        2118.402          35.000  
> 2025 05 29 08 33 41.0070000  0 10                     
G20  23541824.058   123713098.922       -2635.808          46.000                                                                  
G07  27540313.723   144725281.344       -3383.906          37.000    27540311.785   112772953.319       -2636.130          27.000  
G11  25153498.476   132182478.716       -4334.226          43.000    25153495.928   102999315.247       -3377.394          40.000  
G05  22719131.266   119389841.560       -1264.972          45.000    22719125.723    93031016.064        -985.774          38.000  
G13  21929825.515   115242016.354       -1124.533          41.000                                                                  
G15  23256334.437   122212894.703        1104.615          42.000    23256329.132    95230804.626         860.478          39.000  
G29  24708981.703   129846552.946       -2425.933          42.000    24708976.809   101179119.361       -1890.597          37.000  
G18  26120581.067   137265272.640        2203.057          41.000    26120577.362   106959415.062        1716.413          40.000  
G30  25262947.047   132757694.316       -2082.716          42.000    25262945.340   103447558.185       -1623.024          38.000  
G24                                                                  27634863.427   113160154.092        2117.582          36.000  
